geometry,name,amenity,public_transport,railway,highway,stars,internet_access,brand,operator,cuisine,rooms,opening_hours,wheelchair,addr:street,addr:housenumber,addr:postcode,lon,lat
POINT (-0.3660657 39.4731774),Alameda,,stop_position,stop,,,,,Metrovalencia,,,,,,,,-0.3660657,39.4731774
POINT (-0.3574556 39.4723986),Aragó,,stop_position,stop,,,,,,,,,,,,,-0.3574556,39.4723986
POINT (-0.4026173 39.4510701),Sant Isidre,,station,station,,,,,,,,,,,,,-0.4026173,39.4510701
POINT (-0.3978542 39.455039),Safranar,,stop_position,stop,,,,,,,,,limited,,,,-0.3978542,39.455039
POINT (-0.3619063 39.4780954),Facultats Manuel Broseta,,stop_position,stop,,,,,Metrovalencia,,,,,,,,-0.3619063,39.4780954
POINT (-0.3623735 39.4778165),Facultats Manuel Broseta,,,subway_entrance,,,,,,,,,no,,,,-0.3623735,39.4778165
POINT (-0.3617973 39.4776447),Facultats Manuel Broseta,,,subway_entrance,,,,,,,,,no,,,,-0.3617973,39.4776447
POINT (-0.3614142 39.4783852),Facultats Manuel Broseta,,,subway_entrance,,,,,,,,,,,,,-0.3614142,39.4783852
POINT (-0.3620124 39.4785592),Facultats Manuel Broseta,,,subway_entrance,,,,,,,,,,,,,-0.3620124,39.4785592
POINT (-0.37068 39.4701604),Colón,,stop_position,stop,,,,,Metrovalencia,,,,,,,,-0.37068,39.4701604
POINT (-0.3708839 39.4703044),Colón,,,subway_entrance,,,,,,,,,no,,,,-0.3708839,39.4703044
POINT (-0.3715438 39.4695255),Colón,,,subway_entrance,,,,,,,,,,,,,-0.3715438,39.4695255
POINT (-0.3572899 39.4833051),Vicent Zaragozà,,stop_position,tram_stop,,,,,,,,,,,,,-0.3572899,39.4833051
POINT (-0.3500137 39.4811835),Universitat Politècnica,,stop_position,tram_stop,,,,,,,,,,,,,-0.3500137,39.4811835
POINT (-0.3444999 39.479595),la Carrasca,,stop_position,tram_stop,,,,,,,,,,,,,-0.3444999,39.479595
POINT (-0.3395337 39.4781633),Tarongers Ernest Lluch,,stop_position,tram_stop,,,,,Ferrocarrils de la Generalitat Valenciana,,,,,,,,-0.3395337,39.4781633
POINT (-0.3344684 39.476702),Beteró,,stop_position,tram_stop,,,,,Ferrocarrils de la Generalitat Valenciana,,,,,,,,-0.3344684,39.476702
POINT (-0.3435312 39.4797376),P4A,parking,,,,,,,,,,,,,,,-0.3435312,39.4797376
POINT (-0.4110352 39.4611044),,parking,,,,,,,,,,,,,,,-0.4110352,39.4611044
POINT (-0.3687488 39.4644906),Parking Reino de Valencia,parking,,,,,,,,,,,,,,,-0.3687488,39.4644906
POINT (-0.3647439 39.4667269),,parking,,,,,,,,,,,,,,,-0.3647439,39.4667269
POINT (-0.425133 39.5006364),Beleret,,,,,3,,,,,,,,,,,-0.425133,39.5006364
POINT (-0.3849028 39.4696337),C/ Dr. Sanchis Sivera,,,subway_entrance,,,,,,,,,no,,,,-0.3849028,39.4696337
POINT (-0.3775796 39.4676669),Xàtiva,,stop_position,stop,,,,,Metrovalencia,,,,,,,,-0.3775796,39.4676669
POINT (-0.3760182 39.4674597),Xàtiva,,,subway_entrance,,,,,,,,,,,,,-0.3760182,39.4674597
POINT (-0.3776238 39.4678139),C/ Xàtiva / Pl. San Agustín,,,subway_entrance,,,,,,,,,no,,,,-0.3776238,39.4678139
POINT (-0.3840699 39.4695662),C/ Conca,,,subway_entrance,,,,,,,,,,,,,-0.3840699,39.4695662
POINT (-0.3849191 39.4701181),Àngel Guimerà,,stop_position,stop,,,,,Ferrocarrils de la Generalitat Valenciana,,,,,,,,-0.3849191,39.4701181
POINT (-0.3977789 39.4686059),Avinguda del Cid,,stop_position,stop,,,,,Metrovalencia,,,,,,,,-0.3977789,39.4686059
POINT (-0.4076018 39.4709499),Nou d'Octubre,,stop_position,stop,,,,,Metrovalencia,,,,,,,,-0.4076018,39.4709499
POINT (-0.3913654 39.4722951),Parking Santa María Micaela,parking,,,,,,,,,,,,,,,-0.3913654,39.4722951
POINT (-0.3294173 39.4752445),La Cadena,,stop_position,tram_stop,,,,,Ferrocarrils de la Generalitat Valenciana,,,,,,,,-0.3294173,39.4752445
POINT (-0.3256238 39.473897),Platja Malva-rosa,,stop_position,tram_stop,,,,,Ferrocarrils de la Generalitat Valenciana,,,,,,,,-0.3256238,39.473897
POINT (-0.3256365 39.4690236),Platja les Arenes,,stop_position,tram_stop,,,,,Ferrocarrils de la Generalitat Valenciana,,,,,,,,-0.3256365,39.4690236
POINT (-0.328127 39.4684375),Dr. Lluch,,stop_position,tram_stop,,,,,Ferrocarrils de la Generalitat Valenciana,,,,,,,,-0.328127,39.4684375
POINT (-0.3275746 39.472274),Cabanyal,,stop_position,tram_stop,,,,,Ferrocarrils de la Generalitat Valenciana,,,,,,,,-0.3275746,39.472274
POINT (-0.3630506 39.4849982),Benimaclet,,stop_position,tram_stop,,,,,,,,,,,,,-0.3630506,39.4849982
POINT (-0.3675372 39.4863151),Trinitat,,stop_position,tram_stop,,,,,,,,,,,,,-0.3675372,39.4863151
POINT (-0.372913 39.4821884),Pont de Fusta,,stop_position,tram_stop,,,,,,,,,,,,,-0.372913,39.4821884
POINT (-0.3994139 39.4908716),Beniferri,,stop_position,stop,,,,,,,,,,,,,-0.3994139,39.4908716
POINT (-0.4000684 39.4972359),Palau de Congressos,,stop_position,tram_stop,,,,,,,,,,,,,-0.4000684,39.4972359
POINT (-0.394133 39.4921542),Garbí,,stop_position,tram_stop,,,,,,,,,,,,,-0.394133,39.4921542
POINT (-0.3900161 39.4899682),Benicalap,,stop_position,tram_stop,,,,,,,,,,,,,-0.3900161,39.4899682
POINT (-0.3870385 39.4895533),Trànsits,,stop_position,tram_stop,,,,,,,,,,,,,-0.3870385,39.4895533
POINT (-0.3838592 39.4879552),Marxalenes,,stop_position,tram_stop,,,,,,,,,,,,,-0.3838592,39.4879552
POINT (-0.3817171 39.4859308),Reus,,stop_position,tram_stop,,,,,,,,,,,,,-0.3817171,39.4859308
POINT (-0.3941308 39.4835377),Campanar,,stop_position,stop,,,,,,,,,,,,,-0.3941308,39.4835377
POINT (-0.3903513 39.4783188),Túria,,stop_position,stop,,,,,,,,,,,,,-0.3903513,39.4783188
POINT (-0.3822345 39.4748253),Gilda,bar,,,,,wlan,,,,,,yes,,,,-0.3822345,39.4748253
POINT (-0.3812275 39.4742601),DJango,restaurant,,,,,wlan,,,,,,yes,,,,-0.3812275,39.4742601
POINT (-0.380755 39.4742045),Conde de Parcent,parking,,,,,,,,,,,yes,,,,-0.380755,39.4742045
POINT (-0.3808686 39.4751061),Carda - Moro Zeit,,platform,,bus_stop,,,,Empresa Municipal de Transportes de Valencia,,,,,,,,-0.3808686,39.4751061
POINT (-0.3677426 39.4716561),Porta de la Mar,,platform,,bus_stop,,,,Empresa Municipal de Transportes de Valencia,,,,,,,,-0.3677426,39.4716561
POINT (-0.3877646 39.4737633),Ferran el Catòlic - S. Ignacio de Loyola,,platform,,bus_stop,,,,Empresa Municipal de Transportes de Valencia,,,,,,,,-0.3877646,39.4737633
POINT (-0.3675734 39.4717761),,parking,,,,,,,,,,,,,,,-0.3675734,39.4717761
POINT (-0.3324961 39.460357),Edifici del Rellotge,,platform,,bus_stop,,,,Empresa Municipal de Transportes de Valencia,,,,,,,,-0.3324961,39.460357
POINT (-0.328549 39.4656252),Dr. Lluch - Vicent Gallart,,platform,,bus_stop,,,,Empresa Municipal de Transportes de Valencia,,,,,,,,-0.328549,39.4656252
POINT (-0.3283056 39.4672337),Mediterrani,,platform,,bus_stop,,,,Empresa Municipal de Transportes de Valencia,,,,,,,,-0.3283056,39.4672337
POINT (-0.3279747 39.4694008),Dr. Lluch,,platform,,bus_stop,,,,Empresa Municipal de Transportes de Valencia,,,,,,,,-0.3279747,39.4694008
POINT (-0.3276495 39.4716646),Cabanyal,,platform,,bus_stop,,,,Empresa Municipal de Transportes de Valencia,,,,,,,,-0.3276495,39.4716646
POINT (-0.3273769 39.4734693),Dr. Lluch - Vicent Guillot,,platform,,bus_stop,,,,Empresa Municipal de Transportes de Valencia,,,,,,,,-0.3273769,39.4734693
POINT (-0.3265469 39.4761671),Cavite - Riu Tajo,,platform,,bus_stop,,,,Empresa Municipal de Transportes de Valencia,,,,,,,,-0.3265469,39.4761671
POINT (-0.3266808 39.4790725),Cavite - Vicent la Roda,,platform,,bus_stop,,,,Empresa Municipal de Transportes de Valencia,,,,,,,,-0.3266808,39.4790725
POINT (-0.3266953 39.4815287),Cavite - Font d'en Carròs,,platform,,bus_stop,,,,Empresa Municipal de Transportes de Valencia,,,,,,,,-0.3266953,39.4815287
POINT (-0.3265674 39.4831684),Malva-rosa - Cavite,,platform,,bus_stop,,,,Empresa Municipal de Transportes de Valencia,,,,,,,,-0.3265674,39.4831684
POINT (-0.3278537 39.4838113),la Malva-rosa - Mendizábal,,platform,,bus_stop,,,,Empresa Municipal de Transportes de Valencia,,,,,,,,-0.3278537,39.4838113
POINT (-0.3281232 39.4791018),la Malva-rosa - Sant Rafael,,platform,,bus_stop,,,,Empresa Municipal de Transportes de Valencia,,,,,,,,-0.3281232,39.4791018
POINT (-0.328137 39.4774459),la Malva-rosa - Sant Joan de Déu,,platform,,bus_stop,,,,Empresa Municipal de Transportes de Valencia,,,,,,,,-0.328137,39.4774459
POINT (-0.327803 39.4762116),la Malva-rosa - Riu Tajo,,platform,,bus_stop,,,,Empresa Municipal de Transportes de Valencia,,,,,,,,-0.327803,39.4762116
POINT (-0.3288096 39.4720216),Pintor Ferrandis - Progrés,,platform,,bus_stop,,,,Empresa Municipal de Transportes de Valencia,,,,,,,,-0.3288096,39.4720216
POINT (-0.3317085 39.4722531),Pintor Ferrandis - Àngels,,platform,,bus_stop,,,,Empresa Municipal de Transportes de Valencia,,,,,,,,-0.3317085,39.4722531
POINT (-0.3294355 39.4719649),Pintor Ferrandis - Josep Benlliure,,platform,,bus_stop,,,,Empresa Municipal de Transportes de Valencia,,,,,,,,-0.3294355,39.4719649
POINT (-0.3318723 39.4723763),Església dels Àngels - Pintor Ferrandis,,platform,,bus_stop,,,,Empresa Municipal de Transportes de Valencia,,,,,,,,-0.3318723,39.4723763
POINT (-0.3324357 39.468428),Mercat del Cabanyal,,platform,,bus_stop,,,,Empresa Municipal de Transportes de Valencia,,,,,,,,-0.3324357,39.468428
POINT (-0.3288059 39.4681149),Reina - Columbretes,,platform,,bus_stop,,,,Empresa Municipal de Transportes de Valencia,,,,,,,,-0.3288059,39.4681149
POINT (-0.3303754 39.4557546),Manuel Soto Enginyer - Comandància Marina,,platform,,bus_stop,,,,Empresa Municipal de Transportes de Valencia,,,,,,,,-0.3303754,39.4557546
POINT (-0.3322737 39.4583399),Manuel Soto Enginyer - Estació,,platform,,bus_stop,,,,Empresa Municipal de Transportes de Valencia,,,,,,,,-0.3322737,39.4583399
POINT (-0.3336758 39.4519733),Major de Natzaret - Vilanova i Piera,,platform,,bus_stop,,,,Empresa Municipal de Transportes de Valencia,,,,,,,,-0.3336758,39.4519733
POINT (-0.3306676 39.4544964),Pont de les Drassanes,,platform,,bus_stop,,,,Empresa Municipal de Transportes de Valencia,,,,,,,,-0.3306676,39.4544964
POINT (-0.3346362 39.4485282),Major de Natzaret - Castell de Pop,,platform,,bus_stop,,,,Empresa Municipal de Transportes de Valencia,,,,,,,,-0.3346362,39.4485282
POINT (-0.3341562 39.4502373),Mercat de Natzaret,,platform,,bus_stop,,,,Empresa Municipal de Transportes de Valencia,,,,,,,,-0.3341562,39.4502373
POINT (-0.3936647 39.4808639),Vall de la Ballestera - Campanar,,platform,,bus_stop,,,,Empresa Municipal de Transportes de Valencia,,,,,,,,-0.3936647,39.4808639
POINT (-0.3330302 39.4486455),Aras de los Olmos - Castell de Pop,,platform,,bus_stop,,,,Empresa Municipal de Transportes de Valencia,,,,,,,,-0.3330302,39.4486455
POINT (-0.3351943 39.4448201),Punta al Mar - Camí Canal,,platform,,bus_stop,,,,Empresa Municipal de Transportes de Valencia,,,,,,,,-0.3351943,39.4448201
POINT (-0.3256563 39.4725695),Eugenia Viñes - Camps,,platform,,bus_stop,,,,Empresa Municipal de Transportes de Valencia,,,,,,,,-0.3256563,39.4725695
POINT (-0.3256733 39.4695889),Platja Les Arenes,,platform,,bus_stop,,,,Empresa Municipal de Transportes de Valencia,,,,,,,,-0.3256733,39.4695889
POINT (-0.3325133 39.4504079),Poliesportiu Natzaret - Moraira,,platform,,bus_stop,,,,Empresa Municipal de Transportes de Valencia,,,,,,,,-0.3325133,39.4504079
POINT (-0.3320855 39.4518255),Poliesportiu Natzaret - Pont de les Drassanes,,platform,,bus_stop,,,,Empresa Municipal de Transportes de Valencia,,,,,,,,-0.3320855,39.4518255
POINT (-0.348741 39.4743734),Blasco Ibáñez - Ramon Llull,,platform,,bus_stop,,,,Empresa Municipal de Transportes de Valencia,,,,,,,,-0.348741,39.4743734
POINT (-0.3512129 39.475118),Blasco Ibáñez - Vinalopó,,platform,,bus_stop,,,,Empresa Municipal de Transportes de Valencia,,,,,,,,-0.3512129,39.475118
POINT (-0.3471374 39.4752436),Ramon Llull - Escultor Alfons Gabino,,platform,,bus_stop,,,,Empresa Municipal de Transportes de Valencia,,,,,,,,-0.3471374,39.4752436
POINT (-0.3511911 39.474817),Blasco Ibáñez - República Argentina,,platform,,bus_stop,,,,Empresa Municipal de Transportes de Valencia,,,,limited,,,,-0.3511911,39.474817
POINT (-0.3490533 39.4741579),Blasco Ibáñez - Dr. Manuel Candela,,platform,,bus_stop,,,,Empresa Municipal de Transportes de Valencia,,,,yes,,,,-0.3490533,39.4741579
POINT (-0.3426064 39.4728013),Blasco Ibáñez - Actor Enrique Rambal,,platform,,bus_stop,,,,Empresa Municipal de Transportes de Valencia,,,,yes,,,,-0.3426064,39.4728013
POINT (-0.3459044 39.473772),Blasco Ibáñez - Hondures,,platform,,bus_stop,,,,Empresa Municipal de Transportes de Valencia,,,,yes,,,,-0.3459044,39.473772
POINT (-0.3399611 39.4720082),Blasco Ibáñez - José María Orense,,platform,,bus_stop,,,,Empresa Municipal de Transportes de Valencia,,,,,,,,-0.3399611,39.4720082
POINT (-0.3449163 39.4688431),Sants Just i Pastor - Humanista Furió,,platform,,bus_stop,,,,Empresa Municipal de Transportes de Valencia,,,,,,,,-0.3449163,39.4688431
POINT (-0.3402779 39.4713643),Blasco Ibáñez - Enginyer Rafael Janini,,platform,,bus_stop,,,,Empresa Municipal de Transportes de Valencia,,,,,,,,-0.3402779,39.4713643
POINT (-0.3429229 39.4721346),Blasco Ibáñez - Músic Ginés,,platform,,bus_stop,,,,Empresa Municipal de Transportes de Valencia,,,,yes,,,,-0.3429229,39.4721346
POINT (-0.3461738 39.4730974),Blasco Ibáñez - Actriu Encarna Máñez,,platform,,bus_stop,,,,Empresa Municipal de Transportes de Valencia,,,,yes,,,,-0.3461738,39.4730974
POINT (-0.3522086 39.470745),Sants Just i Pastor - Lluís de Milà,,platform,,bus_stop,,,,Empresa Municipal de Transportes de Valencia,,,,,,,,-0.3522086,39.470745
POINT (-0.3526876 39.4710938),Centre de Salut República Argentina,,platform,,bus_stop,,,,Empresa Municipal de Transportes de Valencia,,,,,,,,-0.3526876,39.4710938
POINT (-0.3500597 39.470322),Amistat,,platform,,bus_stop,,,,Empresa Municipal de Transportes de Valencia,,,,,,,,-0.3500597,39.470322
POINT (-0.3472288 39.4694885),Sants Just i Pastor - Lleons,,platform,,bus_stop,,,,Empresa Municipal de Transportes de Valencia,,,,,,,,-0.3472288,39.4694885
POINT (-0.3481292 39.4728012),Dr. Manuel Candela (parell) - Blasco Ibáñez,,platform,,bus_stop,,,,Empresa Municipal de Transportes de Valencia,,,,yes,,,,-0.3481292,39.4728012
POINT (-0.3499653 39.4682958),Dr. Manuel Candela (parell) - Rodríguez de Cepeda,,platform,,bus_stop,,,,Empresa Municipal de Transportes de Valencia,,,,,,,,-0.3499653,39.4682958
POINT (-0.346277 39.469014),Sants Just i Pastor - Peris Brell,,platform,,bus_stop,,,,Empresa Municipal de Transportes de Valencia,,,,,,,,-0.346277,39.469014
POINT (-0.3490819 39.4698215),Amistat,,platform,,bus_stop,,,,Empresa Municipal de Transportes de Valencia,,,,,,,,-0.3490819,39.4698215
POINT (-0.3561951 39.4768374),Blasco Ibáñez - Almela i Vives,,platform,,bus_stop,,,,Empresa Municipal de Transportes de Valencia;AVSA,,,,,,,,-0.3561951,39.4768374
POINT (-0.3538671 39.4758773),Blasco Ibáñez - Rubén Darío,,platform,,bus_stop,,,,Empresa Municipal de Transportes de Valencia,,,,,,,,-0.3538671,39.4758773
POINT (-0.3528733 39.4742214),Cardenal Benlloch - Dr. Vicente Pallarés,,platform,,bus_stop,,,,Empresa Municipal de Transportes de Valencia,,,,,,,,-0.3528733,39.4742214
POINT (-0.3561395 39.4675759),Cardenal Benlloch (parell) - Port,,platform,,bus_stop,,,,Empresa Municipal de Transportes de Valencia,,,,,,,,-0.3561395,39.4675759
POINT (-0.3656774 39.4788198),Jardí de Monforte,,platform,,bus_stop,,,,Empresa Municipal de Transportes de Valencia,,,,,,,,-0.3656774,39.4788198
POINT (-0.3650513 39.4791388),Blasco Ibáñez - Rectorat,,platform,,bus_stop,,,,Empresa Municipal de Transportes de Valencia,,,,,,,,-0.3650513,39.4791388
POINT (-0.3631682 39.4780896),Blasco Ibáñez (parell) - Ciutat Universitària,,platform,,bus_stop,,,,Empresa Municipal de Transportes de Valencia,,,,,,,,-0.3631682,39.4780896
POINT (-0.3613953 39.477557),Facultats,,platform,,bus_stop,,,,Empresa Municipal de Transportes de Valencia,,,,,,,,-0.3613953,39.477557
POINT (-0.3576203 39.4772399),Blasco Ibáñez - Gascó Oliag,,platform,,bus_stop,,,,Empresa Municipal de Transportes de Valencia,,,,,,,,-0.3576203,39.4772399
POINT (-0.3601115 39.477985),Facultat de Psicologia,,platform,,bus_stop,,,,Empresa Municipal de Transportes de Valencia,,,,,,,,-0.3601115,39.477985
POINT (-0.3634284 39.4789358),Hospital Clínic,,platform,,bus_stop,,,,Empresa Municipal de Transportes de Valencia;AVSA,,,,,,,,-0.3634284,39.4789358
POINT (-0.365554 39.4795985),Blasco Ibáñez - Jaume Roig,,platform,,bus_stop,,,,Empresa Municipal de Transportes de Valencia,,,,,,,,-0.365554,39.4795985
POINT (-0.3641976 39.4839895),Cabanilles - Primat Reig,,platform,,bus_stop,,,,Empresa Municipal de Transportes de Valencia,,,,,,,,-0.3641976,39.4839895
POINT (-0.3652084 39.4819597),Cabanilles - Álvaro de Bazán,,platform,,bus_stop,,,,Empresa Municipal de Transportes de Valencia,,,,,,,,-0.3652084,39.4819597
POINT (-0.3662185 39.4798977),Cabanilles - Vivers,,platform,,bus_stop,,,,Empresa Municipal de Transportes de Valencia,,,,,,,,-0.3662185,39.4798977
POINT (-0.3639781 39.481289),Jaume Roig - Álvaro de Bazán,,platform,,bus_stop,,,,Empresa Municipal de Transportes de Valencia,,,,,,,,-0.3639781,39.481289
POINT (-0.3591775 39.4768946),Facultat de Filologia,,platform,,bus_stop,,,,Empresa Municipal de Transportes de Valencia,,,,,,,,-0.3591775,39.4768946
POINT (-0.35484 39.4758319),Blasco Ibáñez - Bèlgica,,platform,,bus_stop,,,,Empresa Municipal de Transportes de Valencia,,,,,,,,-0.35484,39.4758319
POINT (-0.3609465 39.4799124),Dr. Gómez Ferrer - Menéndez y Pelayo,,platform,,bus_stop,,,,Empresa Municipal de Transportes de Valencia,,,,,,,,-0.3609465,39.4799124
POINT (-0.3581365 39.4801748),Primat Reig - Campus Universitari,,platform,,bus_stop,,,,Empresa Municipal de Transportes de Valencia,,,,,,,,-0.3581365,39.4801748
POINT (-0.3633902 39.4840655),Primat Reig - Jaume Roig,,platform,,bus_stop,,,,Empresa Municipal de Transportes de Valencia,,,,,,,,-0.3633902,39.4840655
POINT (-0.3631898 39.4842691),Primat Reig - Emili Baró,,platform,,bus_stop,,,,Empresa Municipal de Transportes de Valencia,,,,,,,,-0.3631898,39.4842691
POINT (-0.3579151 39.4803423),Primat Reig - Camí Vera,,platform,,bus_stop,,,,Empresa Municipal de Transportes de Valencia,,,,,,,,-0.3579151,39.4803423
POINT (-0.3620823 39.4851243),Benimaclet,,platform,,bus_stop,,,,Empresa Municipal de Transportes de Valencia,,,,,,,,-0.3620823,39.4851243
POINT (-0.3630323 39.4831899),Jaume Roig - Primat Reig,,platform,,bus_stop,,,,Empresa Municipal de Transportes de Valencia,,,,,,,,-0.3630323,39.4831899
POINT (-0.3605739 39.4882234),Emili Baró - Francesc Martínez,,platform,,bus_stop,,,,Empresa Municipal de Transportes de Valencia,,,,,,,,-0.3605739,39.4882234
POINT (-0.3613887 39.4865886),Emili Baró - Manuel Castellanos,,platform,,bus_stop,,,,Empresa Municipal de Transportes de Valencia,,,,,,,,-0.3613887,39.4865886
POINT (-0.3698681 39.4966147),Sant Joan Bosco - Daroca,,platform,,bus_stop,,,,Empresa Municipal de Transportes de Valencia,,,,,,,,-0.3698681,39.4966147
POINT (-0.3689936 39.4882499),Primat Reig - Almassora,,platform,,bus_stop,,,,Empresa Municipal de Transportes de Valencia,,,,,,,,-0.3689936,39.4882499
POINT (-0.371511 39.4901303),Primat Reig - Bilbao,,platform,,bus_stop,,,,Empresa Municipal de Transportes de Valencia,,,,,,,,-0.371511,39.4901303
POINT (-0.3717248 39.4920789),Pare Viñas - Reig Genovés,,platform,,bus_stop,,,,Empresa Municipal de Transportes de Valencia,,,,,,,,-0.3717248,39.4920789
POINT (-0.3710276 39.490069),Primat Reig - Sant Vicent de Paül,,platform,,bus_stop,,,,Empresa Municipal de Transportes de Valencia,,,,,,,,-0.3710276,39.490069
POINT (-0.3689941 39.4957828),Pare Viñas - Daroca,,platform,,bus_stop,,,,Empresa Municipal de Transportes de Valencia,,,,,,,,-0.3689941,39.4957828
POINT (-0.3703963 39.4942394),Pare Viñas - Duc de Mandas,,platform,,bus_stop,,,,Empresa Municipal de Transportes de Valencia,,,,,,,,-0.3703963,39.4942394
POINT (-0.3660655 39.4860509),Primat Reig - Calderón de la Barca,,platform,,bus_stop,,,,Empresa Municipal de Transportes de Valencia;AVSA,,,,,,,,-0.3660655,39.4860509
POINT (-0.3601279 39.4694715),Aragó - Passeig de l'Albereda,,platform,,bus_stop,,,,Empresa Municipal de Transportes de Valencia,,,,,,,,-0.3601279,39.4694715
POINT (-0.3678907 39.4869938),Primat Reig,,platform,,bus_stop,,,,Empresa Municipal de Transportes de Valencia,,,,,,,,-0.3678907,39.4869938
POINT (-0.3706003 39.4818137),Centre d'Especialitats Ricard Trénor,,platform,,bus_stop,,,,Empresa Municipal de Transportes de Valencia,,,,,,,,-0.3706003,39.4818137
POINT (-0.3694291 39.4840793),Alboraia - Jaca,,platform,,bus_stop,,,,Empresa Municipal de Transportes de Valencia,,,,,,,,-0.3694291,39.4840793
POINT (-0.3578487 39.4646234),Eduard Boscà - Passeig de l'Albereda,,platform,,bus_stop,,,,Empresa Municipal de Transportes de Valencia,,,,,,,,-0.3578487,39.4646234
POINT (-0.3576047 39.464559),Eduard Boscà - Balears,,platform,,bus_stop,,,,Empresa Municipal de Transportes de Valencia,,,,,,,,-0.3576047,39.464559
POINT (-0.3552345 39.4717981),Ernest Ferrer - Polo y Peyrolón,,platform,,bus_stop,,,,Empresa Municipal de Transportes de Valencia,,,,,,,,-0.3552345,39.4717981
POINT (-0.3564726 39.467454),Cardenal Benlloch (imparell) - Port,,platform,,bus_stop,,,,Empresa Municipal de Transportes de Valencia,,,,,,,,-0.3564726,39.467454
POINT (-0.353169 39.4741881),Cardenal Benlloch - Ciutat de Mula,,platform,,bus_stop,,,,Empresa Municipal de Transportes de Valencia,,,,,,,,-0.353169,39.4741881
POINT (-0.3542243 39.4720087),Cardenal Benlloch - Ernest Ferrer,,platform,,bus_stop,,,,Empresa Municipal de Transportes de Valencia,,,,,,,,-0.3542243,39.4720087
POINT (-0.3669341 39.4779274),Vivers,,platform,,bus_stop,,,,Empresa Municipal de Transportes de Valencia,,,,,,,,-0.3669341,39.4779274
POINT (-0.3674738 39.4773215),Vivers,,platform,,bus_stop,,,,Empresa Municipal de Transportes de Valencia,,,,,,,,-0.3674738,39.4773215
POINT (-0.3685295 39.5023432),Constitució (parell) - Campaneta,,platform,,bus_stop,,,,Empresa Municipal de Transportes de Valencia,,,,,,,,-0.3685295,39.5023432
POINT (-0.3702458 39.4988322),Sant Miquel dels Reis,,platform,,bus_stop,,,,Empresa Municipal de Transportes de Valencia,,,,,,,,-0.3702458,39.4988322
POINT (-0.3708155 39.496535),Constitució - Sant Joan de la Penya,,platform,,bus_stop,,,,Empresa Municipal de Transportes de Valencia,,,,,,,,-0.3708155,39.496535
POINT (-0.3719193 39.4945909),Constitució - Duc de Mandas,,platform,,bus_stop,,,,Empresa Municipal de Transportes de Valencia,,,,,,,,-0.3719193,39.4945909
POINT (-0.3748058 39.4917498),Dr. Peset Aleixandre - Constitució,,platform,,bus_stop,,,,Empresa Municipal de Transportes de Valencia,,,,,,,,-0.3748058,39.4917498
POINT (-0.3788877 39.4908496),Dr. Peset Aleixandre - Camí de Montcada,,platform,,bus_stop,,,,Empresa Municipal de Transportes de Valencia,,,,,,,,-0.3788877,39.4908496
POINT (-0.3827816 39.4899889),Dr. Peset Aleixandre - Guardacostes,,platform,,bus_stop,,,,Empresa Municipal de Transportes de Valencia,,,,,,,,-0.3827816,39.4899889
POINT (-0.3829862 39.4901869),Dr. Peset Aleixandre - Joan XXIII,,platform,,bus_stop,,,,Empresa Municipal de Transportes de Valencia,,,,,,,,-0.3829862,39.4901869
POINT (-0.3822792 39.491127),Joan XXIII (parell) - Félix del Río,,platform,,bus_stop,,,,Empresa Municipal de Transportes de Valencia,,,,,,,,-0.3822792,39.491127
POINT (-0.3733843 39.493276),Constitució - Coronel Montesinos,,platform,,bus_stop,,,,Empresa Municipal de Transportes de Valencia,,,,,,,,-0.3733843,39.493276
POINT (-0.3702912 39.4993078),Sant Miquel dels Reis,,platform,,bus_stop,,,,Empresa Municipal de Transportes de Valencia,,,,,,,,-0.3702912,39.4993078
POINT (-0.3686354 39.5024289),Constitució (imparell) - Campaneta,,platform,,bus_stop,,,,Empresa Municipal de Transportes de Valencia,,,,,,,,-0.3686354,39.5024289
POINT (-0.367792 39.5042497),Constitució (parell) - Tavernes Blanques,,platform,,bus_stop,,,,Empresa Municipal de Transportes de Valencia,,,,,,,,-0.367792,39.5042497
POINT (-0.3868522 39.5154945),Camí de Montcada (parell) - Matador,,platform,,bus_stop,,,,Empresa Municipal de Transportes de Valencia,,,,,,,,-0.3868522,39.5154945
POINT (-0.3858142 39.5102904),Camí de Montcada - Alqueria Ballester,,platform,,bus_stop,,,,Empresa Municipal de Transportes de Valencia,,,,,,,,-0.3858142,39.5102904
POINT (-0.3864692 39.5215683),Camí de Montcada (parell) - Alqueria Senent,,platform,,bus_stop,,,,Empresa Municipal de Transportes de Valencia,,,,,,,,-0.3864692,39.5215683
POINT (-0.3769393 39.5149532),Carpesa,,platform,,bus_stop,,,,Empresa Municipal de Transportes de Valencia,,,,,,,,-0.3769393,39.5149532
POINT (-0.3862209 39.5252666),Benifaraig a Montcada - Boquera,,platform,,bus_stop,,,,Empresa Municipal de Transportes de Valencia,,,,,,,,-0.3862209,39.5252666
POINT (-0.3860453 39.5252536),Benifaraig a Montcada - Casa Silvestre,,platform,,bus_stop,,,,Empresa Municipal de Transportes de Valencia,,,,,,,,-0.3860453,39.5252536
POINT (-0.3741314 39.4925801),Sant Doménec Savio - Constitució,,platform,,bus_stop,,,,Empresa Municipal de Transportes de Valencia,,,,,,,,-0.3741314,39.4925801
POINT (-0.3745203 39.4934838),Sant Doménec Savio - Mestre Maçal,,platform,,bus_stop,,,,Empresa Municipal de Transportes de Valencia,,,,,,,,-0.3745203,39.4934838
POINT (-0.3801831 39.4946493),Camí de Montcada (parell) - Cambrils,,platform,,bus_stop,,,,Empresa Municipal de Transportes de Valencia,,,,,,,,-0.3801831,39.4946493
POINT (-0.3786444 39.4914741),Camí de Montcada - Dr. Peset Aleixandre,,platform,,bus_stop,,,,Empresa Municipal de Transportes de Valencia,,,,,,,,-0.3786444,39.4914741
POINT (-0.3827056 39.5028031),Camí de Montcada - Entrada Camí Carpesa,,platform,,bus_stop,,,,Empresa Municipal de Transportes de Valencia,,,,,,,,-0.3827056,39.5028031
POINT (-0.3809054 39.4964363),Camí de Montcada (parell) - Alemany,,platform,,bus_stop,,,,Empresa Municipal de Transportes de Valencia,,,,,,,,-0.3809054,39.4964363
POINT (-0.3839933 39.5068358),Camí de Montcada - Casa d'Àngel,,platform,,bus_stop,,,,Empresa Municipal de Transportes de Valencia,,,,,,,,-0.3839933,39.5068358
POINT (-0.3836819 39.5050548),Camí de Montcada - Poble Nou,,platform,,bus_stop,,,,Empresa Municipal de Transportes de Valencia,,,,,,,,-0.3836819,39.5050548
POINT (-0.3804835 39.4948772),Camí de Montcada (imparell) - Cambrils,,platform,,bus_stop,,,,Empresa Municipal de Transportes de Valencia,,,,,,,,-0.3804835,39.4948772
POINT (-0.3790791 39.4917919),Camí de Montcada - Félix del Río,,platform,,bus_stop,,,,Empresa Municipal de Transportes de Valencia,,,,,,,,-0.3790791,39.4917919
POINT (-0.3903392 39.4894203),Burjassot - Mondúver,,platform,,bus_stop,,,,Empresa Municipal de Transportes de Valencia,,,,,,,,-0.3903392,39.4894203
POINT (-0.39331 39.4923166),Burjassot - Pintor Matarana,,platform,,bus_stop,,,,Empresa Municipal de Transportes de Valencia,,,,,,,,-0.39331,39.4923166
POINT (-0.3957214 39.4946427),Burjassot - Salvador Tusset,,platform,,bus_stop,,,,Empresa Municipal de Transportes de Valencia,,,,,,,,-0.3957214,39.4946427
POINT (-0.396255 39.4956688),Parc de Benicalap,,platform,,bus_stop,,,,Empresa Municipal de Transportes de Valencia,,,,,,,,-0.396255,39.4956688
POINT (-0.3938336 39.4983633),Sant Josep Artesà - Luis Martí Alegre,,platform,,bus_stop,,,,Empresa Municipal de Transportes de Valencia,,,,,,,,-0.3938336,39.4983633
POINT (-0.3963118 39.4957462),Parc de Benicalap,,platform,,bus_stop,,,,Empresa Municipal de Transportes de Valencia,,,,,,,,-0.3963118,39.4957462
POINT (-0.3865955 39.5215874),Camí de Montcada (imparell) - Alqueria Senent,,platform,,bus_stop,,,,Empresa Municipal de Transportes de Valencia,,,,,,,,-0.3865955,39.5215874
POINT (-0.387006 39.515475),Camí de Montcada (imparell) - Matador,,platform,,bus_stop,,,,Empresa Municipal de Transportes de Valencia,,,,,,,,-0.387006,39.515475
POINT (-0.3858232 39.5100714),Camí de Montcada - Alqueria Paella,,platform,,bus_stop,,,,Empresa Municipal de Transportes de Valencia,,,,,,,,-0.3858232,39.5100714
POINT (-0.3840628 39.5065407),Camí de Montcada - Ctra. Daniel,,platform,,bus_stop,,,,Empresa Municipal de Transportes de Valencia,,,,,,,,-0.3840628,39.5065407
POINT (-0.3838044 39.5050306),Camí de Montcada - Poble Nou,,platform,,bus_stop,,,,Empresa Municipal de Transportes de Valencia,,,,,,,,-0.3838044,39.5050306
POINT (-0.382703 39.5027017),Camí de Montcada - Ctra. Carpesa,,platform,,bus_stop,,,,Empresa Municipal de Transportes de Valencia,,,,,,,,-0.382703,39.5027017
POINT (-0.3812282 39.4965655),Camí de Montcada (imparell) - Alemany,,platform,,bus_stop,,,,Empresa Municipal de Transportes de Valencia,,,,,,,,-0.3812282,39.4965655
POINT (-0.3832073 39.4837613),Burjassot - Màlaga,,platform,,bus_stop,,,,Empresa Municipal de Transportes de Valencia,,,,,,,,-0.3832073,39.4837613
POINT (-0.3788353 39.4830825),Constitució - Pla de la Saïdia,,platform,,bus_stop,,,,Empresa Municipal de Transportes de Valencia,,,,,,,,-0.3788353,39.4830825
POINT (-0.3787077 39.4852232),Constitució - Màlaga,,platform,,bus_stop,,,,Empresa Municipal de Transportes de Valencia,,,,,,,,-0.3787077,39.4852232
POINT (-0.3774737 39.4872817),Constitució - Sarrión,,platform,,bus_stop,,,,Empresa Municipal de Transportes de Valencia,,,,,,,,-0.3774737,39.4872817
POINT (-0.3627922 39.4761669),Dr. Moliner - Arts Gràfiques,,platform,,bus_stop,,,,Empresa Municipal de Transportes de Valencia,,,,,,,,-0.3627922,39.4761669
POINT (-0.3890689 39.4883347),Burjassot - Dr. Peset Aleixandre,,platform,,bus_stop,,,,Empresa Municipal de Transportes de Valencia,,,,,,,,-0.3890689,39.4883347
POINT (-0.3856299 39.4854852),Bombas Gens,,platform,,bus_stop,,,,Empresa Municipal de Transportes de Valencia,,,,,,,,-0.3856299,39.4854852
POINT (-0.3746954 39.4862576),Sagunt,,platform,,bus_stop,,,,Empresa Municipal de Transportes de Valencia;AVSA,,,,,,,,-0.3746954,39.4862576
POINT (-0.3747476 39.4843915),Sagunt - Sant Guillem,,platform,,bus_stop,,,,Empresa Municipal de Transportes de Valencia;AVSA,,,,,,,,-0.3747476,39.4843915
POINT (-0.3896001 39.4881822),Campanar - Dr. Nicasi Benlloch,,platform,,bus_stop,,,,Empresa Municipal de Transportes de Valencia,,,,,,,,-0.3896001,39.4881822
POINT (-0.3905713 39.4881929),Dr. Nicasi Benlloch - General Avilés,,platform,,bus_stop,,,,Empresa Municipal de Transportes de Valencia,,,,,,,,-0.3905713,39.4881929
POINT (-0.3759976 39.4893127),Constitució - Xest,,platform,,bus_stop,,,,Empresa Municipal de Transportes de Valencia,,,,,,,,-0.3759976,39.4893127
POINT (-0.3744527 39.4915297),Constitució - Dr. Peset Aleixandre,,platform,,bus_stop,,,,Empresa Municipal de Transportes de Valencia;AVSA,,,,,,,,-0.3744527,39.4915297
POINT (-0.373975 39.4915674),Sagunt - Don Bosco,,platform,,bus_stop,,,,Empresa Municipal de Transportes de Valencia;AVSA,,,,,,,,-0.373975,39.4915674
POINT (-0.3749745 39.488983),Sagunt - Pare Urbà,,platform,,bus_stop,,,,Empresa Municipal de Transportes de Valencia,,,,,,,,-0.3749745,39.488983
POINT (-0.3842923 39.4814859),Menéndez Pidal (imparell) - Pare Ferrís,,platform,,bus_stop,,,,Empresa Municipal de Transportes de Valencia,,,,,,,,-0.3842923,39.4814859
POINT (-0.3814791 39.4826453),Escola Oficial d'Idiomes,,platform,,bus_stop,,,,Empresa Municipal de Transportes de Valencia,,,,,,,,-0.3814791,39.4826453
POINT (-0.3900844 39.4790367),Menéndez Pidal - Pasarel·la,,platform,,bus_stop,,,,Empresa Municipal de Transportes de Valencia,,,,,,,,-0.3900844,39.4790367
POINT (-0.387798 39.4798993),Estació d'Autobusos,,platform,,bus_stop,,,,Empresa Municipal de Transportes de Valencia,,,,,,,,-0.387798,39.4798993
POINT (-0.388754 39.4873713),Dr. Nicasi Benlloch - Alcubles,,platform,,bus_stop,,,,Empresa Municipal de Transportes de Valencia,,,,,,,,-0.388754,39.4873713
POINT (-0.3862562 39.4849406),Pare Ferris - Joaquím Ballester,,platform,,bus_stop,,,,Empresa Municipal de Transportes de Valencia,,,,,,,,-0.3862562,39.4849406
POINT (-0.379532 39.4828192),Pla de la Saïdia (riu) - Constitució,,platform,,bus_stop,,,,Empresa Municipal de Transportes de Valencia,,,,,,,,-0.379532,39.4828192
POINT (-0.3753713 39.481622),Pont dels Serrans,,platform,,bus_stop,,,,Empresa Municipal de Transportes de Valencia,,,,,,,,-0.3753713,39.481622
POINT (-0.3739555 39.4808739),Pont de Fusta,,platform,,bus_stop,,,,Empresa Municipal de Transportes de Valencia;AVSA,,,,,,,,-0.3739555,39.4808739
POINT (-0.3754121 39.4819197),Guadalaviar - Sagunt,,platform,,bus_stop,,,,Empresa Municipal de Transportes de Valencia;Monbus,,,,,,,,-0.3754121,39.4819197
POINT (-0.3713161 39.479042),Museu de Belles Arts,,platform,,bus_stop,,,,Empresa Municipal de Transportes de Valencia,,,,,,,,-0.3713161,39.479042
POINT (-0.3655132 39.4558253),la Plata - Sapadors,,platform,,bus_stop,,,,Empresa Municipal de Transportes de Valencia,,,,,,,,-0.3655132,39.4558253
POINT (-0.3845608 39.4816434),Menéndez Pidal (parell) - Pare Ferrís,,platform,,bus_stop,,,,Empresa Municipal de Transportes de Valencia,,,,,,,,-0.3845608,39.4816434
POINT (-0.387683 39.480217),Estació d'Autobusos,,platform,,bus_stop,,,,Empresa Municipal de Transportes de Valencia,,,,,,,,-0.387683,39.480217
POINT (-0.3774426 39.4828787),El Pla de la Saïdia - Constitució,,platform,,bus_stop,,,,Empresa Municipal de Transportes de Valencia,,,,,,,,-0.3774426,39.4828787
POINT (-0.3812053 39.4829825),Escola Oficial d'Idiomes,,platform,,bus_stop,,,,Empresa Municipal de Transportes de Valencia;AVSA,,,,,,,,-0.3812053,39.4829825
POINT (-0.4161063 39.4972879),Mossén Miguel Tarín (imparell) - Carretera de Paterna,,platform,,bus_stop,,,,Empresa Municipal de Transportes de Valencia,,,,,,,,-0.4161063,39.4972879
POINT (-0.399509 39.4910493),Beniferri,,platform,,bus_stop,,,,Empresa Municipal de Transportes de Valencia,,,,,,,,-0.399509,39.4910493
POINT (-0.4173283 39.4995555),Dr. Soriano Benlloch - Rafael Tenes Escrich,,platform,,bus_stop,,,,Empresa Municipal de Transportes de Valencia,,,,,,,,-0.4173283,39.4995555
POINT (-0.4163268 39.49855),Mossén Miguel Tarín (imparell) - Miquel Agraït,,platform,,bus_stop,,,,Empresa Municipal de Transportes de Valencia,,,,,,,,-0.4163268,39.49855
POINT (-0.393394 39.4823567),Pius XII - Campanar,,platform,,bus_stop,,,,Empresa Municipal de Transportes de Valencia,,,,,,,,-0.393394,39.4823567
POINT (-0.3913281 39.4795173),Pius XII - Centre Comercial,,platform,,bus_stop,,,,Empresa Municipal de Transportes de Valencia,,,,,,,,-0.3913281,39.4795173
POINT (-0.3963757 39.4867843),Corts Valencianes - Davant Esc. Prof. Sant Josep,,platform,,bus_stop,,,,Empresa Municipal de Transportes de Valencia,,,,,,,,-0.3963757,39.4867843
POINT (-0.3946933 39.4843959),Campanar,,platform,,bus_stop,,,,Empresa Municipal de Transportes de Valencia,,,,,,,,-0.3946933,39.4843959
POINT (-0.3937178 39.4800319),Campanar - Joan Pau II,,platform,,bus_stop,,,,Empresa Municipal de Transportes de Valencia,,,,,,,,-0.3937178,39.4800319
POINT (-0.390688 39.4858918),Campanar - Ricardo Micó,,platform,,bus_stop,,,,Empresa Municipal de Transportes de Valencia,,,,,,,,-0.390688,39.4858918
POINT (-0.3932214 39.4806147),Campanar - Pius XII,,platform,,bus_stop,,,,Empresa Municipal de Transportes de Valencia,,,,,,,,-0.3932214,39.4806147
POINT (-0.3947826 39.4777708),Mercat de Campanar,,platform,,bus_stop,,,,Empresa Municipal de Transportes de Valencia,,,,,,,,-0.3947826,39.4777708
POINT (-0.3921176 39.4818749),Joaquim Ballester - Campanar,,platform,,bus_stop,,,,Empresa Municipal de Transportes de Valencia,,,,,,,,-0.3921176,39.4818749
POINT (-0.3897559 39.4829421),Joaquim Ballester (parell) - Ricardo Micó,,platform,,bus_stop,,,,Empresa Municipal de Transportes de Valencia,,,,,,,,-0.3897559,39.4829421
POINT (-0.3897582 39.4826447),Joaquim Ballester (imparell) - Ricardo Micó,,platform,,bus_stop,,,,Empresa Municipal de Transportes de Valencia,,,,,,,,-0.3897582,39.4826447
POINT (-0.4200934 39.50242),Pintor Garnelo - Campament,,platform,,bus_stop,,,,Empresa Municipal de Transportes de Valencia,,,,,,,,-0.4200934,39.50242
POINT (-0.419093 39.5014036),Felipe Valls - Lluís Cano,,platform,,bus_stop,,,,Empresa Municipal de Transportes de Valencia,,,,,,,,-0.419093,39.5014036
POINT (-0.4162252 39.4975501),Mossén Miguel Tarín (parell) - Carretera de Paterna,,platform,,bus_stop,,,,Empresa Municipal de Transportes de Valencia,,,,,,,,-0.4162252,39.4975501
POINT (-0.4264928 39.5034747),Fira València,,platform,,bus_stop,,,,Empresa Municipal de Transportes de Valencia,,,,,,,,-0.4264928,39.5034747
POINT (-0.4262726 39.5016888),Velòdrom Lluís Puig,,platform,,bus_stop,,,,Empresa Municipal de Transportes de Valencia,,,,,,,,-0.4262726,39.5016888
POINT (-0.4253001 39.500916),Polvorí - Campament,,platform,,bus_stop,,,,Empresa Municipal de Transportes de Valencia,,,,,,,,-0.4253001,39.500916
POINT (-0.4227498 39.5014999),Campament (imparell) - Joaquín Marín,,platform,,bus_stop,,,,Empresa Municipal de Transportes de Valencia,,,,,,,,-0.4227498,39.5014999
POINT (-0.4262303 39.5032938),Fira València,,platform,,bus_stop,,,,Empresa Municipal de Transportes de Valencia,,,,,,,,-0.4262303,39.5032938
POINT (-0.4186713 39.5014281),Benimàmet,,platform,,bus_stop,,,,Empresa Municipal de Transportes de Valencia,,,,,,,,-0.4186713,39.5014281
POINT (-0.4202664 39.5026469),Campament - Felipe Valls,,platform,,bus_stop,,,,Empresa Municipal de Transportes de Valencia,,,,,,,,-0.4202664,39.5026469
POINT (-0.4232609 39.5013558),Campament (parell) - Joaquín Marín,,platform,,bus_stop,,,,Empresa Municipal de Transportes de Valencia,,,,,,,,-0.4232609,39.5013558
POINT (-0.4251448 39.5008428),Polvorí - Sinarques,,platform,,bus_stop,,,,Empresa Municipal de Transportes de Valencia,,,,,,,,-0.4251448,39.5008428
POINT (-0.3937534 39.4719113),Pérez Galdós - Torres Torres,,platform,,bus_stop,,,,Empresa Municipal de Transportes de Valencia,,,,,,,,-0.3937534,39.4719113
POINT (-0.3955847 39.4744587),Pérez Galdós - Democràcia,,platform,,bus_stop,,,,Empresa Municipal de Transportes de Valencia,,,,,,,,-0.3955847,39.4744587
POINT (-0.3977187 39.4773834),Mestre Rodrigo - Manuel de Falla,,platform,,bus_stop,,,,Empresa Municipal de Transportes de Valencia,,,,,,,,-0.3977187,39.4773834
POINT (-0.4012748 39.4755763),Manuel de Falla - Professor López Ibor,,platform,,bus_stop,,,,Empresa Municipal de Transportes de Valencia,,,,,,,,-0.4012748,39.4755763
POINT (-0.3977873 39.4762908),Manuel de Falla - Mestre Rodrigo,,platform,,bus_stop,,,,Empresa Municipal de Transportes de Valencia,,,,,,,,-0.3977873,39.4762908
POINT (-0.3981851 39.4791756),Vall de la Ballestera (parell) - Mestre Rodrigo,,platform,,bus_stop,,,,Empresa Municipal de Transportes de Valencia,,,,,,,,-0.3981851,39.4791756
POINT (-0.3916689 39.4792862),Pius XII - Centre Comercial,,platform,,bus_stop,,,,Empresa Municipal de Transportes de Valencia,,,,,,,,-0.3916689,39.4792862
POINT (-0.3934043 39.481688),Pius XII - Bisbe Soler,,platform,,bus_stop,,,,Empresa Municipal de Transportes de Valencia,,,,,,,,-0.3934043,39.481688
POINT (-0.397402 39.486958),Corts Valencianes - Esc. Prof. de Sant Josep,,platform,,bus_stop,,,,Empresa Municipal de Transportes de Valencia,,,,,,,,-0.397402,39.486958
POINT (-0.4022725 39.4938548),Corts Valencianes - l'Alt Maestrat,,platform,,bus_stop,,,,Empresa Municipal de Transportes de Valencia,,,,,,,,-0.4022725,39.4938548
POINT (-0.383162 39.4926377),Joan XXIII - Periodista Gil Sumbiela,,platform,,bus_stop,,,,Empresa Municipal de Transportes de Valencia,,,,,,,,-0.383162,39.4926377
POINT (-0.4002667 39.4734992),Democràcia - Velázquez,,platform,,bus_stop,,,,Empresa Municipal de Transportes de Valencia,,,,,,,,-0.4002667,39.4734992
POINT (-0.3953298 39.474614),Pérez Galdós - Dr. Zamenhof,,platform,,bus_stop,,,,Empresa Municipal de Transportes de Valencia,,,,,,,,-0.3953298,39.474614
POINT (-0.3974171 39.4739958),Democràcia - Baladre,,platform,,bus_stop,,,,Empresa Municipal de Transportes de Valencia,,,,,,,,-0.3974171,39.4739958
POINT (-0.3917848 39.4696486),Pérez Galdós - Calixt III,,platform,,bus_stop,,,,Empresa Municipal de Transportes de Valencia,,,,,,,,-0.3917848,39.4696486
POINT (-0.3937899 39.4724403),Pérez Galdós - Mestre Guerrero,,platform,,bus_stop,,,,Empresa Municipal de Transportes de Valencia,,,,,,,,-0.3937899,39.4724403
POINT (-0.3843381 39.4592015),Jesús,,platform,,bus_stop,,,,Empresa Municipal de Transportes de Valencia,,,,,,,,-0.3843381,39.4592015
POINT (-0.3883981 39.4649052),Pérez Galdós - Conca,,platform,,bus_stop,,,,Empresa Municipal de Transportes de Valencia,,,,,,,,-0.3883981,39.4649052
POINT (-0.3872834 39.462859),Pérez Galdós - Lladró i Mallí,,platform,,bus_stop,,,,Empresa Municipal de Transportes de Valencia,,,,,,,,-0.3872834,39.462859
POINT (-0.3839338 39.4579973),Giorgeta - Ctra. D'Escrivà,,platform,,bus_stop,,,,Empresa Municipal de Transportes de Valencia,,,,,,,,-0.3839338,39.4579973
POINT (-0.3924019 39.4700284),Pérez Galdós - Olimpia Arozena Torres,,platform,,bus_stop,,,,Empresa Municipal de Transportes de Valencia,,,,,,,,-0.3924019,39.4700284
POINT (-0.3920099 39.4684833),Llorca - Pérez Galdós,,platform,,bus_stop,,,,Empresa Municipal de Transportes de Valencia,,,,,,,,-0.3920099,39.4684833
POINT (-0.4141585 39.4697199),Cid - Pere Maria Orts,,platform,,bus_stop,,,,Empresa Municipal de Transportes de Valencia,,,,,,,,-0.4141585,39.4697199
POINT (-0.4115559 39.4698697),Cid - Particular,,platform,,bus_stop,,,,Empresa Municipal de Transportes de Valencia,,,,,,,,-0.4115559,39.4698697
POINT (-0.4055785 39.4701332),Nou d'Octubre,,platform,,bus_stop,,,,Empresa Municipal de Transportes de Valencia,,,,,,,,-0.4055785,39.4701332
POINT (-0.4032099 39.4696097),Cid - Passatge Vidal,,platform,,bus_stop,,,,Empresa Municipal de Transportes de Valencia,,,,,,,,-0.4032099,39.4696097
POINT (-0.4150691 39.4672045),Joan Baptista Comes - Antonio Machado,,platform,,bus_stop,,,,Empresa Municipal de Transportes de Valencia,,,,,,,,-0.4150691,39.4672045
POINT (-0.4158779 39.4697263),Avinguda del Cid,,platform,,bus_stop,,,,Empresa Municipal de Transportes de Valencia,,,,yes,,,,-0.4158779,39.4697263
POINT (-0.4061684 39.4653728),Mercat de Castilla,,platform,,bus_stop,,,,Empresa Municipal de Transportes de Valencia,,,,,,,,-0.4061684,39.4653728
POINT (-0.4098675 39.4695652),Cid - Hospital,,platform,,bus_stop,,,,Empresa Municipal de Transportes de Valencia,,,,,,,,-0.4098675,39.4695652
POINT (-0.4133129 39.4692536),Cid - Marconi,,platform,,bus_stop,,,,Empresa Municipal de Transportes de Valencia,,,,,,,,-0.4133129,39.4692536
POINT (-0.4055777 39.4685857),Hospital General,,platform,,bus_stop,,,,Empresa Municipal de Transportes de Valencia,,,,,,,,-0.4055777,39.4685857
POINT (-0.4091122 39.4645536),Colònia Esp. de Mèxic - Casa de la Misericòrdia,,platform,,bus_stop,,,,Empresa Municipal de Transportes de Valencia,,,,,,,,-0.4091122,39.4645536
POINT (-0.4096478 39.4657845),la Fontsanta,,platform,,bus_stop,,,,Empresa Municipal de Transportes de Valencia,,,,,,,,-0.4096478,39.4657845
POINT (-0.4002552 39.4723623),Brasil - Velázquez,,platform,,bus_stop,,,,Empresa Municipal de Transportes de Valencia,,,,,,,,-0.4002552,39.4723623
POINT (-0.397655 39.4715303),Brasil - Francisco Moreno Usedo,,platform,,bus_stop,,,,Empresa Municipal de Transportes de Valencia,,,,,,,,-0.397655,39.4715303
POINT (-0.4027088 39.4735282),Petxina - Racó d'Ademús,,platform,,bus_stop,,,,Empresa Municipal de Transportes de Valencia,,,,,,,,-0.4027088,39.4735282
POINT (-0.3961241 39.4683934),Parc de l'Oest - Germans Rivas,,platform,,bus_stop,,,,Empresa Municipal de Transportes de Valencia,,,,,,,,-0.3961241,39.4683934
POINT (-0.3998448 39.4690011),Cid - Burgos,,platform,,bus_stop,,,,Empresa Municipal de Transportes de Valencia,,,,,,,,-0.3998448,39.4690011
POINT (-0.3951866 39.4707191),Brasil - Artur Piera,,platform,,bus_stop,,,,Empresa Municipal de Transportes de Valencia,,,,,,,,-0.3951866,39.4707191
POINT (-0.3921664 39.4689904),Linares - Pérez Galdós,,platform,,bus_stop,,,,Empresa Municipal de Transportes de Valencia,,,,,,,,-0.3921664,39.4689904
POINT (-0.3998221 39.4637024),Tres Forques - Mare de Déu de la Cabeça,,platform,,bus_stop,,,,Empresa Municipal de Transportes de Valencia,,,,,,,,-0.3998221,39.4637024
POINT (-0.4030081 39.4635819),Tres Forques - Emili Lluch,,platform,,bus_stop,,,,Empresa Municipal de Transportes de Valencia,,,,,,,,-0.4030081,39.4635819
POINT (-0.3917663 39.464046),Tres Forques - Churat i Saurí,,platform,,bus_stop,,,,Empresa Municipal de Transportes de Valencia,,,,,,,,-0.3917663,39.464046
POINT (-0.3969361 39.4638304),Tres Forques (imparell) - Arxiduc Carles,,platform,,bus_stop,,,,Empresa Municipal de Transportes de Valencia,,,,,,,,-0.3969361,39.4638304
POINT (-0.3895482 39.4643235),Tres Forques - Xiva,,platform,,bus_stop,,,,Empresa Municipal de Transportes de Valencia,,,,,,,,-0.3895482,39.4643235
POINT (-0.3889191 39.4641613),Tres Forques - Pérez Galdós,,platform,,bus_stop,,,,Empresa Municipal de Transportes de Valencia,,,,,,,,-0.3889191,39.4641613
POINT (-0.3933743 39.464169),Tres Forques - Mestre Bellver,,platform,,bus_stop,,,,Empresa Municipal de Transportes de Valencia,,,,,,,,-0.3933743,39.464169
POINT (-0.4010788 39.4594776),Arxiduc Carles - Puebla de Valverde,,platform,,bus_stop,,,,Empresa Municipal de Transportes de Valencia,,,,,,,,-0.4010788,39.4594776
POINT (-0.3994426 39.4609697),Arxiduc Carles (parell) - Fra Juníper Serra,,platform,,bus_stop,,,,Empresa Municipal de Transportes de Valencia,,,,,,,,-0.3994426,39.4609697
POINT (-0.4013821 39.4588717),Arxiduc Carles - Músic Gomis,,platform,,bus_stop,,,,Empresa Municipal de Transportes de Valencia,,,,,,,,-0.4013821,39.4588717
POINT (-0.4032566 39.4575658),Camí Nou de Picanya - Tres Creus,,platform,,bus_stop,,,,Empresa Municipal de Transportes de Valencia,,,,,,,,-0.4032566,39.4575658
POINT (-0.4041008 39.4552391),Arquitecte Segura de Lago - Prof. Àngel Lacalle,,platform,,bus_stop,,,,Empresa Municipal de Transportes de Valencia,,,,,,,,-0.4041008,39.4552391
POINT (-0.3991412 39.4609633),Arxiduc Carles - Fra Juníper Serra,,platform,,bus_stop,,,,Empresa Municipal de Transportes de Valencia,,,,,,,,-0.3991412,39.4609633
POINT (-0.3886993 39.4602037),Mercat de Jesús,,platform,,bus_stop,,,,Empresa Municipal de Transportes de Valencia,,,,,,,,-0.3886993,39.4602037
POINT (-0.3873074 39.4618046),Hospital Verge del Consol,,platform,,bus_stop,,,,Empresa Municipal de Transportes de Valencia,,,,,,,,-0.3873074,39.4618046
POINT (-0.4024418 39.4690378),Cid - Josep Maestre,,platform,,bus_stop,,,,Empresa Municipal de Transportes de Valencia,,,,,,,,-0.4024418,39.4690378
POINT (-0.3999303 39.4685854),Central de Policia Local de València,,platform,,bus_stop,,,,Empresa Municipal de Transportes de Valencia,,,,,,,,-0.3999303,39.4685854
POINT (-0.3957661 39.4678939),Parc de l'Oest - Enguera,,platform,,bus_stop,,,,Empresa Municipal de Transportes de Valencia,,,,,,,,-0.3957661,39.4678939
POINT (-0.393445 39.4664437),Arxiduc Carles - Xiva,,platform,,bus_stop,,,,Empresa Municipal de Transportes de Valencia,,,,,,,,-0.393445,39.4664437
POINT (-0.394944 39.4650698),Arxiduc Carles - Enguera,,platform,,bus_stop,,,,Empresa Municipal de Transportes de Valencia,,,,,,,,-0.394944,39.4650698
POINT (-0.3969814 39.4640158),Tres Forques (parell) - Arxiduc Carles,,platform,,bus_stop,,,,Empresa Municipal de Transportes de Valencia,,,,,,,,-0.3969814,39.4640158
POINT (-0.3995145 39.4639089),Tres Forques - Santa Cruz de Tenerife,,platform,,bus_stop,,,,Empresa Municipal de Transportes de Valencia,,,,,,,,-0.3995145,39.4639089
POINT (-0.4030748 39.463777),Tres Forques - Josep Maestre,,platform,,bus_stop,,,,Empresa Municipal de Transportes de Valencia,,,,,,,,-0.4030748,39.463777
POINT (-0.4054581 39.4641386),Tres Creus (carril bus) - Llombai,,platform,,bus_stop,,,,Empresa Municipal de Transportes de Valencia,,,,,,,,-0.4054581,39.4641386
POINT (-0.4057825 39.4670349),Tres Creus (carril bus) - Músic Ayllón,,platform,,bus_stop,,,,Empresa Municipal de Transportes de Valencia,,,,,,,,-0.4057825,39.4670349
POINT (-0.402931 39.4534201),Arquitecte Segura de Lago - Dr. Rafael Bartual,,platform,,bus_stop,,,,Empresa Municipal de Transportes de Valencia,,,,,,,,-0.402931,39.4534201
POINT (-0.4038548 39.452625),José Andreu Alabarta - Mariano de Cavia,,platform,,bus_stop,,,,Empresa Municipal de Transportes de Valencia,,,,,,,,-0.4038548,39.452625
POINT (-0.4048095 39.4542477),José Andreu Alabarta - Professor Àngel Lacalle,,platform,,bus_stop,,,,Empresa Municipal de Transportes de Valencia,,,,,,,,-0.4048095,39.4542477
POINT (-0.3889945 39.4399522),José Soto Micó - Alcalà de Xivert,,platform,,bus_stop,,,,Empresa Municipal de Transportes de Valencia,,,,,,,,-0.3889945,39.4399522
POINT (-0.3875465 39.4436154),Sant Vicent Màrtir (parell) - Arquebisbe Olaechea,,platform,,bus_stop,,,,Empresa Municipal de Transportes de Valencia,,,,,,,,-0.3875465,39.4436154
POINT (-0.3868784 39.4453169),Sant Vicent Màrtir - Enginyer Josep Sirera,,platform,,bus_stop,,,,Empresa Municipal de Transportes de Valencia,,,,,,,,-0.3868784,39.4453169
POINT (-0.3858127 39.4482304),Creu Coberta,,platform,,bus_stop,,,,Empresa Municipal de Transportes de Valencia,,,,,,,,-0.3858127,39.4482304
POINT (-0.3846825 39.4527763),Sant Vicent Màrtir - Joaquín Navarro,,platform,,bus_stop,,,,Empresa Municipal de Transportes de Valencia,,,,,,,,-0.3846825,39.4527763
POINT (-0.3840693 39.4557929),Sant Vicent Màrtir - Dolores Alcaide,,platform,,bus_stop,,,,Empresa Municipal de Transportes de Valencia,,,,,,,,-0.3840693,39.4557929
POINT (-0.3906538 39.4558752),Gaspar Aguilar - Costa i Borràs,,platform,,bus_stop,,,,Empresa Municipal de Transportes de Valencia,,,,,,,,-0.3906538,39.4558752
POINT (-0.3887578 39.4401253),José Soto Micó - Síndic Mojolí,,platform,,bus_stop,,,,Empresa Municipal de Transportes de Valencia,,,,,,,,-0.3887578,39.4401253
POINT (-0.3908022 39.4349375),Real de Madrid - Concepción Arenal,,platform,,bus_stop,,,,Empresa Municipal de Transportes de Valencia,,,,,,,,-0.3908022,39.4349375
POINT (-0.391218 39.4338996),Real de Madrid - Hellín,,platform,,bus_stop,,,,Empresa Municipal de Transportes de Valencia,,,,,,,,-0.391218,39.4338996
POINT (-0.3935265 39.4273625),la Torre,,platform,,bus_stop,,,,Empresa Municipal de Transportes de Valencia,,,,,,,,-0.3935265,39.4273625
POINT (-0.3928824 39.4300367),Real de Madrid (parell) - Eduardo Dato,,platform,,bus_stop,,,,Empresa Municipal de Transportes de Valencia,,,,,,,,-0.3928824,39.4300367
POINT (-0.3915938 39.4332699),Real de Madrid - Algar del Palància,,platform,,bus_stop,,,,Empresa Municipal de Transportes de Valencia,,,,,,,,-0.3915938,39.4332699
POINT (-0.3909914 39.4348047),Real de Madrid - Carretera d'Alba,,platform,,bus_stop,,,,Empresa Municipal de Transportes de Valencia,,,,,,,,-0.3909914,39.4348047
POINT (-0.3885616 39.459276),Gaspar Aguilar - Jesús,,platform,,bus_stop,,,,Empresa Municipal de Transportes de Valencia,,,,,,,,-0.3885616,39.459276
POINT (-0.3903089 39.461728),Conca - Mossén Fenollar,,platform,,bus_stop,,,,Empresa Municipal de Transportes de Valencia,,,,,,,,-0.3903089,39.461728
POINT (-0.3885917 39.463753),Conca - Pérez Galdós,,platform,,bus_stop,,,,Empresa Municipal de Transportes de Valencia,,,,,,,,-0.3885917,39.463753
POINT (-0.3921661 39.4598767),Pius XI - Manuel Simó,,platform,,bus_stop,,,,Empresa Municipal de Transportes de Valencia,,,,,,,,-0.3921661,39.4598767
POINT (-0.3899907 39.460586),Centre de Salut Pare Jofré,,platform,,bus_stop,,,,Empresa Municipal de Transportes de Valencia,,,,,,,,-0.3899907,39.460586
POINT (-0.392599 39.4617764),Humanista Mariner - Beat Nicolau Factor,,platform,,bus_stop,,,,Empresa Municipal de Transportes de Valencia,,,,,,,,-0.392599,39.4617764
POINT (-0.3929101 39.4525061),Hospital Dr. Peset,,platform,,bus_stop,,,,Empresa Municipal de Transportes de Valencia,,,,,,,,-0.3929101,39.4525061
POINT (-0.3918004 39.4541673),Gaspar Aguilar - Calvo Acacio,,platform,,bus_stop,,,,Empresa Municipal de Transportes de Valencia,,,,,,,,-0.3918004,39.4541673
POINT (-0.3962233 39.4480624),Cementeri,,platform,,bus_stop,,,,Empresa Municipal de Transportes de Valencia,,,,,,,,-0.3962233,39.4480624
POINT (-0.3943671 39.4503),Gaspar Aguilar (imparell) - Dr. Tomàs Sala,,platform,,bus_stop,,,,Empresa Municipal de Transportes de Valencia,,,,,,,,-0.3943671,39.4503
POINT (-0.395418 39.4491109),Crematori Municipal,,platform,,bus_stop,,,,Empresa Municipal de Transportes de Valencia,,,,,,,,-0.395418,39.4491109
POINT (-0.3902026 39.4568731),Patraix,,platform,,bus_stop,,,,Empresa Municipal de Transportes de Valencia,,,,,,,,-0.3902026,39.4568731
POINT (-0.391991 39.4541623),Gaspar Aguilar - Montesa,,platform,,bus_stop,,,,Empresa Municipal de Transportes de Valencia,,,,,,,,-0.391991,39.4541623
POINT (-0.3801115 39.4470078),Malilla (parell) - Illa Formentera,,platform,,bus_stop,,,,Empresa Municipal de Transportes de Valencia,,,,,,,,-0.3801115,39.4470078
POINT (-0.3782929 39.4543088),Malilla - Pianista Empar Iturbi,,platform,,bus_stop,,,,Empresa Municipal de Transportes de Valencia,,,,,,,,-0.3782929,39.4543088
POINT (-0.379659 39.4488478),Malilla (parell) - Illa Cabrera,,platform,,bus_stop,,,,Empresa Municipal de Transportes de Valencia,,,,,,,,-0.379659,39.4488478
POINT (-0.3787509 39.4525193),Malilla - Oltà,,platform,,bus_stop,,,,Empresa Municipal de Transportes de Valencia,,,,,,,,-0.3787509,39.4525193
POINT (-0.3715842 39.4557145),Fonteta Sant Lluís - Dr. Waksman,,platform,,bus_stop,,,,Empresa Municipal de Transportes de Valencia,,,,,,,,-0.3715842,39.4557145
POINT (-0.3717472 39.4575487),Fonteta Sant Lluís - Lleó XIII,,platform,,bus_stop,,,,Empresa Municipal de Transportes de Valencia,,,,,,,,-0.3717472,39.4575487
POINT (-0.370747 39.4516773),Fonteta Sant Lluís - Algímia d'Alfara,,platform,,bus_stop,,,,Empresa Municipal de Transportes de Valencia,,,,,,,,-0.370747,39.4516773
POINT (-0.3715989 39.4538274),Fonteta Sant Lluís - Bèrnia,,platform,,bus_stop,,,,Empresa Municipal de Transportes de Valencia,,,,,,,,-0.3715989,39.4538274
POINT (-0.3756642 39.4523029),Joaquin Benlloch - Oltà,,platform,,bus_stop,,,,Empresa Municipal de Transportes de Valencia,,,,,,,,-0.3756642,39.4523029
POINT (-0.3738255 39.4497363),Joaquín Benlloch - Illa Cabrera,,platform,,bus_stop,,,,Empresa Municipal de Transportes de Valencia,,,,,,,,-0.3738255,39.4497363
POINT (-0.3751466 39.4550123),Pianista Empar Iturbi - Ausiàs March,,platform,,bus_stop,,,,Empresa Municipal de Transportes de Valencia,,,,,,,,-0.3751466,39.4550123
POINT (-0.3769101 39.4540713),Centre de Salut Eng. Joaquín Benlloch,,platform,,bus_stop,,,,Empresa Municipal de Transportes de Valencia,,,,,,,,-0.3769101,39.4540713
POINT (-0.3836444 39.4567489),Sant Vicent Màrtir - Millars,,platform,,bus_stop,,,,Empresa Municipal de Transportes de Valencia,,,,,,,,-0.3836444,39.4567489
POINT (-0.3748185 39.4572101),Peris i Valero - Ausiàs March,,platform,,bus_stop,,,,Empresa Municipal de Transportes de Valencia,,,,,,,,-0.3748185,39.4572101
POINT (-0.3708636 39.4588749),Peris i Valero - Sapadors,,platform,,bus_stop,,,,Empresa Municipal de Transportes de Valencia,,,,,,,,-0.3708636,39.4588749
POINT (-0.367481 39.460298),Peris i Valero - Bisbe Jaume Pérez,,platform,,bus_stop,,,,Empresa Municipal de Transportes de Valencia,,,,,,,,-0.367481,39.460298
POINT (-0.3873519 39.4436634),Sant Vicent Màrtir (imparell) - Arquebisbe Olaechea,,platform,,bus_stop,,,,Empresa Municipal de Transportes de Valencia,,,,,,,,-0.3873519,39.4436634
POINT (-0.3859497 39.4472639),Creu Coberta,,platform,,bus_stop,,,,Empresa Municipal de Transportes de Valencia,,,,,,,,-0.3859497,39.4472639
POINT (-0.3852835 39.4491457),Sant Vicent Màrtir - Altamira,,platform,,bus_stop,,,,Empresa Municipal de Transportes de Valencia,,,,,,,,-0.3852835,39.4491457
POINT (-0.3692556 39.4609254),Maties Perelló - Mestre Aguilar,,platform,,bus_stop,,,,Empresa Municipal de Transportes de Valencia,,,,,,,,-0.3692556,39.4609254
POINT (-0.3730439 39.4593174),Els Centelles - Sueca,,platform,,bus_stop,,,,Empresa Municipal de Transportes de Valencia,,,,,,,,-0.3730439,39.4593174
POINT (-0.376501 39.4578378),Parc Central,,platform,,bus_stop,,,,Empresa Municipal de Transportes de Valencia,,,,,,,,-0.376501,39.4578378
POINT (-0.3655254 39.4611318),Peris i Valero - Pere Aleixandre,,platform,,bus_stop,,,,Empresa Municipal de Transportes de Valencia,,,,,,,,-0.3655254,39.4611318
POINT (-0.3633196 39.4634324),Mestre Racional - Regne de València,,platform,,bus_stop,,,,Empresa Municipal de Transportes de Valencia,,,,,,,,-0.3633196,39.4634324
POINT (-0.3664407 39.4621279),Maties Perelló - Lluís de Santàngel,,platform,,bus_stop,,,,Empresa Municipal de Transportes de Valencia,,,,,,,,-0.3664407,39.4621279
POINT (-0.3623484 39.4613975),Centre d'Especialitats Montolivet,,platform,,bus_stop,,,,Empresa Municipal de Transportes de Valencia,,,,,,,,-0.3623484,39.4613975
POINT (-0.3626021 39.4615193),Centre d'Especialitats Montolivet,,platform,,bus_stop,,,,Empresa Municipal de Transportes de Valencia,,,,,,,,-0.3626021,39.4615193
POINT (-0.3602457 39.458291),Escultor J. Capuz (imparell) - la Plata,,platform,,bus_stop,,,,Empresa Municipal de Transportes de Valencia,,,,,,,,-0.3602457,39.458291
POINT (-0.3612958 39.4598674),Escultor J. Capuz (imparell) - Pere Aleixandre,,platform,,bus_stop,,,,Empresa Municipal de Transportes de Valencia,,,,,,,,-0.3612958,39.4598674
POINT (-0.3628166 39.4569804),la Plata - Amado Granell Mesado,,platform,,bus_stop,,,,Empresa Municipal de Transportes de Valencia,,,,,,,,-0.3628166,39.4569804
POINT (-0.3658186 39.468489),Plaça de Cánovas,,platform,,bus_stop,,,,Empresa Municipal de Transportes de Valencia,,,,yes,,,,-0.3658186,39.468489
POINT (-0.3618095 39.4603469),Escultor J. Capuz (parell) - Pere Aleixandre,,platform,,bus_stop,,,,Empresa Municipal de Transportes de Valencia,,,,,,,,-0.3618095,39.4603469
POINT (-0.3606158 39.4585991),Escultor J. Capuz (parell) - la Plata,,platform,,bus_stop,,,,Empresa Municipal de Transportes de Valencia,,,,,,,,-0.3606158,39.4585991
POINT (-0.3632467 39.4535973),Germans Maristes - José Durán Martínez,,platform,,bus_stop,,,,Empresa Municipal de Transportes de Valencia,,,,,,,,-0.3632467,39.4535973
POINT (-0.3658215 39.4525027),Poliesportiu Fta. Sant Lluís,,platform,,bus_stop,,,,Empresa Municipal de Transportes de Valencia,,,,,,,,-0.3658215,39.4525027
POINT (-0.3636915 39.4570099),Amado Granell Mesado (parell) - la Plata,,platform,,bus_stop,,,,Empresa Municipal de Transportes de Valencia,,,,,,,,-0.3636915,39.4570099
POINT (-0.3626439 39.4555005),Amado Granell Mesado (parell) - Arabista Ambrosio Huici,,platform,,bus_stop,,,,Empresa Municipal de Transportes de Valencia,,,,,,,,-0.3626439,39.4555005
POINT (-0.3630285 39.4534371),Germans Maristes - Institut Jordi de Sant Jordi,,platform,,bus_stop,,,,Empresa Municipal de Transportes de Valencia,,,,,,,,-0.3630285,39.4534371
POINT (-0.3624549 39.4557254),Amado Granell Mesado (imparell) - Arabista Ambrosio Huici,,platform,,bus_stop,,,,Empresa Municipal de Transportes de Valencia,,,,,,,,-0.3624549,39.4557254
POINT (-0.3685427 39.4510852),Germans Maristes (parell) - Fonteta Sant Lluís,,platform,,bus_stop,,,,Empresa Municipal de Transportes de Valencia,,,,,,,,-0.3685427,39.4510852
POINT (-0.3664375 39.4519863),Poliesportiu Fta. Sant Lluís,,platform,,bus_stop,,,,Empresa Municipal de Transportes de Valencia,,,,,,,,-0.3664375,39.4519863
POINT (-0.3711319 39.4550247),Puigcampana - Fonteta Sant Lluís,,platform,,bus_stop,,,,Empresa Municipal de Transportes de Valencia,,,,,,,,-0.3711319,39.4550247
POINT (-0.372766 39.4540184),Bèrnia - Ausiàs March,,platform,,bus_stop,,,,Empresa Municipal de Transportes de Valencia,,,,,,,,-0.372766,39.4540184
POINT (-0.3717198 39.4516336),Ausiàs March - Algímia d'Alfara,,platform,,bus_stop,,,,Empresa Municipal de Transportes de Valencia,,,,,,,,-0.3717198,39.4516336
POINT (-0.3656087 39.4597071),Amado Granell Mesado (parell) - Lluís Oliag,,platform,,bus_stop,,,,Empresa Municipal de Transportes de Valencia,,,,,,,,-0.3656087,39.4597071
POINT (-0.3689131 39.459074),Sapadors - Sant Gregori,,platform,,bus_stop,,,,Empresa Municipal de Transportes de Valencia,,,,,,,,-0.3689131,39.459074
POINT (-0.368051 39.4574109),Sapadors - Dos d'Abril,,platform,,bus_stop,,,,Empresa Municipal de Transportes de Valencia,,,,,,,,-0.368051,39.4574109
POINT (-0.3668552 39.4555069),Sapadors,,platform,,bus_stop,,,,Empresa Municipal de Transportes de Valencia,,,,,,,,-0.3668552,39.4555069
POINT (-0.368499 39.4417963),Fonteta de Sant Lluís,,platform,,bus_stop,,,,Empresa Municipal de Transportes de Valencia,,,,,,,,-0.368499,39.4417963
POINT (-0.3677678 39.4441902),Gravador Jordán - Alabau i Arce,,platform,,bus_stop,,,,Empresa Municipal de Transportes de Valencia,,,,,,,,-0.3677678,39.4441902
POINT (-0.3671105 39.4458428),Fonteta Sant Lluís - Riu Sec,,platform,,bus_stop,,,,Empresa Municipal de Transportes de Valencia,,,,,,,,-0.3671105,39.4458428
POINT (-0.3697966 39.4502916),Fonteta Sant Lluís - Ebenista Caselles,,platform,,bus_stop,,,,Empresa Municipal de Transportes de Valencia,,,,,,,,-0.3697966,39.4502916
POINT (-0.3696508 39.4502996),Fonteta Sant Lluís - Germans Maristes,,platform,,bus_stop,,,,Empresa Municipal de Transportes de Valencia,,,,,,,,-0.3696508,39.4502996
POINT (-0.3683829 39.4485188),Fonteta Sant Lluís (imparell) - Àngel Villena,,platform,,bus_stop,,,,Empresa Municipal de Transportes de Valencia,,,,,,,,-0.3683829,39.4485188
POINT (-0.3669871 39.4461457),Gravador Jordán - Riu Sec,,platform,,bus_stop,,,,Empresa Municipal de Transportes de Valencia,,,,,,,,-0.3669871,39.4461457
POINT (-0.3675166 39.4443194),Gravador Jordán - Escultor Pastor,,platform,,bus_stop,,,,Empresa Municipal de Transportes de Valencia,,,,,,,,-0.3675166,39.4443194
POINT (-0.3655538 39.4681528),Plaça de Cánovas,,platform,,bus_stop,,,,Empresa Municipal de Transportes de Valencia,,,,yes,,,,-0.3655538,39.4681528
POINT (-0.3749091 39.463629),Cadis - Dénia,,platform,,bus_stop,,,,Empresa Municipal de Transportes de Valencia,,,,,,,,-0.3749091,39.463629
POINT (-0.3738007 39.4620337),Cadis - Puerto Rico,,platform,,bus_stop,,,,Empresa Municipal de Transportes de Valencia,,,,,,,,-0.3738007,39.4620337
POINT (-0.371896 39.45935),Cadis - dels Centelles,,platform,,bus_stop,,,,Empresa Municipal de Transportes de Valencia,,,,,,,,-0.371896,39.45935
POINT (-0.370527 39.4617583),Mercat de Russafa,,platform,,bus_stop,,,,Empresa Municipal de Transportes de Valencia,,,,,,,,-0.370527,39.4617583
POINT (-0.3840468 39.4685489),Prefectura superior de Policia,,platform,,bus_stop,,,,Empresa Municipal de Transportes de Valencia,,,,,,,,-0.3840468,39.4685489
POINT (-0.3830262 39.4671257),Ramón i Cajal (imparell) - Jesús,,platform,,bus_stop,,,,Empresa Municipal de Transportes de Valencia,,,,,,,,-0.3830262,39.4671257
POINT (-0.3773663 39.4631755),Germanies - Cuba,,platform,,bus_stop,,,,Empresa Municipal de Transportes de Valencia,,,,,,,,-0.3773663,39.4631755
POINT (-0.3746089 39.4644089),Germanies - Sevilla,,platform,,bus_stop,,,,Empresa Municipal de Transportes de Valencia,,,,,,,,-0.3746089,39.4644089
POINT (-0.3694773 39.4665029),Marqués del Túria - Mestre Gozalbo,,platform,,bus_stop,,,,Empresa Municipal de Transportes de Valencia,,,,,,,,-0.3694773,39.4665029
POINT (-0.3672778 39.4674238),Marqués del Túria - Joaquín Costa,,platform,,bus_stop,,,,Empresa Municipal de Transportes de Valencia,,,,yes,,,,-0.3672778,39.4674238
POINT (-0.3900283 39.476915),Túria,,platform,,bus_stop,,,,Empresa Municipal de Transportes de Valencia,,,,,,,,-0.3900283,39.476915
POINT (-0.3880114 39.4749432),Jardí Botànic,,platform,,bus_stop,,,,Empresa Municipal de Transportes de Valencia,,,,,,,,-0.3880114,39.4749432
POINT (-0.3894035 39.4748905),Quart - Ferran el Catòlic,,platform,,bus_stop,,,,Empresa Municipal de Transportes de Valencia,,,,,,,,-0.3894035,39.4748905
POINT (-0.3888912 39.4753485),Jardí Botànic,,platform,,bus_stop,,,,Empresa Municipal de Transportes de Valencia,,,,,,,,-0.3888912,39.4753485
POINT (-0.3869534 39.4726268),Ferran el Catòlic - Gabriel Miró,,platform,,bus_stop,,,,Empresa Municipal de Transportes de Valencia,,,,,,,,-0.3869534,39.4726268
POINT (-0.4057528 39.4695116),Hospital General,,platform,,bus_stop,,,,Empresa Municipal de Transportes de Valencia,,,,,,,,-0.4057528,39.4695116
POINT (-0.3851655 39.4704999),Àngel Guimerà,,platform,,bus_stop,,,,Empresa Municipal de Transportes de Valencia,,,,,,,,-0.3851655,39.4704999
POINT (-0.3851165 39.4700363),Àngel Guimerà,,platform,,bus_stop,,,,Empresa Municipal de Transportes de Valencia,,,,,,,,-0.3851165,39.4700363
POINT (-0.3707392 39.4664217),Marqués del Túria - Hernán Cortés,,platform,,bus_stop,,,,Empresa Municipal de Transportes de Valencia,,,,,,,,-0.3707392,39.4664217
POINT (-0.3676198 39.4677385),Marqués del Túria - Jorge Juan,,platform,,bus_stop,,,,Empresa Municipal de Transportes de Valencia,,,,yes,,,,-0.3676198,39.4677385
POINT (-0.375211 39.464466),Germanies - Castelló,,platform,,bus_stop,,,,Empresa Municipal de Transportes de Valencia,,,,,,,,-0.375211,39.464466
POINT (-0.3735289 39.4652377),Marqués del Túria - Russafa,,platform,,bus_stop,,,,Empresa Municipal de Transportes de Valencia,,,,,,,,-0.3735289,39.4652377
POINT (-0.3827834 39.4676245),Ramón i Cajal (parell) - Jesús,,platform,,bus_stop,,,,Empresa Municipal de Transportes de Valencia,,,,,,,,-0.3827834,39.4676245
POINT (-0.3810755 39.4652383),Plaça d'Espanya,,platform,,bus_stop,,,,Empresa Municipal de Transportes de Valencia,,,,,,,,-0.3810755,39.4652383
POINT (-0.3861433 39.4723281),Ferran el Catòlic - Juan de Mena,,platform,,bus_stop,,,,Empresa Municipal de Transportes de Valencia,,,,,,,,-0.3861433,39.4723281
POINT (-0.3846386 39.4702116),Àngel Guimerà,,platform,,bus_stop,,,,Empresa Municipal de Transportes de Valencia,,,,,,,,-0.3846386,39.4702116
POINT (-0.3846769 39.4659516),Sant Francesc de Borja - Jesús,,platform,,bus_stop,,,,Empresa Municipal de Transportes de Valencia,,,,,,,,-0.3846769,39.4659516
POINT (-0.3642757 39.469336),Plaça Amèrica,,platform,,bus_stop,,,,Empresa Municipal de Transportes de Valencia,,,,,,,,-0.3642757,39.469336
POINT (-0.3920113 39.4664596),Aiora - Xiva,,platform,,bus_stop,,,,Empresa Municipal de Transportes de Valencia,,,,,,,,-0.3920113,39.4664596
POINT (-0.3877932 39.4665132),Sant Josep de Calassanç - Alberic,,platform,,bus_stop,,,,Empresa Municipal de Transportes de Valencia,,,,,,,,-0.3877932,39.4665132
POINT (-0.3942395 39.4743935),Sant Josep de la Muntanya - Pérez Galdós,,platform,,bus_stop,,,,Empresa Municipal de Transportes de Valencia,,,,,,,,-0.3942395,39.4743935
POINT (-0.3933604 39.4646866),Aiora - Mariano Ribera,,platform,,bus_stop,,,,Empresa Municipal de Transportes de Valencia,,,,,,,,-0.3933604,39.4646866
POINT (-0.3919372 39.4737929),Centre de Salut Joan Llorens,,platform,,bus_stop,,,,Empresa Municipal de Transportes de Valencia,,,,,,,,-0.3919372,39.4737929
POINT (-0.3913457 39.4745645),Quart - Terol,,platform,,bus_stop,,,,Empresa Municipal de Transportes de Valencia,,,,,,,,-0.3913457,39.4745645
POINT (-0.3847739 39.4684126),Conca - Alzira,,platform,,bus_stop,,,,Empresa Municipal de Transportes de Valencia,,,,,,,,-0.3847739,39.4684126
POINT (-0.3881151 39.4698374),Àngel Guimerà - Bon Ordre,,platform,,bus_stop,,,,Empresa Municipal de Transportes de Valencia,,,,,,,,-0.3881151,39.4698374
POINT (-0.3854803 39.4613841),Albacete - Mestre Sosa,,platform,,bus_stop,,,,Empresa Municipal de Transportes de Valencia,,,,,,,,-0.3854803,39.4613841
POINT (-0.3867006 39.4660431),Conca - Bisbe Amigó,,platform,,bus_stop,,,,Empresa Municipal de Transportes de Valencia,,,,,,,,-0.3867006,39.4660431
POINT (-0.3835639 39.466162),Jesús - Sant Francesc de Borja,,platform,,bus_stop,,,,Empresa Municipal de Transportes de Valencia,,,,,,,,-0.3835639,39.466162
POINT (-0.3856052 39.4637561),Jesús - Pintor Segrelles,,platform,,bus_stop,,,,Empresa Municipal de Transportes de Valencia,,,,,,,,-0.3856052,39.4637561
POINT (-0.382959 39.4596055),Sant Vicent Màrtir - Giorgeta,,platform,,bus_stop,,,,Empresa Municipal de Transportes de Valencia,,,,,,,,-0.382959,39.4596055
POINT (-0.3823636 39.461818),Centre de Salut Gil i Morte,,platform,,bus_stop,,,,Empresa Municipal de Transportes de Valencia,,,,,,,,-0.3823636,39.461818
POINT (-0.3663347 39.4671399),Ciscar - Comte d'Altea,,platform,,bus_stop,,,,Empresa Municipal de Transportes de Valencia,,,,,,,,-0.3663347,39.4671399
POINT (-0.3651231 39.4653755),Ciscar - Borriana,,platform,,bus_stop,,,,Empresa Municipal de Transportes de Valencia,,,,,,,,-0.3651231,39.4653755
POINT (-0.3638254 39.4635078),Císcar - Mestre Racional,,platform,,bus_stop,,,,Empresa Municipal de Transportes de Valencia,,,,,,,,-0.3638254,39.4635078
POINT (-0.365397 39.4635197),Joaquín Costa - Regne de València,,platform,,bus_stop,,,,Empresa Municipal de Transportes de Valencia,,,,,,,,-0.365397,39.4635197
POINT (-0.3671215 39.4659835),Joaquín Costa - Comte d'Altea,,platform,,bus_stop,,,,Empresa Municipal de Transportes de Valencia,,,,,,,,-0.3671215,39.4659835
POINT (-0.3708829 39.4637124),Pintor Salvador Abril - Mestre J. Serrano,,platform,,bus_stop,,,,Empresa Municipal de Transportes de Valencia,,,,,,,,-0.3708829,39.4637124
POINT (-0.3725517 39.4648385),Regne de València - Gregori Mayans,,platform,,bus_stop,,,,Empresa Municipal de Transportes de Valencia,,,,,,,,-0.3725517,39.4648385
POINT (-0.367685 39.4638033),Regne de València - Mestre Gozalbo,,platform,,bus_stop,,,,Empresa Municipal de Transportes de Valencia,,,,,,,,-0.367685,39.4638033
POINT (-0.3638001 39.4627247),Regne de València - Peris i Valero,,platform,,bus_stop,,,,Empresa Municipal de Transportes de Valencia,,,,,,,,-0.3638001,39.4627247
POINT (-0.3690079 39.4638741),Regne de València - Lluís Santàngel,,platform,,bus_stop,,,,Empresa Municipal de Transportes de Valencia,,,,,,,,-0.3690079,39.4638741
POINT (-0.3730549 39.4647295),Regne de València - Russafa,,platform,,bus_stop,,,,Empresa Municipal de Transportes de Valencia,,,,,,,,-0.3730549,39.4647295
POINT (-0.3719505 39.4633759),Sant Valero,,platform,,bus_stop,,,,Empresa Municipal de Transportes de Valencia,,,,,,,,-0.3719505,39.4633759
POINT (-0.37436 39.4732885),Marqués de Dosaigües,,platform,,bus_stop,,,,Empresa Municipal de Transportes de Valencia,,,,,,,,-0.37436,39.4732885
POINT (-0.3739322 39.4684916),Pascual i Genís - Roger de Llòria,,platform,,bus_stop,,,,Empresa Municipal de Transportes de Valencia,,,,,,,,-0.3739322,39.4684916
POINT (-0.372454 39.4659621),Fèlix Pizcueta - Ciril Amorós,,platform,,bus_stop,,,,Empresa Municipal de Transportes de Valencia,,,,,,,,-0.372454,39.4659621
POINT (-0.3770494 39.4685784),Institut Lluís Vives,,platform,,bus_stop,,,,Empresa Municipal de Transportes de Valencia,,,,,,,,-0.3770494,39.4685784
POINT (-0.3812674 39.4660001),Plaça Espanya,,platform,,bus_stop,,,,Empresa Municipal de Transportes de Valencia,,,,,,,,-0.3812674,39.4660001
POINT (-0.3809646 39.4665284),Sant Vicent Màrtir - Espanya,,platform,,bus_stop,,,,Empresa Municipal de Transportes de Valencia,,,,,,,,-0.3809646,39.4665284
POINT (-0.3797861 39.4714563),Biblioteca Pública,,platform,,bus_stop,,,,Empresa Municipal de Transportes de Valencia,,,,,,,,-0.3797861,39.4714563
POINT (-0.3801891 39.4701389),MuVIM,,platform,,bus_stop,,,,Empresa Municipal de Transportes de Valencia,,,,,,,,-0.3801891,39.4701389
POINT (-0.3818808 39.4680565),Jesús - Pare Jofré,,platform,,bus_stop,,,,Empresa Municipal de Transportes de Valencia,,,,,,,,-0.3818808,39.4680565
POINT (-0.3848687 39.4756528),Quart - Guillem de Castro,,platform,,bus_stop,,,,Empresa Municipal de Transportes de Valencia,,,,,,,,-0.3848687,39.4756528
POINT (-0.3796904 39.4735175),Mercat Central,,platform,,bus_stop,,,,Empresa Municipal de Transportes de Valencia,,,,,,,,-0.3796904,39.4735175
POINT (-0.3829748 39.4801031),IVAM,,platform,,bus_stop,,,,Empresa Municipal de Transportes de Valencia,,,,,,,,-0.3829748,39.4801031
POINT (-0.3838546 39.4739158),Encarnació - Guillem de Castro,,platform,,bus_stop,,,,Empresa Municipal de Transportes de Valencia,,,,,,,,-0.3838546,39.4739158
POINT (-0.3837042 39.4777834),La Bene,,platform,,bus_stop,,,,Empresa Municipal de Transportes de Valencia,,,,,,,,-0.3837042,39.4777834
POINT (-0.3839652 39.4749852),Torres de Quart,,platform,,bus_stop,,,,Empresa Municipal de Transportes de Valencia,,,,,,,,-0.3839652,39.4749852
POINT (-0.3709568 39.4699499),Colón,,platform,,bus_stop,,,,Empresa Municipal de Transportes de Valencia,,,,,,,,-0.3709568,39.4699499
POINT (-0.3764674 39.4675077),Estació del Nord,,platform,,bus_stop,,,,Empresa Municipal de Transportes de Valencia,,,,,,,,-0.3764674,39.4675077
POINT (-0.3732228 39.4683446),Colón - Pascual i Genís,,platform,,bus_stop,,,,Empresa Municipal de Transportes de Valencia,,,,,,,,-0.3732228,39.4683446
POINT (-0.3712207 39.4769311),Plaça del Temple,,platform,,bus_stop,,,,Empresa Municipal de Transportes de Valencia,,,,,,,,-0.3712207,39.4769311
POINT (-0.375188 39.4790561),Torres dels Serrans,,platform,,bus_stop,,,,Empresa Municipal de Transportes de Valencia;Monbus,,,,,,,,-0.375188,39.4790561
POINT (-0.3691847 39.4715054),Colón - Porta de la Mar,,platform,,bus_stop,,,,Empresa Municipal de Transportes de Valencia,,,,,,,,-0.3691847,39.4715054
POINT (-0.364882 39.4695706),Amèrica - Marqués del Túria,,platform,,bus_stop,,,,Empresa Municipal de Transportes de Valencia,,,,,,,,-0.364882,39.4695706
POINT (-0.3681196 39.4602319),Peris i Valero - Pintor Salvador Abril,,platform,,bus_stop,,,,Empresa Municipal de Transportes de Valencia,,,,,,,,-0.3681196,39.4602319
POINT (-0.3652372 39.4596426),Amado Granell Mesado (imparell) - Lluís Oliag,,platform,,bus_stop,,,,Empresa Municipal de Transportes de Valencia,,,,,,,,-0.3652372,39.4596426
POINT (-0.3685272 39.4484719),Fonteta Sant Lluís (parell) - Àngel Villena,,platform,,bus_stop,,,,Empresa Municipal de Transportes de Valencia,,,,,,,,-0.3685272,39.4484719
POINT (-0.3603119 39.4727309),Finlàndia - General Gil Dolz,,platform,,bus_stop,,,,Empresa Municipal de Transportes de Valencia,,,,,,,,-0.3603119,39.4727309
POINT (-0.3696976 39.4620474),Pintor Salvador Abril - Maties Perelló,,platform,,bus_stop,,,,Empresa Municipal de Transportes de Valencia,,,,,,,,-0.3696976,39.4620474
POINT (-0.3625899 39.4755213),Misser Mascó - Dr. Moliner,,platform,,bus_stop,,,,Empresa Municipal de Transportes de Valencia,,,,,,,,-0.3625899,39.4755213
POINT (-0.3661051 39.4765249),Misser Mascó - Montfort,,platform,,bus_stop,,,,Empresa Municipal de Transportes de Valencia,,,,,,,,-0.3661051,39.4765249
POINT (-0.3404618 39.421413),Carrera del Riu - Trav. Pinedo a la Mar,,platform,,bus_stop,,,,Empresa Municipal de Transportes de Valencia,,,,,,,,-0.3404618,39.421413
POINT (-0.3404014 39.421666),Carrera del Riu - Mossén Cuenca,,platform,,bus_stop,,,,Empresa Municipal de Transportes de Valencia,,,,,,,,-0.3404014,39.421666
POINT (-0.3431292 39.4320221),Carrera del Riu - Camí dels Anouers,,platform,,bus_stop,,,,Empresa Municipal de Transportes de Valencia,,,,,,,,-0.3431292,39.4320221
POINT (-0.3410261 39.4235297),Carrera del Riu (parell) - Canal,,platform,,bus_stop,,,,Empresa Municipal de Transportes de Valencia,,,,,,,,-0.3410261,39.4235297
POINT (-0.3653893 39.4556349),la Plata - Poeta Miguel Hernández,,platform,,bus_stop,,,,Empresa Municipal de Transportes de Valencia,,,,,,,,-0.3653893,39.4556349
POINT (-0.3436864 39.4356559),Carrera del Riu - Entrada Sanques,,platform,,bus_stop,,,,Empresa Municipal de Transportes de Valencia,,,,,,,,-0.3436864,39.4356559
POINT (-0.3634559 39.4571406),Amado Granell Mesado (imparell) - la Plata,,platform,,bus_stop,,,,Empresa Municipal de Transportes de Valencia,,,,,,,,-0.3634559,39.4571406
POINT (-0.3565192 39.4753863),Estadi de Mestalla,,platform,,bus_stop,,,,Empresa Municipal de Transportes de Valencia,,,,,,,,-0.3565192,39.4753863
POINT (-0.3573942 39.5222629),Cases de Bàrcena III -,,platform,,bus_stop,,,,Empresa Municipal de Transportes de Valencia,,,,,,,,-0.3573942,39.5222629
POINT (-0.3586221 39.5205617),Cases de Bàrcena II -,,platform,,bus_stop,,,,Empresa Municipal de Transportes de Valencia,,,,,,,,-0.3586221,39.5205617
POINT (-0.3434994 39.435225),Carrera del Riu - Casa Andrés,,platform,,bus_stop,,,,Empresa Municipal de Transportes de Valencia,,,,,,,,-0.3434994,39.435225
POINT (-0.3430499 39.4322902),Carrera del Riu - Entrada casa Rosquilla,,platform,,bus_stop,,,,Empresa Municipal de Transportes de Valencia,,,,,,,,-0.3430499,39.4322902
POINT (-0.3410085 39.4240222),Carrera del Riu (imparell) - Canal,,platform,,bus_stop,,,,Empresa Municipal de Transportes de Valencia,,,,,,,,-0.3410085,39.4240222
POINT (-0.3859844 39.4596969),Uruguai (imparell) - Jeroni Munyós,,platform,,bus_stop,,,,Empresa Municipal de Transportes de Valencia,,,,,,,,-0.3859844,39.4596969
POINT (-0.3879792 39.4566193),Jaime Beltrán - Misser Rabassa,,platform,,bus_stop,,,,Empresa Municipal de Transportes de Valencia,,,,,,,,-0.3879792,39.4566193
POINT (-0.3867645 39.4893417),Trànsits,,platform,,bus_stop,,,,Empresa Municipal de Transportes de Valencia,,,,,,,,-0.3867645,39.4893417
POINT (-0.3587492 39.5206354),Cases de Bàrcena V -,,platform,,bus_stop,,,,Empresa Municipal de Transportes de Valencia,,,,,,,,-0.3587492,39.5206354
POINT (-0.3577184 39.5220294),Cases de Bàrcena IV -,,platform,,bus_stop,,,,Empresa Municipal de Transportes de Valencia,,,,,,,,-0.3577184,39.5220294
POINT (-0.3678053 39.4692459),Mercat de Colón,,platform,,bus_stop,,,,Empresa Municipal de Transportes de Valencia,,,,,,,,-0.3678053,39.4692459
POINT (-0.3936389 39.4811475),Vall de la Ballestera - Pius XII,,platform,,bus_stop,,,,Empresa Municipal de Transportes de Valencia,,,,,,,,-0.3936389,39.4811475
POINT (-0.3706689 39.4671035),Hernán Cortés - Ciril Amorós,,platform,,bus_stop,,,,Empresa Municipal de Transportes de Valencia,,,,,,,,-0.3706689,39.4671035
POINT (-0.3782104 39.4685411),Estació del Nord - Sant Pau,,platform,,bus_stop,,,,Empresa Municipal de Transportes de Valencia,,,,,,,,-0.3782104,39.4685411
POINT (-0.3767607 39.4662101),Estació del Nord - Castelló,,platform,,bus_stop,,,,Empresa Municipal de Transportes de Valencia,,,,,,,,-0.3767607,39.4662101
POINT (-0.3742646 39.4658763),Russafa - Ciril Amorós,,platform,,bus_stop,,,,Empresa Municipal de Transportes de Valencia,,,,,,,,-0.3742646,39.4658763
POINT (-0.3767852 39.4688234),Marqués de Sotelo,,platform,,bus_stop,,,,Empresa Municipal de Transportes de Valencia,,,,,,,,-0.3767852,39.4688234
POINT (-0.3758097 39.4700909),Plaça de l'Ajuntament,,platform,,bus_stop,,,,Empresa Municipal de Transportes de Valencia,,,,,,,,-0.3758097,39.4700909
POINT (-0.3724271 39.4691273),Roger de Llòria - Colón,,platform,,bus_stop,,,,Empresa Municipal de Transportes de Valencia,,,,,,,,-0.3724271,39.4691273
POINT (-0.3714184 39.4713533),Pintor Sorolla,,platform,,bus_stop,,,,Empresa Municipal de Transportes de Valencia,,,,,,,,-0.3714184,39.4713533
POINT (-0.3512715 39.4778259),Clariano - Albalat dels Tarongers,,platform,,bus_stop,,,,Empresa Municipal de Transportes de Valencia;Monbus,,,,,,,,-0.3512715,39.4778259
POINT (-0.3516124 39.4778186),Clariano - Palància,,platform,,bus_stop,,,,Empresa Municipal de Transportes de Valencia;Monbus,,,,,,,,-0.3516124,39.4778186
POINT (-0.3602437 39.4748491),Misser Mascó - Dr. Rodríguez Fornós,,platform,,bus_stop,,,,Empresa Municipal de Transportes de Valencia,,,,,,,,-0.3602437,39.4748491
POINT (-0.3594915 39.4730307),Amadeu de Savoia - Suècia,,platform,,bus_stop,,,,Empresa Municipal de Transportes de Valencia,,,,,,,,-0.3594915,39.4730307
POINT (-0.3541272 39.4789078),Catalunya - Santa Cruz de la Zarza,,platform,,bus_stop,,,,Empresa Municipal de Transportes de Valencia,,,,,,,,-0.3541272,39.4789078
POINT (-0.3631883 39.4628267),Regne de València - Ciscar,,platform,,bus_stop,,,,Empresa Municipal de Transportes de Valencia,,,,,,,,-0.3631883,39.4628267
POINT (-0.3570076 39.4723579),Ernest Ferrer - Aragó,,platform,,bus_stop,,,,Empresa Municipal de Transportes de Valencia,,,,,,,,-0.3570076,39.4723579
POINT (-0.3821943 39.4659604),Plaça d'Espanya,,platform,,bus_stop,,,,Empresa Municipal de Transportes de Valencia,,,,,,,,-0.3821943,39.4659604
POINT (-0.3323162 39.4678486),Mediterrània - Vicent Brull,,platform,,bus_stop,,,,Empresa Municipal de Transportes de Valencia,,,,,,,,-0.3323162,39.4678486
POINT (-0.3253049 39.4668871),Eugènia Viñes - Mare de Déu del Sufragi,,platform,,bus_stop,,,,Empresa Municipal de Transportes de Valencia,,,,,,,,-0.3253049,39.4668871
POINT (-0.4050516 39.4710177),Ciutat Administrativa 9 d'Octubre,,platform,,bus_stop,,,,Empresa Municipal de Transportes de Valencia,,,,,,,,-0.4050516,39.4710177
POINT (-0.3559208 39.4749576),Estadi de Mestalla,,platform,,bus_stop,,,,Empresa Municipal de Transportes de Valencia,,,,,,,,-0.3559208,39.4749576
POINT (-0.3728029 39.4954214),Pere Cabanes - Mont Carmel,,platform,,bus_stop,,,,Empresa Municipal de Transportes de Valencia,,,,,,,,-0.3728029,39.4954214
POINT (-0.3599439 39.4686301),Aragó - Saragossa,,platform,,bus_stop,,,,Empresa Municipal de Transportes de Valencia,,,,,,,,-0.3599439,39.4686301
POINT (-0.3569797 39.4728075),Aragó - Ernest Ferrer,,platform,,bus_stop,,,,Empresa Municipal de Transportes de Valencia,,,,,,,,-0.3569797,39.4728075
POINT (-0.3753322 39.4949615),Pere Cabanes - Sant Doménec Savio,,platform,,bus_stop,,,,Empresa Municipal de Transportes de Valencia,,,,,,,,-0.3753322,39.4949615
POINT (-0.3787829 39.4942419),Pere Cabanes - Bisbe Laguarda,,platform,,bus_stop,,,,Empresa Municipal de Transportes de Valencia,,,,,,,,-0.3787829,39.4942419
POINT (-0.3927782 39.496079),Equador - Pintor Matarana,,platform,,bus_stop,,,,Empresa Municipal de Transportes de Valencia,,,,,,,,-0.3927782,39.496079
POINT (-0.379712 39.4919429),Félix del Río - Camí de Montcada,,platform,,bus_stop,,,,Empresa Municipal de Transportes de Valencia,,,,,,,,-0.379712,39.4919429
POINT (-0.357734 39.4726577),Aragó,,platform,,bus_stop,,,,Empresa Municipal de Transportes de Valencia,,,,,,,,-0.357734,39.4726577
POINT (-0.37059 39.4908709),Sant Vicent de Paül - Peñíscola,,platform,,bus_stop,,,,Empresa Municipal de Transportes de Valencia,,,,,,,,-0.37059,39.4908709
POINT (-0.3583009 39.4701417),Aragó - Xile,,platform,,bus_stop,,,,Empresa Municipal de Transportes de Valencia,,,,,,,,-0.3583009,39.4701417
POINT (-0.3571116 39.4858179),Germans Villalonga - Enric Navarro,,platform,,bus_stop,,,,Empresa Municipal de Transportes de Valencia,,,,,,,,-0.3571116,39.4858179
POINT (-0.3575735 39.4839972),Vicent Zaragozà,,platform,,bus_stop,,,,Empresa Municipal de Transportes de Valencia,,,,,,,,-0.3575735,39.4839972
POINT (-0.3592238 39.4817398),Ramón Asensio - Guàrdia Civil,,platform,,bus_stop,,,,Empresa Municipal de Transportes de Valencia,,,,,,,,-0.3592238,39.4817398
POINT (-0.3870293 39.4570119),Uruguai - Misser Rabassa,,platform,,bus_stop,,,,Empresa Municipal de Transportes de Valencia,,,,,,,,-0.3870293,39.4570119
POINT (-0.3886835 39.4526762),Carters - Llanera de Ranes,,platform,,bus_stop,,,,Empresa Municipal de Transportes de Valencia,,,,,,,,-0.3886835,39.4526762
POINT (-0.3892651 39.4500762),Carters - Calvo Acacio,,platform,,bus_stop,,,,Empresa Municipal de Transportes de Valencia,,,,,,,,-0.3892651,39.4500762
POINT (-0.3895492 39.4480792),Carters (imparell) - Primer de Maig,,platform,,bus_stop,,,,Empresa Municipal de Transportes de Valencia,,,,,,,,-0.3895492,39.4480792
POINT (-0.3896677 39.4482031),Carters (parell) - Primer de Maig,,platform,,bus_stop,,,,Empresa Municipal de Transportes de Valencia,,,,,,,,-0.3896677,39.4482031
POINT (-0.389064 39.4503078),Carters - Mossén Febrer,,platform,,bus_stop,,,,Empresa Municipal de Transportes de Valencia,,,,,,,,-0.389064,39.4503078
POINT (-0.3776438 39.4694277),Plaça de l'Ajuntament - Periodista Azzati,,platform,,bus_stop,,,,Empresa Municipal de Transportes de Valencia,,,,,,,,-0.3776438,39.4694277
POINT (-0.3586146 39.4831914),Centre de Salut Benimaclet,,platform,,bus_stop,,,,Empresa Municipal de Transportes de Valencia,,,,,,,,-0.3586146,39.4831914
POINT (-0.3578467 39.4859324),Mistral - Murta,,platform,,bus_stop,,,,Empresa Municipal de Transportes de Valencia,,,,,,,,-0.3578467,39.4859324
POINT (-0.3453858 39.4509399),Jesús Morante Borràs (I) -,,platform,,bus_stop,,,,Empresa Municipal de Transportes de Valencia,,,,,,,,-0.3453858,39.4509399
POINT (-0.3444671 39.449432),Jesús Morante Borràs (II) -,,platform,,bus_stop,,,,Empresa Municipal de Transportes de Valencia,,,,,,,,-0.3444671,39.449432
POINT (-0.343985 39.4480191),Jesús Morante Borràs (III) -,,platform,,bus_stop,,,,Empresa Municipal de Transportes de Valencia,,,,,,,,-0.343985,39.4480191
POINT (-0.3438667 39.4413116),La Punta,,platform,,bus_stop,,,,Empresa Municipal de Transportes de Valencia,,,,,,,,-0.3438667,39.4413116
POINT (-0.3439132 39.4436635),Jesús Morante Borràs (IV) -,,platform,,bus_stop,,,,Empresa Municipal de Transportes de Valencia,,,,,,,,-0.3439132,39.4436635
POINT (-0.3437813 39.443782),Jesús Morante Borràs (VII) -,,platform,,bus_stop,,,,Empresa Municipal de Transportes de Valencia,,,,,,,,-0.3437813,39.443782
POINT (-0.3437879 39.4417389),Jesús Morante Borràs (VI) -,,platform,,bus_stop,,,,Empresa Municipal de Transportes de Valencia,,,,,,,,-0.3437879,39.4417389
POINT (-0.3442868 39.4493921),Jesús Morante Borràs (IX) -,,platform,,bus_stop,,,,Empresa Municipal de Transportes de Valencia,,,,,,,,-0.3442868,39.4493921
POINT (-0.3438424 39.4478653),Jesús Morante Borràs (VIII) -,,platform,,bus_stop,,,,Empresa Municipal de Transportes de Valencia,,,,,,,,-0.3438424,39.4478653
POINT (-0.3650589 39.4742327),Albereda,,platform,,bus_stop,,,,Empresa Municipal de Transportes de Valencia,,,,,,,,-0.3650589,39.4742327
POINT (-0.3452427 39.4509664),Jesús Morante Borràs (X) -,,platform,,bus_stop,,,,Empresa Municipal de Transportes de Valencia,,,,,,,,-0.3452427,39.4509664
POINT (-0.3692103 39.4720144),Palau de Justícia,,platform,,bus_stop,,,,Empresa Municipal de Transportes de Valencia,,,,,,,,-0.3692103,39.4720144
POINT (-0.3666733 39.4762425),Pla del Real,,platform,,bus_stop,,,,Empresa Municipal de Transportes de Valencia,,,,,,,,-0.3666733,39.4762425
POINT (-0.3592175 39.4820113),Tírig - Guàrdia Civil,,platform,,bus_stop,,,,Empresa Municipal de Transportes de Valencia,,,,,,,,-0.3592175,39.4820113
POINT (-0.3585971 39.4709356),Aragó - Finlàndia,,platform,,bus_stop,,,,Empresa Municipal de Transportes de Valencia,,,,,,,,-0.3585971,39.4709356
POINT (-0.3698577 39.4715774),Cerdà de Tallada - Colón,,platform,,bus_stop,,,,Empresa Municipal de Transportes de Valencia,,,,,,,,-0.3698577,39.4715774
POINT (-0.3963659 39.4635193),Arxiduc Carles (imparell) - Tres Forques,,platform,,bus_stop,,,,Empresa Municipal de Transportes de Valencia,,,,,,,,-0.3963659,39.4635193
POINT (-0.3870698 39.4556394),Uruguai - Veneçuela,,platform,,bus_stop,,,,Empresa Municipal de Transportes de Valencia,,,,,,,,-0.3870698,39.4556394
POINT (-0.3246007 39.4768899),Hospital Malva-rosa,,platform,,bus_stop,,,,Empresa Municipal de Transportes de Valencia,,,,,,,,-0.3246007,39.4768899
POINT (-0.3246338 39.4735496),Passeig Marítim - Séquia de la Cadena,,platform,,bus_stop,,,,Empresa Municipal de Transportes de Valencia,,,,,,,,-0.3246338,39.4735496
POINT (-0.3247105 39.4702027),Passeig Marítim - Pescadors,,platform,,bus_stop,,,,Empresa Municipal de Transportes de Valencia,,,,,,,,-0.3247105,39.4702027
POINT (-0.3247271 39.4679587),Passeig Marítim - Mediterrània,,platform,,bus_stop,,,,Empresa Municipal de Transportes de Valencia,,,,,,,,-0.3247271,39.4679587
POINT (-0.3244016 39.463853),Eugènia Viñes (parell) - Marcos Sopena,,platform,,bus_stop,,,,Empresa Municipal de Transportes de Valencia,,,,,,,,-0.3244016,39.463853
POINT (-0.4264132 39.5022627),Velòdrom Lluís Puig,,platform,,bus_stop,,,,Empresa Municipal de Transportes de Valencia,,,,,,,,-0.4264132,39.5022627
POINT (-0.3863308 39.5122017),Camí de Montcada - Camí Alqueria de Marquet,,platform,,bus_stop,,,,Empresa Municipal de Transportes de Valencia,,,,,,,,-0.3863308,39.5122017
POINT (-0.3726211 39.4946913),Centre de Salut Salvador Allende,,platform,,bus_stop,,,,Empresa Municipal de Transportes de Valencia,,,,,,,,-0.3726211,39.4946913
POINT (-0.3681618 39.4425077),Centre de Salut Fonteta,,platform,,bus_stop,,,,Empresa Municipal de Transportes de Valencia,,,,,,,,-0.3681618,39.4425077
POINT (-0.3678797 39.4516243),Germans Maristes (imparell) - Fonteta Sant Lluís,,platform,,bus_stop,,,,Empresa Municipal de Transportes de Valencia,,,,,,,,-0.3678797,39.4516243
POINT (-0.4054832 39.4627928),Tres Creus - Tres Forques,,platform,,bus_stop,,,,Empresa Municipal de Transportes de Valencia,,,,,,,,-0.4054832,39.4627928
POINT (-0.4027765 39.4586289),Tres Creus - Segona República Espanyola,,platform,,bus_stop,,,,Empresa Municipal de Transportes de Valencia,,,,,,,,-0.4027765,39.4586289
POINT (-0.4039729 39.4605547),Tres Creus - Dr. Pérez Feliu,,platform,,bus_stop,,,,Empresa Municipal de Transportes de Valencia,,,,,,,,-0.4039729,39.4605547
POINT (-0.3286406 39.463089),Comissaria Policia - Marítim,,platform,,bus_stop,,,,Empresa Municipal de Transportes de Valencia,,,,,,,,-0.3286406,39.463089
POINT (-0.3945817 39.4999115),Foc - Amadeu Desfilis,,platform,,bus_stop,,,,Empresa Municipal de Transportes de Valencia,,,,,,,,-0.3945817,39.4999115
POINT (-0.3252412 39.466956),Eugènia Viñes - Mare de Déu del Sufragi,,platform,,bus_stop,,,,Empresa Municipal de Transportes de Valencia,,,,,,,,-0.3252412,39.466956
POINT (-0.3250534 39.4636065),Eugènia Viñes (imparell) - Marcos Sopena,,platform,,bus_stop,,,,Empresa Municipal de Transportes de Valencia,,,,,,,,-0.3250534,39.4636065
POINT (-0.3258575 39.4789661),Isabel de Villena - Vicent la Roda,,platform,,bus_stop,,,,Empresa Municipal de Transportes de Valencia,,,,,,,,-0.3258575,39.4789661
POINT (-0.3258492 39.4768987),Centre de Salut Malva-rosa,,platform,,bus_stop,,,,Empresa Municipal de Transportes de Valencia,,,,,,,,-0.3258492,39.4768987
POINT (-0.3253154 39.4835624),Passeig Marítim - Mendizábal,,platform,,bus_stop,,,,Empresa Municipal de Transportes de Valencia,,,,,,,,-0.3253154,39.4835624
POINT (-0.3258004 39.4811582),Isabel de Villena - Font d'en Carrós,,platform,,bus_stop,,,,Empresa Municipal de Transportes de Valencia,,,,,,,,-0.3258004,39.4811582
POINT (-0.3246298 39.4789301),Passeig Marítim - Vicent la Roda,,platform,,bus_stop,,,,Empresa Municipal de Transportes de Valencia,,,,,,,,-0.3246298,39.4789301
POINT (-0.3246961 39.4811529),Passeig Marítim - Font d'en Carrós,,platform,,bus_stop,,,,Empresa Municipal de Transportes de Valencia,,,,,,,,-0.3246961,39.4811529
POINT (-0.3503043 39.4683302),Dr. Manuel Candela (imparell) - Rodríguez de Cepeda,,platform,,bus_stop,,,,Empresa Municipal de Transportes de Valencia,,,,,,,,-0.3503043,39.4683302
POINT (-0.3494406 39.4704814),Dr. Manuel Candela (imparell) - Sants Just i Pastor,,platform,,bus_stop,,,,Empresa Municipal de Transportes de Valencia,,,,,,,,-0.3494406,39.4704814
POINT (-0.3522808 39.4634868),Tomàs Montañana (parell) - Astúries,,platform,,bus_stop,,,,Empresa Municipal de Transportes de Valencia,,,,,,,,-0.3522808,39.4634868
POINT (-0.3512452 39.4660614),Dr. Manuel Candela (imparell) - Port,,platform,,bus_stop,,,,Empresa Municipal de Transportes de Valencia,,,,,,,,-0.3512452,39.4660614
POINT (-0.3491312 39.4703373),Dr. Manuel Candela (parell) - Sants Just i Pastor,,platform,,bus_stop,,,,Empresa Municipal de Transportes de Valencia,,,,,,,,-0.3491312,39.4703373
POINT (-0.3509044 39.4660117),Dr. Manuel Candela (parell) - Port,,platform,,bus_stop,,,,Empresa Municipal de Transportes de Valencia,,,,,,,,-0.3509044,39.4660117
POINT (-0.3483699 39.4730079),Dr. Manuel Candela (imparell) - Blasco Ibáñez,,platform,,bus_stop,,,,Empresa Municipal de Transportes de Valencia,,,,limited,,,,-0.3483699,39.4730079
POINT (-0.3467782 39.476953),Ramon Llull - García Donato,,platform,,bus_stop,,,,Empresa Municipal de Transportes de Valencia,,,,,,,,-0.3467782,39.476953
POINT (-0.3519967 39.4632599),Tomàs Montañana (imparell) - Astúries,,platform,,bus_stop,,,,Empresa Municipal de Transportes de Valencia,,,,,,,,-0.3519967,39.4632599
POINT (-0.3463646 39.4770048),Ramon Llull - Bernat Fenollar,,platform,,bus_stop,,,,Empresa Municipal de Transportes de Valencia,,,,,,,,-0.3463646,39.4770048
POINT (-0.3792545 39.450481),Malilla (parell) - Bernat Descoll,,platform,,bus_stop,,,,Empresa Municipal de Transportes de Valencia,,,,,,,,-0.3792545,39.450481
POINT (-0.351817 39.4808354),Catalunya - Clariano,,platform,,bus_stop,,,,Empresa Municipal de Transportes de Valencia,,,,,,,,-0.351817,39.4808354
POINT (-0.3858039 39.527644),Ferrer i Bignè - Clavells,,platform,,bus_stop,,,,Empresa Municipal de Transportes de Valencia,,,,,,,,-0.3858039,39.527644
POINT (-0.3856189 39.5297371),Ferrer i Bigné - Santíssima Creu,,platform,,bus_stop,,,,Empresa Municipal de Transportes de Valencia,,,,,,,,-0.3856189,39.5297371
POINT (-0.3854096 39.5308208),Ferrer i Bigné - Nelo el Fariner,,platform,,bus_stop,,,,Empresa Municipal de Transportes de Valencia,,,,,,,,-0.3854096,39.5308208
POINT (-0.3864643 39.5122946),Camí de Montcada - Gasolinera,,platform,,bus_stop,,,,Empresa Municipal de Transportes de Valencia,,,,,,,,-0.3864643,39.5122946
POINT (-0.3722643 39.4961353),Tossal del Rei,,platform,,bus_stop,,,,Empresa Municipal de Transportes de Valencia,,,,,,,,-0.3722643,39.4961353
POINT (-0.3381472 39.4707285),Blasco Ibáñez (parell) - José María Haro,,platform,,bus_stop,,,,Empresa Municipal de Transportes de Valencia,,,,,,,,-0.3381472,39.4707285
POINT (-0.3840758 39.5296112),Palma de Gandia - Venta del Moro,,platform,,bus_stop,,,,Empresa Municipal de Transportes de Valencia,,,,,,,,-0.3840758,39.5296112
POINT (-0.3755186 39.4960867),Sant Doménec Savio - Josep Esteve,,platform,,bus_stop,,,,Empresa Municipal de Transportes de Valencia,,,,,,,,-0.3755186,39.4960867
POINT (-0.3771148 39.4925223),Pere Patrici Mey - Felip Rinaldi,,platform,,bus_stop,,,,Empresa Municipal de Transportes de Valencia,,,,,,,,-0.3771148,39.4925223
POINT (-0.3771522 39.4965271),Pintor Jacomart - Comte de Torrefiel,,platform,,bus_stop,,,,Empresa Municipal de Transportes de Valencia,,,,,,,,-0.3771522,39.4965271
POINT (-0.3744233 39.4970224),Músic Espí - Gravador Fabregat,,platform,,bus_stop,,,,Empresa Municipal de Transportes de Valencia,,,,,,,,-0.3744233,39.4970224
POINT (-0.3759371 39.4932533),Comte de Torrefiel - Mestre Marçal,,platform,,bus_stop,,,,Empresa Municipal de Transportes de Valencia,,,,,,,,-0.3759371,39.4932533
POINT (-0.376841 39.4958627),Comte de Torrefiel - Josep Esteve,,platform,,bus_stop,,,,Empresa Municipal de Transportes de Valencia,,,,,,,,-0.376841,39.4958627
POINT (-0.3773412 39.4980592),Comte de Torrefiel - Riu Bidasoa,,platform,,bus_stop,,,,Empresa Municipal de Transportes de Valencia,,,,,,,,-0.3773412,39.4980592
POINT (-0.3762021 39.4979246),Mercat de Torrefiel,,platform,,bus_stop,,,,Empresa Municipal de Transportes de Valencia,,,,,,,,-0.3762021,39.4979246
POINT (-0.3721693 39.4731587),Carrer de la Pau,,platform,,bus_stop,,,,Empresa Municipal de Transportes de Valencia,,,,,,,,-0.3721693,39.4731587
POINT (-0.3699158 39.4740036),Tetuan,,platform,,bus_stop,,,,Empresa Municipal de Transportes de Valencia,,,,,,,,-0.3699158,39.4740036
POINT (-0.3777139 39.4672493),Estació del Nord - Bailén,,platform,,bus_stop,,,,Empresa Municipal de Transportes de Valencia,,,,,,,,-0.3777139,39.4672493
POINT (-0.3914151 39.4843586),Antic Hospital La Fe,,platform,,bus_stop,,,,Empresa Municipal de Transportes de Valencia,,,,,,,,-0.3914151,39.4843586
POINT (-0.3919291 39.4838973),Conselleria d'Educació,,platform,,bus_stop,,,,Empresa Municipal de Transportes de Valencia,,,,,,,,-0.3919291,39.4838973
POINT (-0.3690873 39.4710837),Comte de Salvatierra - Colón,,platform,,bus_stop,,,,Empresa Municipal de Transportes de Valencia,,,,,,,,-0.3690873,39.4710837
POINT (-0.3291763 39.4677449),Mediterrània - Reina,,platform,,bus_stop,,,,Empresa Municipal de Transportes de Valencia,,,,,,,,-0.3291763,39.4677449
POINT (-0.3285675 39.4675715),Mediterrània - Dr. Lluch,,platform,,bus_stop,,,,Empresa Municipal de Transportes de Valencia,,,,,,,,-0.3285675,39.4675715
POINT (-0.3617293 39.4781686),Blasco Ibañez - Dr. Moliner,,platform,,,,,,Empresa Municipal de Transportes de Valencia,,,,,,,,-0.3617293,39.4781686
POINT (-0.3570256 39.4869827),Lliri Blau - Mestre Ventura Pascual,,platform,,bus_stop,,,,Empresa Municipal de Transportes de Valencia,,,,,,,,-0.3570256,39.4869827
POINT (-0.3918687 39.4672539),Cid - Aiora,,platform,,bus_stop,,,,Empresa Municipal de Transportes de Valencia,,,,,,,,-0.3918687,39.4672539
POINT (-0.3742754 39.470854),Teatre Principal,,platform,,bus_stop,,,,Empresa Municipal de Transportes de Valencia,,,,,,,,-0.3742754,39.470854
POINT (-0.3644307 39.473815),Pont de l'Exposició,,platform,,bus_stop,,,,Empresa Municipal de Transportes de Valencia,,,,,,,,-0.3644307,39.473815
POINT (-0.3973311 39.4774157),Mestre Rodrigo - Marqués de Sant Joan,,platform,,bus_stop,,,,Empresa Municipal de Transportes de Valencia,,,,,,,,-0.3973311,39.4774157
POINT (-0.3452671 39.4793922),Campus Tarongers,,platform,,bus_stop,,,,Empresa Municipal de Transportes de Valencia,,,,,,,,-0.3452671,39.4793922
POINT (-0.3772414 39.49854),Torrefiel,,platform,,bus_stop,,,,Empresa Municipal de Transportes de Valencia,,,,,,,,-0.3772414,39.49854
POINT (-0.384396 39.4721222),Espinosa - Ferran el Catòlic,,platform,,bus_stop,,,,Empresa Municipal de Transportes de Valencia,,,,,,,,-0.384396,39.4721222
POINT (-0.3952439 39.4786995),Marqués de Sant Joan - Campanar,,platform,,bus_stop,,,,Empresa Municipal de Transportes de Valencia,,,,,,,,-0.3952439,39.4786995
POINT (-0.406443 39.4662265),Mercat de Castilla,,platform,,bus_stop,,,,Empresa Municipal de Transportes de Valencia,,,,,,,,-0.406443,39.4662265
POINT (-0.3709736 39.4897353),Primat Reig - Ministre Luis Mayans,,platform,,bus_stop,,,,Empresa Municipal de Transportes de Valencia,,,,,,,,-0.3709736,39.4897353
POINT (-0.4065962 39.468336),Hospital General,,platform,,bus_stop,,,,Empresa Municipal de Transportes de Valencia,,,,,,,,-0.4065962,39.468336
POINT (-0.3959344 39.4849867),Monestir de Poblet - Centre Comercial,,platform,,bus_stop,,,,Empresa Municipal de Transportes de Valencia,,,,,,,,-0.3959344,39.4849867
POINT (-0.3798474 39.4959238),Pintor Jacomart - Alcanyís,,platform,,bus_stop,,,,Empresa Municipal de Transportes de Valencia,,,,,,,,-0.3798474,39.4959238
POINT (-0.3456691 39.4794347),Facultat de Ciències Socials,,platform,,bus_stop,,,,Empresa Municipal de Transportes de Valencia,,,,,,,,-0.3456691,39.4794347
POINT (-0.3845062 39.4703736),Àngel Guimerà - Ferran el Catòlic,,platform,,bus_stop,,,,Empresa Municipal de Transportes de Valencia,,,,,,,,-0.3845062,39.4703736
POINT (-0.3246281 39.465468),Eugènia Viñes - Passeig de Neptú,,platform,,bus_stop,,,,Empresa Municipal de Transportes de Valencia,,,,,,,,-0.3246281,39.465468
POINT (-0.3567424 39.4567616),Les Arts,,platform,,bus_stop,,,,Empresa Municipal de Transportes de Valencia,,,,,,,,-0.3567424,39.4567616
POINT (-0.3755682 39.4922213),Comte de Torrefiel - Escultor Piquer,,platform,,bus_stop,,,,Empresa Municipal de Transportes de Valencia,,,,,,,,-0.3755682,39.4922213
POINT (-0.3561952 39.4570888),Les Arts,,platform,,bus_stop,,,,Empresa Municipal de Transportes de Valencia,,,,,,,,-0.3561952,39.4570888
POINT (-0.3373019 39.4712213),Blasco Ibáñez (imparell) - José María Haro,,platform,,bus_stop,,,,Empresa Municipal de Transportes de Valencia,,,,,,,,-0.3373019,39.4712213
POINT (-0.3761617 39.491698),Dr. Peset Aleixandre - Felip Rinaldi,,platform,,bus_stop,,,,Empresa Municipal de Transportes de Valencia,,,,,,,,-0.3761617,39.491698
POINT (-0.3938719 39.4869311),General Avilés - Miguel Servet (parell),,platform,,bus_stop,,,,Empresa Municipal de Transportes de Valencia,,,,,,,,-0.3938719,39.4869311
POINT (-0.3911303 39.4881367),General Avilés - Dr. Nicasi Benlloch,,platform,,bus_stop,,,,Empresa Municipal de Transportes de Valencia,,,,,,,,-0.3911303,39.4881367
POINT (-0.4039264 39.4602461),Tres Creus - dels Hostalers,,platform,,bus_stop,,,,Empresa Municipal de Transportes de Valencia,,,,,,,,-0.4039264,39.4602461
POINT (-0.4021412 39.4573185),Tres Creus - Arxiduc Carles,,platform,,bus_stop,,,,Empresa Municipal de Transportes de Valencia,,,,,,,,-0.4021412,39.4573185
POINT (-0.3628859 39.4866656),Dolores Marqués - Reverend José María Pinazo,,platform,,bus_stop,,,,Empresa Municipal de Transportes de Valencia,,,,,,,,-0.3628859,39.4866656
POINT (-0.3620715 39.4882477),Dolores Marqués - Assagador d'Alboraia,,platform,,bus_stop,,,,Empresa Municipal de Transportes de Valencia,,,,,,,,-0.3620715,39.4882477
POINT (-0.3565706 39.4790184),Primat Reig - Xàbia,,platform,,bus_stop,,,,Empresa Municipal de Transportes de Valencia;AVSA,,,,,,,,-0.3565706,39.4790184
POINT (-0.3620373 39.4736526),Palau de l'Exposició,,platform,,bus_stop,,,,Empresa Municipal de Transportes de Valencia,,,,,,,,-0.3620373,39.4736526
