geometry,name,amenity,public_transport,railway,highway,stars,internet_access,brand,operator,cuisine,rooms,opening_hours,wheelchair,addr:street,addr:housenumber,addr:postcode,lon,lat
POINT (-1.1417642 37.9940887),Hotel Legazpi,,,,,1,,,,,,,,,,,-1.1417642,37.9940887
POINT (-1.1530116 38.07478),Garita Altorreal,,platform,,bus_stop,,,,,,,,,,,,-1.1530116,38.07478
POINT (-1.131172 37.9916457),Cajamurcia,,platform,,bus_stop,,,,,,,,,,,,-1.131172,37.9916457
POINT (-1.175719 37.9474165),Cementerio,,platform,,bus_stop,,,,,,,,,,,,-1.175719,37.9474165
POINT (-1.1724573 37.9537471),La Acequia,,platform,,bus_stop,,,,,,,,,,,,-1.1724573,37.9537471
POINT (-0.9733981 37.8957747),Riquelme - Sucina,,,station,,,,,,,,,,,,,-0.9733981,37.8957747
POINT (-1.1689244 38.0217592),Centro Social,,stop_position,tram_stop,,,,,,,,,,,,,-1.1689244,38.0217592
POINT (-1.1682776 38.0153386),,parking,,,,,,,,,,,,,,,-1.1682776,38.0153386
POINT (-1.1668307 37.9416116),Psiquiátrico,,platform,,bus_stop,,,,,,,,,,,,-1.1668307,37.9416116
POINT (-1.1623353 37.9424088),Iglesia,,platform,,bus_stop,,,,,,,,,,,,-1.1623353,37.9424088
POINT (-1.2116212 37.9274428),Muebles Fuentes,,platform,,bus_stop,,,,,,,,,,,,-1.2116212,37.9274428
POINT (-1.2100074 37.9293465),La Fuente,,platform,,bus_stop,,,,,,,,,,,,-1.2100074,37.9293465
POINT (-1.2089238 37.9308359),Cementerio,,platform,,bus_stop,,,,,,,,,,,,-1.2089238,37.9308359
POINT (-1.1888931 37.9356808),Desvío cárcel,,platform,,bus_stop,,,,,,,,,,,,-1.1888931,37.9356808
POINT (-1.1838224 37.9369128),Gasolinera,,platform,,bus_stop,,,,,,,,,,,,-1.1838224,37.9369128
POINT (-1.1796035 37.9384142),Bar Simón,,platform,,bus_stop,,,,,,,,,,,,-1.1796035,37.9384142
POINT (-1.1750275 37.9398873),Casas de Gallego,,platform,,bus_stop,,,,,,,,,,,,-1.1750275,37.9398873
POINT (-1.21102 37.9317352),Farmacia,,platform,,bus_stop,,,,,,,,,,,,-1.21102,37.9317352
POINT (-1.2072154 37.9331389),La Plaza,,platform,,bus_stop,,,,,,,,,,,,-1.2072154,37.9331389
POINT (-1.205791 37.9338993),Mercadona,,platform,,bus_stop,,,,,,,,,,,,-1.205791,37.9338993
POINT (-1.202611 37.9347361),Discoteca,,platform,,bus_stop,,,,,,,,,,,,-1.202611,37.9347361
POINT (-1.193842 37.9358071),Casillas,,platform,,bus_stop,,,,,,,,,,,,-1.193842,37.9358071
POINT (-1.2122492 37.9257264),La Curva,,platform,,bus_stop,,,,,,,,,,,,-1.2122492,37.9257264
POINT (-1.2141423 37.9281524),El Moro,,platform,,bus_stop,,,,,,,,,,,,-1.2141423,37.9281524
POINT (-1.2149992 37.9309616),Herrería,,platform,,bus_stop,,,,,,,,,,,,-1.2149992,37.9309616
POINT (-1.2071155 37.9169775),El Palmeral,,platform,,bus_stop,,,,,,,,,,,,-1.2071155,37.9169775
POINT (-1.2080908 37.9186146),Quiosco,,platform,,bus_stop,,,,,,,,,,,,-1.2080908,37.9186146
POINT (-1.2089787 37.9201435),El Bartolo,,platform,,bus_stop,,,,,,,,,,,,-1.2089787,37.9201435
POINT (-1.2100289 37.9218822),Depósito,,platform,,bus_stop,,,,,,,,,,,,-1.2100289,37.9218822
POINT (-1.1307339 37.9830865),Glorieta de España,,platform,,bus_stop,,,,,,,,,,,,-1.1307339,37.9830865
POINT (-1.1351227 37.983374),Plano de San Francisco,,platform,,bus_stop,,,,,,,,,,,,-1.1351227,37.983374
POINT (-1.1348093 37.983193),Malecón,,platform,,bus_stop,,,,,,,,,,,,-1.1348093,37.983193
POINT (-1.1395041 37.9861653),Estación de Autobuses de Murcia,bus_station,station,,,,,,,,,,,,,,-1.1395041,37.9861653
POINT (-1.1385503 37.9697268),Alias,,platform,,bus_stop,,,,,,,,,,,,-1.1385503,37.9697268
POINT (-1.1359851 37.9723635),Iglesia,,platform,,bus_stop,,,,,,,,,,,,-1.1359851,37.9723635
POINT (-1.1350407 37.9738319),Colonia San Estéban,,platform,,bus_stop,,,,,,,,,,,,-1.1350407,37.9738319
POINT (-1.1304998 37.9804056),"Alameda de Colón, 11",,platform,,bus_stop,,,,,,,,,,,,-1.1304998,37.9804056
POINT (-1.1511813 37.9551022),La Vereda,,platform,,bus_stop,,,,,,,,,,,,-1.1511813,37.9551022
POINT (-1.1473277 37.9598399),Salabosque,,platform,,bus_stop,,,,,,,,,,,,-1.1473277,37.9598399
POINT (-1.1448859 37.9624427),Pedro Arqués,,platform,,bus_stop,,,,,,,,,,,,-1.1448859,37.9624427
POINT (-1.143191 37.9643508),Las Barracas,,platform,,bus_stop,,,,,,,,,,,,-1.143191,37.9643508
POINT (-1.1408414 37.9673748),Guillamones,,platform,,bus_stop,,,,,,,,,,,,-1.1408414,37.9673748
POINT (-1.1624878 37.9378719),Club ·3ª edad,,platform,,bus_stop,,,,,,,,,,,,-1.1624878,37.9378719
POINT (-1.1631217 37.9356201),Colegio José María Párraga,,platform,,bus_stop,,,,,,,,,,,,-1.1631217,37.9356201
POINT (-1.1627037 37.934761),Arrixaca,,platform,,bus_stop,,,,,,,,,,,,-1.1627037,37.934761
POINT (-1.1566445 37.9487882),Gasolinera,,platform,,bus_stop,,,,,,,,,,,,-1.1566445,37.9487882
POINT (-1.1534539 37.9524417),Ferresa,,platform,,bus_stop,,,,,,,,,,,,-1.1534539,37.9524417
POINT (-1.194805 37.9356083),Cruce Mercamurcia,,platform,,bus_stop,,,,,,,,,,,,-1.194805,37.9356083
POINT (-1.1928313 37.9310607),Instituto F.P.,,platform,,bus_stop,,,,,,,,,,,,-1.1928313,37.9310607
POINT (-1.1889446 37.9296475),Cárcel,,platform,,bus_stop,,,,,,,,,,,,-1.1889446,37.9296475
POINT (-1.1618296 37.9412628),Plaza Capitán García,,platform,,bus_stop,,,,,,,,,,,,-1.1618296,37.9412628
POINT (-1.1946008 37.9349274),Cruce Mercamurcia,,platform,,bus_stop,,,,,,,,,,,,-1.1946008,37.9349274
POINT (-1.1265495 37.9883915),Universidad,parking,,,,,,,,,,,,,,,-1.1265495,37.9883915
POINT (-1.1361774 37.9903725),Almudí,parking,,,,,,,,,,,,,,,-1.1361774,37.9903725
POINT (-1.136014 37.9903261),Almudí,parking,,,,,,,,,,,yes,,,,-1.136014,37.9903261
POINT (-1.1296596 37.9818064),Hdez. del Águila Nº21,,platform,,bus_stop,,,,,,,,,,,,-1.1296596,37.9818064
POINT (-1.1325936 37.9944255),Juan Carlos I,,stop_position,tram_stop,,,,,TDM,,,,,,,,-1.1325936,37.9944255
POINT (-1.1366662 37.9985436),Biblioteca Regional,,stop_position,tram_stop,,,,,,,,,,,,,-1.1366662,37.9985436
POINT (-1.1465364 38.0083127),Parque Empresarial,,stop_position,tram_stop,,,,,,,,,,,,,-1.1465364,38.0083127
POINT (-1.1557266 38.0136676),Espinardo,,stop_position,tram_stop,,,,,,,,,,,,,-1.1557266,38.0136676
POINT (-1.1620567 38.0125187),Los Rectores - Terra Natura,,stop_position,tram_stop,,,,,TDM,,,,,,,,-1.1620567,38.0125187
POINT (-1.1736731 38.0141519),Residencia Universitaria,,stop_position,tram_stop,,,,,,,,,,,,,-1.1736731,38.0141519
POINT (-1.1721811 38.0183106),Biblioteca General,,stop_position,tram_stop,,,,,,,,,,,,,-1.1721811,38.0183106
POINT (-1.1676358 38.0147121),Universidad de Murcia,,stop_position,tram_stop,,,,,,,,,,,,,-1.1676358,38.0147121
POINT (-1.12866 37.9799958),Catalonia Conde de Floridablanca,,,,,4,wlan,,Catalonia,,,,,,,,-1.12866,37.9799958
POINT (-1.1372578 37.9839643),Calle Juan de la Cierva Nº5,,platform,,bus_stop,,,,,,,,,,,,-1.1372578,37.9839643
POINT (-1.1615519 37.9264858),Club de Campo,,,,bus_stop,,,,,,,,,,,,-1.1615519,37.9264858
POINT (-1.1617913 37.9248513),Buenavista,,,,bus_stop,,,,,,,,,,,,-1.1617913,37.9248513
POINT (-1.1629927 37.9334883),Parking Hospital Virgen de la Arrixaca,parking,,,,,,,,,,,,,,,-1.1629927,37.9334883
POINT (-1.1730484 38.003085),Guadalupe,,stop_position,tram_stop,,,,,TDM,,,,,,,,-1.1730484,38.003085
POINT (-1.1704911 37.8404142),Corvera Golf,parking,,,,,,,,,,,,,,,-1.1704911,37.8404142
POINT (-1.1598382 37.8291989),,parking,,,,,,,,,,,,,,,-1.1598382,37.8291989
POINT (-1.1557856 37.8314821),,parking,,,,,,,,,,,,,,,-1.1557856,37.8314821
POINT (-1.1552722 37.8321299),,parking,,,,,,,,,,,,,,,-1.1552722,37.8321299
POINT (-1.1323595 37.9421195),El Charco,,platform,,bus_stop,,,,,,,,,,,,-1.1323595,37.9421195
POINT (-1.2113211 37.9242052),Potajes,,platform,,bus_stop,,,,,,,,,,,,-1.2113211,37.9242052
POINT (-1.1517803 38.0084722),Iglesia,,platform,,bus_stop,,,,,,,,,,,,-1.1517803,38.0084722
POINT (-1.1512681 38.0081499),Iglesia,,platform,,bus_stop,,,,,,,,,,,,-1.1512681,38.0081499
POINT (-1.22352 37.9634481),La Pradera,,platform,,bus_stop,,,,,,,,,,,,-1.22352,37.9634481
POINT (-1.1521473 38.0127762),El Puntal,,stop_position,tram_stop,,,,,,,,,,,,,-1.1521473,38.0127762
POINT (-1.1765771 37.9189766),San José de la Montaña,,platform,,bus_stop,,,,,,,,,,,,-1.1765771,37.9189766
POINT (-1.1604184 37.9354807),Apartamentos Arrixaca,,,,,3,,,,,,,yes,,,,-1.1604184,37.9354807
POINT (-1.1613473 37.9435706),,parking,,,,,,,,,,,,,,,-1.1613473,37.9435706
POINT (-1.1272622 37.9847287),Plaza Cetina,,platform,,bus_stop,,,,,,,,,,,,-1.1272622,37.9847287
POINT (-1.1267414 37.9839425),Hotel Murcia Rincón de Pepe Affiliated by Meliá,,,,,4,,,Meliá,,,,limited,Calle de los Apóstoles,34,30001,-1.1267414,37.9839425
POINT (-1.126787 37.9835394),Arco de San Juan,,platform,,bus_stop,,,,,,,,yes,,,,-1.126787,37.9835394
POINT (-1.1236496 37.9895553),Plaza Santoña,parking,,,,,,,,,,,,,,,-1.1236496,37.9895553
POINT (-1.1242655 37.9894175),Avenida Antonete Gálvez,,platform,,bus_stop,,,,,,,,,,,,-1.1242655,37.9894175
POINT (-1.1286552 37.9877334),,parking,,,,,,,,,,,,,,,-1.1286552,37.9877334
POINT (-1.1232738 37.9894648),Plaza Santoña,parking,,,,,,,,,,,,,,,-1.1232738,37.9894648
POINT (-1.1252666 37.9883476),Universidad,parking,,,,,,,,,,,,,,,-1.1252666,37.9883476
POINT (-1.1272233 37.9861706),,parking,,,,,,,,,,,,,,,-1.1272233,37.9861706
POINT (-1.1280717 37.9877031),,parking,,,,,,,,,,,,,,,-1.1280717,37.9877031
POINT (-1.1374664 37.9973258),,parking,,,,,,,,,,,,,,,-1.1374664,37.9973258
POINT (-1.1411466 38.0029936),Senda de Granada,,stop_position,tram_stop,,,,,,,,,,,,,-1.1411466,38.0029936
POINT (-1.1255064 37.985836),Temperatura Ambiente,pub,,,,,wlan,,,,,,,,,,-1.1255064,37.985836
POINT (-1.1374885 37.9712182),San Pío X,,platform,,bus_stop,,,,,,,,,,,,-1.1374885,37.9712182
POINT (-1.1355792 37.9734356),Innovadora,,platform,,bus_stop,,,,,,,,,,,,-1.1355792,37.9734356
POINT (-1.1311629 37.9843216),Hesperia Murcia Centro,,,,,3,yes,Hesperia,Hesperia,,,,yes,Calle Madre de Dios,4,30004,-1.1311629,37.9843216
POINT (-0.9412644 37.8889874),Locutorio Telefónico Sucina,telephone,,,,,terminal,,,,,,,,,,-0.9412644,37.8889874
POINT (-1.1368081 37.9789984),Cuartel de Artillería,parking,,,,,,,,,,,,,,,-1.1368081,37.9789984
POINT (-1.1267544 37.9986759),Abenarabi,,stop_position,tram_stop,,,,,,,,,,,,,-1.1267544,37.9986759
POINT (-1.1373224 38.0177322),Alameda,,stop_position,tram_stop,,,,,,,,,,,,,-1.1373224,38.0177322
POINT (-1.1390827 38.0217752),Churra,,stop_position,tram_stop,,,,,TDM,,,,,,,,-1.1390827,38.0217752
POINT (-1.1840724 37.9974124),El Portón,,stop_position,tram_stop,,,,,TDM,,,,,,,,-1.1840724,37.9974124
POINT (-1.145808 38.0315468),Infantas,,stop_position,tram_stop,,,,,,,,,,,,,-1.145808,38.0315468
POINT (-1.1436448 38.0349243),La Ladera,,stop_position,tram_stop,,,,,,,,,,,,,-1.1436448,38.0349243
POINT (-1.1317167 38.0122382),Los Cubos,,stop_position,tram_stop,,,,,,,,,,,,,-1.1317167,38.0122382
POINT (-1.1244871 37.9940204),Marina Española,,stop_position,tram_stop,,,,,,,,,,,,,-1.1244871,37.9940204
POINT (-1.1423985 38.0269698),Príncipe Felipe,,stop_position,tram_stop,,,,,TDM,,,,,,,,-1.1423985,38.0269698
POINT (-1.1289609 38.0034259),Príncipe de Asturias,,stop_position,tram_stop,,,,,,,,,,,,,-1.1289609,38.0034259
POINT (-1.1770305 38.0017715),Reyes Católicos,,stop_position,tram_stop,,,,,TDM,,,,,,,,-1.1770305,38.0017715
POINT (-1.1390299 38.0225614),El Templo,pub,,,,,wlan,,,,,,,,,,-1.1390299,38.0225614
POINT (-1.1329422 37.989705),Parking Libertad,parking,,,,,,,,,,,,,,,-1.1329422,37.989705
POINT (-1.1342244 37.9903306),Parking Libertad,parking,,,,,,,,,,,,,,,-1.1342244,37.9903306
POINT (-1.1351651 37.990975),Parking Libertad,parking,,,,,,,,,,,,,,,-1.1351651,37.990975
POINT (-1.1290845 38.0034117),Príncipe de Asturias,,stop_position,tram_stop,,,,,,,,,,,,,-1.1290845,38.0034117
POINT (-1.1318073 38.01216),Los Cubos,,stop_position,tram_stop,,,,,,,,,,,,,-1.1318073,38.01216
POINT (-1.1268826 37.9986484),Abenarabi,,stop_position,tram_stop,,,,,,,,,,,,,-1.1268826,37.9986484
POINT (-1.1374481 38.0176811),Alameda,,stop_position,tram_stop,,,,,,,,,,,,,-1.1374481,38.0176811
POINT (-1.1367431 37.9985053),Biblioteca Regional,,stop_position,tram_stop,,,,,,,,,,,,,-1.1367431,37.9985053
POINT (-1.1412126 38.00296),Senda de Granada,,stop_position,tram_stop,,,,,,,,,,,,,-1.1412126,38.00296
POINT (-1.1521745 38.0127234),El Puntal,,stop_position,tram_stop,,,,,,,,,,,,,-1.1521745,38.0127234
POINT (-1.1466055 38.0082789),Parque Empresarial,,stop_position,tram_stop,,,,,,,,,,,,,-1.1466055,38.0082789
POINT (-1.162101 38.0124622),Los Rectores - Terra Natura,,stop_position,tram_stop,,,,,TDM,,,,,,,,-1.162101,38.0124622
POINT (-1.1404746 37.9861757),,parking,,,,,,,,,,,,,,,-1.1404746,37.9861757
POINT (-1.1304074 37.9804208),Alameda de Colón (Jardín),,platform,,bus_stop,,,,,,,,,,,,-1.1304074,37.9804208
POINT (-1.1619601 37.9400987),Caja de Ahorros,,platform,,bus_stop,,,,,,,,,,,,-1.1619601,37.9400987
POINT (-1.1622508 37.9382952),Club ·3ª edad,,platform,,bus_stop,,,,,,,,,,,,-1.1622508,37.9382952
POINT (-1.1334322 37.9759195),"El Rollo, Ctra. de El Palmar",,platform,,bus_stop,,,,,,,,,,,,-1.1334322,37.9759195
POINT (-1.1615642 37.9416379),Farmacia,,platform,,bus_stop,,,,,,,,,,,,-1.1615642,37.9416379
POINT (-1.1540271 37.9521041),Ferresa,,platform,,bus_stop,,,,,,,,,,,,-1.1540271,37.9521041
POINT (-1.1325649 37.97667),"Floridablanca, 57",,platform,,bus_stop,,,,,,,,,,,,-1.1325649,37.97667
POINT (-1.1567858 37.9489016),Gasolinera,,platform,,bus_stop,,,,,,,,,,,,-1.1567858,37.9489016
POINT (-1.1406496 37.9672857),Guillamones,,platform,,bus_stop,,,,,,,,,,,,-1.1406496,37.9672857
POINT (-1.151023 37.9555556),La Vereda,,platform,,bus_stop,,,,,,,,,,,,-1.151023,37.9555556
POINT (-1.1425848 37.9653617),Las Barracas,,platform,,bus_stop,,,,,,,,,,,,-1.1425848,37.9653617
POINT (-1.1457015 37.9617075),Pedro Arqués,,platform,,bus_stop,,,,,,,,,,,,-1.1457015,37.9617075
POINT (-1.1367964 37.9718169),San Pío X,,platform,,bus_stop,,,,,,,,,,,,-1.1367964,37.9718169
POINT (-1.1480214 37.9587656),Salabosque,,platform,,bus_stop,,,,,,,,,,,,-1.1480214,37.9587656
POINT (-1.1368134 37.9905397),Almudí,parking,,,,,,,,,,,,,,,-1.1368134,37.9905397
POINT (-1.1293674 37.9904297),Alfonso X,parking,,,,,,,,,,,,,,,-1.1293674,37.9904297
POINT (-1.1434788 37.934493),Cementerio,,platform,,bus_stop,,,,,,,,limited,,,,-1.1434788,37.934493
POINT (-1.1148153 37.9766121),,parking,,,,,,,,,,,,,,,-1.1148153,37.9766121
POINT (-1.1640933 37.9319168),Parking Hospital Virgen de la Arrixaca,parking,,,,,,,,,,,,,,,-1.1640933,37.9319168
POINT (-1.163754 37.9328473),Parking Hospital Virgen de la Arrixaca,parking,,,,,,,,,,,,,,,-1.163754,37.9328473
POINT (-1.16345 37.933672),Parking Hospital Virgen de la Arrixaca,parking,,,,,,,,,,,,,,,-1.16345,37.933672
POINT (-1.1269578 37.9335778),,parking,,,,,,,,,,,,,,,-1.1269578,37.9335778
POINT (-1.1060847 37.8673297),,parking,,,,,,,,,,,,,,,-1.1060847,37.8673297
POINT (-1.1338652 37.9618965),,parking,,,,,,,,,,,,,,,-1.1338652,37.9618965
POINT (-1.158792 37.9419986),,parking_space,,,,,,,,,,,,,,,-1.158792,37.9419986
POINT (-1.1584778 37.9422442),,parking_space,,,,,,,,,,,,,,,-1.1584778,37.9422442
POINT (-1.1599691 37.9355489),Restaurante Strategos,restaurant,,,,2,,,,,,,,,,,-1.1599691,37.9355489
POINT (-1.1311213 37.9785524),Espinosa,,platform,,bus_stop,,,,,,,,,,,,-1.1311213,37.9785524
POINT (-1.1310496 37.9784398),Espinosa (impar),,platform,,,,,,,,,,,,,,-1.1310496,37.9784398
POINT (-1.135855 37.975987),"El Rollo, Avda. Ciudad de Almería",,platform,,bus_stop,,,,,,,,,,,,-1.135855,37.975987
POINT (-1.132088 37.9867149),Santa Isabel,,platform,,bus_stop,,,,,,,,,,,,-1.132088,37.9867149
POINT (-1.1321013 37.9887043),Antiguo Galerías,,platform,,bus_stop,,,,,,,,,,,,-1.1321013,37.9887043
POINT (-1.12844 37.9825782),Glorieta de España (Teniente Flomesta Nº3),,platform,,bus_stop,,,,,,,,,,,,-1.12844,37.9825782
POINT (-1.1317912 37.9845695),"Gran Vía, 6",,platform,,bus_stop,,,,,,,,,,,,-1.1317912,37.9845695
POINT (-1.1748286 37.952987),Almacén,,platform,,bus_stop,,,,,,,,,,,,-1.1748286,37.952987
POINT (-1.1519103 37.9559721),Casino,,platform,,bus_stop,,,,,,,,,,,,-1.1519103,37.9559721
POINT (-1.1759487 37.9474606),Cementerio,,platform,,bus_stop,,,,,,,,,,,,-1.1759487,37.9474606
POINT (-1.1526142 37.9559197),Confitería Lorena,,platform,,bus_stop,,,,,,,,,,,,-1.1526142,37.9559197
POINT (-1.1759094 37.9503133),Cuatro Vientos,,platform,,bus_stop,,,,,,,,,,,,-1.1759094,37.9503133
POINT (-1.1757697 37.9502964),Cuatro Vientos,,platform,,bus_stop,,,,,,,,,,,,-1.1757697,37.9502964
POINT (-1.1636064 37.955585),El Niño,,platform,,bus_stop,,,,,,,,,,,,-1.1636064,37.955585
POINT (-1.163566 37.9557028),El Niño,,platform,,bus_stop,,,,,,,,,,,,-1.163566,37.9557028
POINT (-1.1550414 37.9570917),Iglesia,,platform,,bus_stop,,,,,,,,,,,,-1.1550414,37.9570917
POINT (-1.1548484 37.957013),Iglesia,,platform,,bus_stop,,,,,,,,,,,,-1.1548484,37.957013
POINT (-1.1756973 37.9523849),Jardín,,platform,,bus_stop,,,,,,,,,,,,-1.1756973,37.9523849
POINT (-1.1725635 37.9538126),La Acequia,,platform,,bus_stop,,,,,,,,,,,,-1.1725635,37.9538126
POINT (-1.1709452 37.9539966),La Juana,,platform,,bus_stop,,,,,,,,,,,,-1.1709452,37.9539966
POINT (-1.1708522 37.9540893),La Juana,,platform,,bus_stop,,,,,,,,,,,,-1.1708522,37.9540893
POINT (-1.1664278 37.9546296),Los Naberos,,platform,,bus_stop,,,,,,,,,,,,-1.1664278,37.9546296
POINT (-1.1664964 37.9547064),Los Naberos,,platform,,bus_stop,,,,,,,,,,,,-1.1664964,37.9547064
POINT (-1.1617168 37.9561896),Puente Salero,,platform,,bus_stop,,,,,,,,,,,,-1.1617168,37.9561896
POINT (-1.1615379 37.9561561),Puente Salero,,platform,,bus_stop,,,,,,,,,,,,-1.1615379,37.9561561
POINT (-1.1393403 37.9926894),"Ronda Norte, 16",,platform,,bus_stop,,,,,,,,,,,,-1.1393403,37.9926894
POINT (-1.1314902 37.990507),"Avenida Constitución, 5",,platform,,bus_stop,,,,,,,,,,,,-1.1314902,37.990507
POINT (-1.141205 37.9932624),Renault,,platform,,bus_stop,,,,,,,,,,,,-1.141205,37.9932624
POINT (-1.131313 37.9905316),"Avenida Constitución, 8",,platform,,bus_stop,,,,,,,,,,,,-1.131313,37.9905316
POINT (-1.1418913 37.9937135),Escuela de Idiomas,,platform,,bus_stop,,,,,,,,,,,,-1.1418913,37.9937135
POINT (-1.1396422 37.9924911),"Ronda Norte, 21",,platform,,bus_stop,,,,,,,,,,,,-1.1396422,37.9924911
POINT (-1.1328716 37.9918795),Cárcel Vieja,,platform,,bus_stop,,,,,,,,,,,,-1.1328716,37.9918795
POINT (-1.1438184 37.9935966),Residencia San Basilio,,platform,,bus_stop,,,,,,,,,,,,-1.1438184,37.9935966
POINT (-1.1317479 37.9918936),Cárcel Vieja,,platform,,bus_stop,,,,,,,,,,,,-1.1317479,37.9918936
POINT (-1.1425658 37.9945162),Iglesia de San Basilio,,platform,,bus_stop,,,,,,,,,,,,-1.1425658,37.9945162
POINT (-1.1289107 37.997543),Residencia Issorm,,platform,,bus_stop,,,,,,,,,,,,-1.1289107,37.997543
POINT (-1.1293201 38.0075785),Plaza Bandera,,platform,,bus_stop,,,,,,,,,,,,-1.1293201,38.0075785
POINT (-1.1265611 37.9987605),Cruce Avenida Santiago,,platform,,bus_stop,,,,,,,,,,,,-1.1265611,37.9987605
POINT (-1.1414527 38.025172),Issorm,,platform,,bus_stop,,,,,,,,,,,,-1.1414527,38.025172
POINT (-1.1330521 37.9950487),Barnés,,platform,,bus_stop,,,,,,,,,,,,-1.1330521,37.9950487
POINT (-1.1292365 37.9972723),Residencia Issorm,,platform,,bus_stop,,,,,,,,,,,,-1.1292365,37.9972723
POINT (-1.1444702 38.0295118),Ikea,,platform,,bus_stop,,,,,,,,,,,,-1.1444702,38.0295118
POINT (-1.1280578 38.0017185),Cruce Príncipe de Asturias,,platform,,bus_stop,,,,,,,,,,,,-1.1280578,38.0017185
POINT (-1.1390971 38.0215505),Cuesta Piñero,,platform,,bus_stop,,,,,,,,,,,,-1.1390971,38.0215505
POINT (-1.1325827 37.9967398),Abenarabi,,platform,,bus_stop,,,,,,,,,,,,-1.1325827,37.9967398
POINT (-1.14432 38.0296724),Ikea,,platform,,bus_stop,,,,,,,,,,,,-1.14432,38.0296724
POINT (-1.1466106 38.0320303),Thader,,platform,,bus_stop,,,,,,,,,,,,-1.1466106,38.0320303
POINT (-1.1487193 38.0410396),Centro Comercial Nueva Condomina,,,,bus_stop,,,,,,,,,,,,-1.1487193,38.0410396
POINT (-1.128452 38.0015018),Cruce Príncipe de Asturias,,platform,,bus_stop,,,,,,,,,,,,-1.128452,38.0015018
POINT (-1.1270385 37.9986973),Cruce Avenida Santiago,,platform,,bus_stop,,,,,,,,,,,,-1.1270385,37.9986973
POINT (-1.1387062 38.0216434),Cuesta Piñero,,platform,,bus_stop,,,,,,,,,,,,-1.1387062,38.0216434
POINT (-1.13788 38.0204855),Mercadona,,platform,,bus_stop,,,,,,,,,,,,-1.13788,38.0204855
POINT (-1.1315691 37.99675),Abenarabi,,platform,,bus_stop,,,,,,,,,,,,-1.1315691,37.99675
POINT (-1.1417102 38.0251213),Issorm,,platform,,bus_stop,,,,,,,,,,,,-1.1417102,38.0251213
POINT (-1.1494845 38.0408836),Centro Comercial Nueva Condomina,,,,bus_stop,,,,,,,,,,,,-1.1494845,38.0408836
POINT (-1.1297924 38.0075536),Plaza Bandera,,platform,,bus_stop,,,,,,,,,,,,-1.1297924,38.0075536
POINT (-1.1467347 38.0325088),Thader,,platform,,bus_stop,,,,,,,,,,,,-1.1467347,38.0325088
POINT (-1.1358612 38.0181099),Cruce Rambla,,platform,,bus_stop,,,,,,,,,,,,-1.1358612,38.0181099
POINT (-1.1379551 38.0204433),Mercadona,,platform,,bus_stop,,,,,,,,,,,,-1.1379551,38.0204433
POINT (-1.1362922 38.0177935),Cruce Rambla,,platform,,bus_stop,,,,,,,,,,,,-1.1362922,38.0177935
POINT (-1.1333297 37.9948818),Barnés,,platform,,bus_stop,,,,,,,,,,,,-1.1333297,37.9948818
POINT (-1.1252915 37.9885985),Universidad,parking,,,,,,,,,,,,,,,-1.1252915,37.9885985
POINT (-1.1284828 37.9896243),,parking,,,,,,,,,,,,,,,-1.1284828,37.9896243
POINT (-1.1283107 37.9896375),Parking Centrofama,parking,,,,,,,,,,,,,,,-1.1283107,37.9896375
POINT (-1.1935189 37.9355015),Casillas,,platform,,bus_stop,,,,,,,,,,,,-1.1935189,37.9355015
POINT (-1.1890948 37.9355792),Desvío cárcel,,platform,,bus_stop,,,,,,,,,,,,-1.1890948,37.9355792
POINT (-1.2149458 37.9291976),"Carretera el Palmeral, 21",,platform,,bus_stop,,,,,,,,,,,,-1.2149458,37.9291976
POINT (-1.123868 37.9513389),Felipe,,platform,,bus_stop,,,,,,,,,,,,-1.123868,37.9513389
POINT (-1.1770711 37.9486511),Polígono Industrial Oeste,,platform,,bus_stop,,,,,,,,,,,,-1.1770711,37.9486511
POINT (-1.1806599 37.9485961),Polígono 2,,platform,,bus_stop,,,,,,,,,,,,-1.1806599,37.9485961
POINT (-1.1857722 37.9491799),Polígono 3,,platform,,bus_stop,,,,,,,,,,,,-1.1857722,37.9491799
POINT (-1.1771516 37.9483423),Polígono Industrial Oeste,,platform,,bus_stop,,,,,,,,,,,,-1.1771516,37.9483423
POINT (-1.1901955 37.9510174),Polígono 4,,platform,,bus_stop,,,,,,,,,,,,-1.1901955,37.9510174
POINT (-1.1755856 37.9559619),Zaragoza,,platform,,bus_stop,,,,,,,,,,,,-1.1755856,37.9559619
POINT (-1.1753767 37.9535553),La Paca,,platform,,bus_stop,,,,,,,,,,,,-1.1753767,37.9535553
POINT (-1.1759721 37.9574044),Iglesia,,platform,,bus_stop,,,,,,,,,,,,-1.1759721,37.9574044
POINT (-1.1755224 37.95507),Los dúplex,,platform,,bus_stop,,,,,,,,,,,,-1.1755224,37.95507
POINT (-1.1766212 37.9585972),La Tomasa,,platform,,bus_stop,,,,,,,,,,,,-1.1766212,37.9585972
POINT (-1.1804353 37.9580516),Zaranda,,platform,,bus_stop,,,,,,,,,,,,-1.1804353,37.9580516
POINT (-1.1845498 37.9617059),Abrevador,,platform,,bus_stop,,,,,,,,,,,,-1.1845498,37.9617059
POINT (-1.1828439 37.9601537),Curandero,,platform,,bus_stop,,,,,,,,,,,,-1.1828439,37.9601537
POINT (-1.1810844 37.9635837),Orenes,,platform,,bus_stop,,,,,,,,,,,,-1.1810844,37.9635837
POINT (-1.1825274 37.9626194),El Mosquito,,platform,,bus_stop,,,,,,,,,,,,-1.1825274,37.9626194
POINT (-1.1772925 37.9655145),Tres Puentes,,platform,,bus_stop,,,,,,,,,,,,-1.1772925,37.9655145
POINT (-1.1728614 37.9672598),El Parra,,platform,,bus_stop,,,,,,,,,,,,-1.1728614,37.9672598
POINT (-1.1676879 37.9644632),El Rullo,,platform,,bus_stop,,,,,,,,,,,,-1.1676879,37.9644632
POINT (-1.1680333 37.9658468),Casino,,platform,,bus_stop,,,,,,,,,,,,-1.1680333,37.9658468
POINT (-1.1686435 37.9678363),Era Alta,,platform,,bus_stop,,,,,,,,,,,,-1.1686435,37.9678363
POINT (-1.1691062 37.9627933),La Torre,,platform,,bus_stop,,,,,,,,,,,,-1.1691062,37.9627933
POINT (-1.1719222 37.9614143),Venta Las Ranas,,platform,,bus_stop,,,,,,,,,,,,-1.1719222,37.9614143
POINT (-1.1738963 37.9610677),Los Basilios,,platform,,bus_stop,,,,,,,,,,,,-1.1738963,37.9610677
POINT (-1.1751019 37.9601805),Molino del Rey,,platform,,bus_stop,,,,,,,,,,,,-1.1751019,37.9601805
POINT (-1.1651901 37.9647979),Los Tordillos,,platform,,bus_stop,,,,,,,,,,,,-1.1651901,37.9647979
POINT (-1.1636881 37.9650517),Chaparro,,platform,,bus_stop,,,,,,,,,,,,-1.1636881,37.9650517
POINT (-1.16033 37.9666419),Las Casicas,,platform,,bus_stop,,,,,,,,,,,,-1.16033,37.9666419
POINT (-1.1621002 37.9660075),Rurru,,platform,,bus_stop,,,,,,,,,,,,-1.1621002,37.9660075
POINT (-1.1580233 37.9676992),Pedriñanes,,platform,,bus_stop,,,,,,,,,,,,-1.1580233,37.9676992
POINT (-1.1512963 37.9696953),La Barraca,,platform,,bus_stop,,,,,,,,,,,,-1.1512963,37.9696953
POINT (-1.1488343 37.9713744),Casas Nuevas,,platform,,bus_stop,,,,,,,,,,,,-1.1488343,37.9713744
POINT (-1.1552552 37.9679275),Estanco,,platform,,bus_stop,,,,,,,,,,,,-1.1552552,37.9679275
POINT (-1.1439655 37.9753313),Chirrete,,platform,,bus_stop,,,,,,,,,,,,-1.1439655,37.9753313
POINT (-1.1442904 37.9748629),Panasa,,platform,,bus_stop,,,,,,,,,,,,-1.1442904,37.9748629
POINT (-1.1456637 37.9749897),Farmacia,,platform,,bus_stop,,,,,,,,,,,,-1.1456637,37.9749897
POINT (-1.1544522 37.9741307),Camino de Funes,,platform,,bus_stop,,,,,,,,,,,,-1.1544522,37.9741307
POINT (-1.1482829 37.9747511),Casas del Parra,,platform,,bus_stop,,,,,,,,,,,,-1.1482829,37.9747511
POINT (-1.1609975 37.9736512),Jorge López,,platform,,bus_stop,,,,,,,,,,,,-1.1609975,37.9736512
POINT (-1.1642204 37.9731799),Camino Rincón de Seca,,platform,,bus_stop,,,,,,,,,,,,-1.1642204,37.9731799
POINT (-1.1681616 37.9727689),La Civila,,platform,,bus_stop,,,,,,,,,,,,-1.1681616,37.9727689
POINT (-1.1695675 37.9698517),Molinera,,platform,,bus_stop,,,,,,,,,,,,-1.1695675,37.9698517
POINT (-1.1716757 37.9722622),Media Legua,,platform,,bus_stop,,,,,,,,,,,,-1.1716757,37.9722622
POINT (-1.1421706 37.9753622),Iglesia,,platform,,bus_stop,,,,,,,,,,,,-1.1421706,37.9753622
POINT (-1.1402423 37.9756736),La Purísima,,platform,,bus_stop,,,,,,,,,,,,-1.1402423,37.9756736
POINT (-1.1381135 37.9757562),Bloques Manzanera,,platform,,bus_stop,,,,,,,,,,,,-1.1381135,37.9757562
POINT (-1.1543547 37.9816202),Triquilin,,platform,,bus_stop,,,,,,,,,,,,-1.1543547,37.9816202
POINT (-1.1533074 37.980744),Los cerezos,,platform,,bus_stop,,,,,,,,,,,,-1.1533074,37.980744
POINT (-1.1558835 37.9830919),Los Díaz,,platform,,bus_stop,,,,,,,,,,,,-1.1558835,37.9830919
POINT (-1.1431009 37.9818149),Cuatro Piedras,,platform,,bus_stop,,,,,,,,,,,,-1.1431009,37.9818149
POINT (-1.1544792 37.9837399),Los Pepines,,platform,,bus_stop,,,,,,,,,,,,-1.1544792,37.9837399
POINT (-1.1465318 37.9845523),Herrería,,platform,,bus_stop,,,,,,,,,,,,-1.1465318,37.9845523
POINT (-1.1479824 37.9854491),Meseguer,,platform,,bus_stop,,,,,,,,,,,,-1.1479824,37.9854491
POINT (-1.1507952 37.9845462),Carril de los Chornos,,platform,,bus_stop,,,,,,,,,,,,-1.1507952,37.9845462
POINT (-1.1526973 37.98398),Guillamones,,platform,,bus_stop,,,,,,,,,,,,-1.1526973,37.98398
POINT (-1.1469026 37.9827322),La Esparza,,platform,,bus_stop,,,,,,,,,,,,-1.1469026,37.9827322
POINT (-1.1484686 37.9816892),Juan Cerezo,,platform,,bus_stop,,,,,,,,,,,,-1.1484686,37.9816892
POINT (-1.1511206 37.9803628),Morales,,platform,,platform,,,,,,,,,,,,-1.1511206,37.9803628
POINT (-1.153022 37.9797483),La Cola,,platform,,bus_stop,,,,,,,,,,,,-1.153022,37.9797483
POINT (-1.1400515 37.9813389),Maristas,,platform,,bus_stop,,,,,,,,,,,,-1.1400515,37.9813389
POINT (-1.1365516 37.9819604),Conservatorio,,platform,,bus_stop,,,,,,,,,,,,-1.1365516,37.9819604
POINT (-1.1332877 37.9834983),Palacio Almudí,,platform,,bus_stop,,,,,,,,,,,,-1.1332877,37.9834983
POINT (-1.13667 37.9847921),San Antolín,,platform,,bus_stop,,,,,,,,,,,,-1.13667,37.9847921
POINT (-1.137911 37.9862304),Plaza San Agustín,,platform,,bus_stop,,,,,,,,,,,,-1.137911,37.9862304
POINT (-1.1390293 37.9891268),Jardín de la Seda,,platform,,bus_stop,,,,,,,,,,,,-1.1390293,37.9891268
POINT (-1.1408539 37.9914708),San Antón 24,,platform,,bus_stop,,,,,,,,,,,,-1.1408539,37.9914708
POINT (-1.1468364 37.9943464),Zaragoza,,platform,,bus_stop,,,,,,,,,,,,-1.1468364,37.9943464
POINT (-1.1437799 37.994221),General Paralea,,platform,,bus_stop,,,,,,,,,,,,-1.1437799,37.994221
POINT (-1.1596594 37.994984),Carril de los Uñas,,platform,,platform,,,,,,,,,,,,-1.1596594,37.994984
POINT (-1.1567242 37.9906338),Camino Hondo,,platform,,bus_stop,,,,,,,,,,,,-1.1567242,37.9906338
POINT (-1.1586175 37.9926654),"Camino de los Penchos, 88",,platform,,bus_stop,,,,,,,,,,,,-1.1586175,37.9926654
POINT (-1.1580117 37.9908875),"Camino de los Penchos, 53",,platform,,bus_stop,,,,,,,,,,,,-1.1580117,37.9908875
POINT (-1.1518563 37.9935678),Farmacia,,platform,,bus_stop,,,,,,,,,,,,-1.1518563,37.9935678
POINT (-1.1547394 37.9925617),Carril de los Tubos,,platform,,bus_stop,,,,,,,,,,,,-1.1547394,37.9925617
POINT (-1.1567065 37.9920549),Carril de los Tubos,,platform,,bus_stop,,,,,,,,,,,,-1.1567065,37.9920549
POINT (-1.1628714 37.9973114),"Camino de los Penchos, 177",,platform,,bus_stop,,,,,,,,,,,,-1.1628714,37.9973114
POINT (-1.1543424 37.994388),"Carril Torre Molina, 79",,platform,,bus_stop,,,,,,,,,,,,-1.1543424,37.994388
POINT (-1.1556192 37.9975924),"Carril Torre Molina, 128",,platform,,bus_stop,,,,,,,,,,,,-1.1556192,37.9975924
POINT (-1.1530335 37.9949037),"Carril Torre Molina, 63",,platform,,bus_stop,,,,,,,,,,,,-1.1530335,37.9949037
POINT (-1.16127 37.9986589),Senda de Granada,,platform,,bus_stop,,,,,,,,,,,,-1.16127,37.9986589
POINT (-1.1586855 37.9995904),Carril de los Pollos,,platform,,platform,,,,,,,,,,,,-1.1586855,37.9995904
POINT (-1.1574323 37.9973218),Carril Hondo,,platform,,bus_stop,,,,,,,,,,,,-1.1574323,37.9973218
POINT (-1.1339398 37.9834333),Verónicas,,platform,,bus_stop,,,,,,,,,,,,-1.1339398,37.9834333
POINT (-1.1017917 37.9630867),Carril de Los Garres 1,,platform,,bus_stop,,,,,,,,,,,,-1.1017917,37.9630867
POINT (-1.1045038 37.965806),Duplex,,platform,,bus_stop,,,,,,,,,,,,-1.1045038,37.965806
POINT (-1.1091475 37.970721),Senda de Los Garres,,platform,,bus_stop,,,,,,,,,,,,-1.1091475,37.970721
POINT (-1.1106629 37.9720297),La Vía,,platform,,bus_stop,,,,,,,,,,,,-1.1106629,37.9720297
POINT (-1.1067154 37.9677336),Centro Social Cordillera,,platform,,bus_stop,,,,,,,,,,,,-1.1067154,37.9677336
POINT (-1.1062896 37.9673024),Farmacia,,platform,,bus_stop,,,,,,,,,,,,-1.1062896,37.9673024
POINT (-1.125229 37.9771341),"Torre de Romo, 41",,platform,,bus_stop,,,,,,,,,,,,-1.125229,37.9771341
POINT (-1.1245353 37.9766094),Casas Baratas,,platform,,bus_stop,,,,,,,,,,,,-1.1245353,37.9766094
POINT (-1.1270033 37.9781019),"Torre de Romo, 25",,platform,,bus_stop,,,,,,,,,,,,-1.1270033,37.9781019
POINT (-1.1287869 37.9794105),"Torre de Romo, 5",,platform,,bus_stop,,,,,,,,,,,,-1.1287869,37.9794105
POINT (-1.129818 37.9807718),Jardín Floridablanca 3,,platform,,bus_stop,,,,,,,,,,,,-1.129818,37.9807718
POINT (-1.1273434 37.9803251),Princesa,,platform,,bus_stop,,,,,,,,,,,,-1.1273434,37.9803251
POINT (-1.123999 37.9818557),Palacio de Justicia,,platform,,bus_stop,,,,,,,,,,,,-1.123999,37.9818557
POINT (-1.1290455 37.9935936),Morales Meseguer,,platform,,bus_stop,,,,,,,,,,,,-1.1290455,37.9935936
POINT (-1.1305046 37.994287),Galileo,,platform,,bus_stop,,,,,,,,,,,,-1.1305046,37.994287
POINT (-1.1289704 37.9922873),"Ronda Levante, 5",,platform,,bus_stop,,,,,,,,,,,,-1.1289704,37.9922873
POINT (-1.1296088 37.995589),López Ambit,,platform,,bus_stop,,,,,,,,,,,,-1.1296088,37.995589
POINT (-1.1291831 37.9984666),La Palmera,,platform,,bus_stop,,,,,,,,,,,,-1.1291831,37.9984666
POINT (-1.1295658 37.997614),Caja de Ahorros,,platform,,bus_stop,,,,,,,,,,,,-1.1295658,37.997614
POINT (-1.1229045 38.0014314),Los Fermines,,platform,,bus_stop,,,,,,,,,,,,-1.1229045,38.0014314
POINT (-1.1263955 37.9999009),Carretera Pueblo Nuevo,,platform,,bus_stop,,,,,,,,,,,,-1.1263955,37.9999009
POINT (-1.1250147 38.0008754),El Cura,,platform,,bus_stop,,,,,,,,,,,,-1.1250147,38.0008754
POINT (-1.1302382 37.9828729),Glorieta,parking,,,,,,,,,,24/7,,,,,-1.1302382,37.9828729
POINT (-1.0880817 37.9635308),Muebles Marisol,,platform,,bus_stop,,,,,,,,,,,,-1.0880817,37.9635308
POINT (-1.0824334 37.9610111),,,platform,,bus_stop,,,,,,,,,,,,-1.0824334,37.9610111
POINT (-1.1452097 37.9407427),Centro de Salud,,platform,,bus_stop,,,,,,,,,,,,-1.1452097,37.9407427
POINT (-1.1450785 37.9408435),Centro de Salud,,platform,,bus_stop,,,,,,,,,,,,-1.1450785,37.9408435
POINT (-1.1443902 37.9423164),Peones Camineros,,platform,,bus_stop,,,,,,,,,,,,-1.1443902,37.9423164
POINT (-1.138874 37.9398299),La Fuente,,platform,,platform,,,,,,,,,,,,-1.138874,37.9398299
POINT (-1.1389708 37.9416369),La Iglesia,,platform,,bus_stop,,,,,,,,,,,,-1.1389708,37.9416369
POINT (-1.1430758 37.9387788),Vistabella,,platform,,bus_stop,,,,,,,,,,,,-1.1430758,37.9387788
POINT (-1.1390871 37.9417469),La Iglesia,,platform,,bus_stop,,,,,,,,,,,,-1.1390871,37.9417469
POINT (-1.219081 37.9287483),,parking,,,,,,,,,,,,,,,-1.219081,37.9287483
POINT (-1.1666908 38.0185054),Servicios de investigación,,stop_position,tram_stop,,,,,,,,,,,,,-1.1666908,38.0185054
POINT (-1.1474925 37.9415393),,parking,,,,,,,,,,,,,,,-1.1474925,37.9415393
POINT (-1.1820008 37.9941286),,parking,,,,,,,,,,,,,,,-1.1820008,37.9941286
POINT (-1.1638238 37.9349657),Avenida de las Palmeras,,platform,,bus_stop,,,,,,,,,,,,-1.1638238,37.9349657
POINT (-1.1257984 38.0219048),,parking_space,,,,,,,,,,,,,,,-1.1257984,38.0219048
POINT (-1.1243971 38.0224705),,parking_space,,,,,,,,,,,,,,,-1.1243971,38.0224705
POINT (-1.116563 37.9920825),Hotel Azarbe,,,,,4,yes,,,,92,,,,,,-1.116563,37.9920825
POINT (-1.1309767 37.9886405),,parking,,,,,,,,,,,,,,,-1.1309767,37.9886405
POINT (-1.1302577 37.9890336),,parking,,,,,,,,,,,,,,,-1.1302577,37.9890336
POINT (-1.1199032 37.9628594),Iglesia,,platform,,bus_stop,,,,,,,,,,,,-1.1199032,37.9628594
POINT (-1.1317815 37.9759573),Pensión Campoy,,,,,1,wlan,,,,,,,Calle Diego Hernández,32,30002,-1.1317815,37.9759573
POINT (-1.1295769 37.9840872),Cervecería La Carmen,restaurant,,,,,yes,,,,,,yes,,,,-1.1295769,37.9840872
POINT (-1.1260328 37.9821635),Plaza Cruz Roja,,platform,,bus_stop,,,,,,,,,,,,-1.1260328,37.9821635
POINT (-1.0082244 38.0485939),Puente Beniel,,platform,,bus_stop,,,,,,,,,,,,-1.0082244,38.0485939
POINT (-1.1221894 37.979118),Chaké,bar,,,,,wlan,,,,,,,Calle de Ramón del Valle-Inclán,,,-1.1221894,37.979118
POINT (-1.0827002 37.9697192),El Pina,,platform,,bus_stop,,,,,,,,,,,,-1.0827002,37.9697192
POINT (-1.0829948 37.9696106),El Pina,,platform,,bus_stop,,,,,,,,,,,,-1.0829948,37.9696106
POINT (-1.0780156 37.9715439),Alonso,,platform,,bus_stop,,,,,,,,,,,,-1.0780156,37.9715439
POINT (-1.0756377 37.9724347),Almacén,,platform,,bus_stop,,,,,,,,,,,,-1.0756377,37.9724347
POINT (-1.0736625 37.9733676),Hogar del Pensionista,,platform,,bus_stop,,,,,,,,,,,,-1.0736625,37.9733676
POINT (-1.0737349 37.9734709),Hogar del Pensionista,,platform,,bus_stop,,,,,,,,,,,,-1.0737349,37.9734709
POINT (-1.0782311 37.9715559),Alonso,,platform,,bus_stop,,,,,,,,,,,,-1.0782311,37.9715559
POINT (-1.075807 37.9724852),Almacén,,platform,,bus_stop,,,,,,,,,,,,-1.075807,37.9724852
POINT (-1.0812551 37.9707345),Casino,,platform,,bus_stop,,,,,,,,,,,,-1.0812551,37.9707345
POINT (-1.0804449 37.9708183),Farmacia,,platform,,bus_stop,,,,,,,,,,,,-1.0804449,37.9708183
POINT (-1.0690371 37.9740289),Instituto,,platform,,bus_stop,,,,,,,,,,,,-1.0690371,37.9740289
POINT (-1.0698176 37.9749061),La Balsa,,platform,,bus_stop,,,,,,,,,,,,-1.0698176,37.9749061
POINT (-1.0701207 37.9751241),La Balsa,,platform,,bus_stop,,,,,,,,,,,,-1.0701207,37.9751241
POINT (-1.0715946 37.9756589),Casino,,platform,,bus_stop,,,,,,,,,,,,-1.0715946,37.9756589
POINT (-1.0707283 37.973386),San Francisco,,platform,,bus_stop,,,,,,,,,,,,-1.0707283,37.973386
POINT (-1.1172198 37.9918163),,parking,,,,,,,,,,,,,,,-1.1172198,37.9918163
POINT (-1.1295241 37.9907967),Alfonso X,parking,,,,,,,,,,,,,,,-1.1295241,37.9907967
POINT (-1.0706931 38.0057731),Javielo,,platform,,bus_stop,,,,,,,,,,,,-1.0706931,38.0057731
POINT (-1.0706287 38.0057139),Javielo,,platform,,bus_stop,,,,,,,,,,,,-1.0706287,38.0057139
POINT (-1.0726243 38.0049131),Autos Zambudio,,platform,,bus_stop,,,,,,,,,,,,-1.0726243,38.0049131
POINT (-1.0725438 38.004837),Autos Zambudio,,platform,,bus_stop,,,,,,,,,,,,-1.0725438,38.004837
POINT (-1.069006 38.006403),Vereda de los Zapatas,,platform,,bus_stop,,,,,,,,,,,,-1.069006,38.006403
POINT (-1.068971 38.0063184),Vereda de los Zapatas,,platform,,bus_stop,,,,,,,,,,,,-1.068971,38.0063184
POINT (-1.0329792 38.0129127),El Cura,,platform,,bus_stop,,,,,,,,,,,,-1.0329792,38.0129127
POINT (-1.0329448 38.0129926),El Cura,,platform,,bus_stop,,,,,,,,,,,,-1.0329448,38.0129926
POINT (-1.0366933 38.0158833),La Plaza,,platform,,bus_stop,,,,,,,,,,,,-1.0366933,38.0158833
POINT (-1.0353905 38.0141351),Alquerias,,platform,,bus_stop,,,,,,,,,,,,-1.0353905,38.0141351
POINT (-1.0369033 38.0157919),La Plaza,,platform,,bus_stop,,,,,,,,,,,,-1.0369033,38.0157919
POINT (-1.1725814 37.9725778),Media Legua,,platform,,bus_stop,,,,,,,,,,,,-1.1725814,37.9725778
POINT (-1.135481 37.9794095),Cuartel de Artillería,parking,,,,,,,,,,,,,,,-1.135481,37.9794095
POINT (-1.1295072 38.0076983),Santiago y Zaraiche,,stop_position,tram_stop,,,,,Tranvía de Murcia,,,,,,,,-1.1295072,38.0076983
POINT (-1.1296259 38.0076893),Santiago y Zaraiche,,stop_position,tram_stop,,,,,Tranvía de Murcia,,,,,,,,-1.1296259,38.0076893
POINT (-1.1524371 38.0129416),Cruce del Puntal,,platform,,bus_stop,,,,,,,,,,,,-1.1524371,38.0129416
POINT (-1.1522408 38.0126183),Cruce del Puntal,,platform,,bus_stop,,,,,,,,,,,,-1.1522408,38.0126183
POINT (-1.1461025 38.007559),Nuevos Juzgados,,platform,,bus_stop,,,,,,,,,,,,-1.1461025,38.007559
POINT (-1.1439702 38.0060848),Cajamurcia,,platform,,bus_stop,,,,,,,,,,,,-1.1439702,38.0060848
POINT (-1.1437006 38.0051909),Senda de Granada,,platform,,bus_stop,,,,,,,,,,,,-1.1437006,38.0051909
POINT (-1.1423662 38.0044892),Senda de Granada,,platform,,bus_stop,,,,,,,,,,,,-1.1423662,38.0044892
POINT (-1.141697 38.0031778),Torre Jemeca,,platform,,bus_stop,,,,,,,,,,,,-1.141697,38.0031778
POINT (-1.1403278 38.0024507),"Carrefour Zaraiche, Juan Carlos I",,platform,,bus_stop,,,,,,,,,,,,-1.1403278,38.0024507
POINT (-1.1402459 38.0017342),"Carrefour Zaraiche, Juan Carlos I",,platform,,bus_stop,,,,,,,,,,,,-1.1402459,38.0017342
POINT (-1.1386742 38.0008064),"Juan Carlos I, nº 42",,platform,,bus_stop,,,,,,,,,,,,-1.1386742,38.0008064
POINT (-1.136869 37.9989485),Biblioteca - Pabellón,,platform,,bus_stop,,,,,,,,,,,,-1.136869,37.9989485
POINT (-1.1363487 37.9979213),Biblioteca - Pabellón,,platform,,bus_stop,,,,,,,,,,,,-1.1363487,37.9979213
POINT (-1.1436765 38.0002621),"Carrefour Zaraiche, Miguel de Cervantes",,platform,,bus_stop,,,,,,,,,,,,-1.1436765,38.0002621
POINT (-1.143584 38.0005316),"Carrefour Zaraiche, Miguel de Cervantes",,platform,,bus_stop,,,,,,,,,,,,-1.143584,38.0005316
POINT (-1.1427954 37.9972755),La Ica,,platform,,bus_stop,,,,,,,,,,,,-1.1427954,37.9972755
POINT (-1.1429778 37.9973178),La Ica,,platform,,bus_stop,,,,,,,,,,,,-1.1429778,37.9973178
POINT (-1.1435585 37.993214),San Basilio,,platform,,bus_stop,,,,,,,,,,,,-1.1435585,37.993214
POINT (-1.1461468 37.9924192),García Lorca II,,platform,,bus_stop,,,,,,,,,,,,-1.1461468,37.9924192
POINT (-1.1469246 37.9943239),Zaragoza,,platform,,bus_stop,,,,,,,,,,,,-1.1469246,37.9943239
POINT (-1.1475241 37.9957864),García Lorca I,,platform,,bus_stop,,,,,,,,,,,,-1.1475241,37.9957864
POINT (-1.1474034 37.9980058),Duques de Lugo II,,platform,,bus_stop,,,,,,,,,,,,-1.1474034,37.9980058
POINT (-1.1474973 37.999348),Duques de Lugo I,,platform,,bus_stop,,,,,,,,,,,,-1.1474973,37.999348
POINT (-1.1479989 37.9997179),Duques de Lugo I,,platform,,bus_stop,,,,,,,,,,,,-1.1479989,37.9997179
POINT (-1.1459228 38.0017533),Ranero,,platform,,bus_stop,,,,,,,,,,,,-1.1459228,38.0017533
POINT (-1.1463453 38.0017501),Avenida Real Academia de Medicina,,platform,,bus_stop,,,,,,,,,,,,-1.1463453,38.0017501
POINT (-1.1473705 38.0038092),Peñalver,,platform,,bus_stop,,,,,,,,,,,,-1.1473705,38.0038092
POINT (-1.1473296 38.0040106),Peñalver,,platform,,bus_stop,,,,,,,,,,,,-1.1473296,38.0040106
POINT (-1.1498187 38.0063311),Colegio San José,,platform,,bus_stop,,,,,,,,,,,,-1.1498187,38.0063311
POINT (-1.1497517 38.0064294),Colegio San José,,platform,,bus_stop,,,,,,,,,,,,-1.1497517,38.0064294
POINT (-1.1540245 38.0106233),Cajamurcia,,platform,,bus_stop,,,,,,,,,,,,-1.1540245,38.0106233
POINT (-1.1539413 38.010711),Cajamurcia,,platform,,bus_stop,,,,,,,,,,,,-1.1539413,38.010711
POINT (-1.1542659 38.0102123),La Cruz,,platform,,bus_stop,,,,,,,,,,,,-1.1542659,38.0102123
POINT (-1.1556888 38.0107544),Plaza de Abastos,,platform,,bus_stop,,,,,,,,,,,,-1.1556888,38.0107544
POINT (-1.1556619 38.0122537),Antiguo Cuartel,,platform,,bus_stop,,,,,,,,,,,,-1.1556619,38.0122537
POINT (-1.1561588 38.0130109),Antiguo Cuartel,,platform,,bus_stop,,,,,,,,,,,,-1.1561588,38.0130109
POINT (-1.1573437 38.0123752),Calle Velázquez,,platform,,bus_stop,,,,,,,,,,,,-1.1573437,38.0123752
POINT (-1.1578453 38.012613),Calle Mahón,,platform,,bus_stop,,,,,,,,,,,,-1.1578453,38.012613
POINT (-1.1607286 38.015358),Los Rectores,,platform,,bus_stop,,,,,,,,,,,,-1.1607286,38.015358
POINT (-1.1608896 38.0152957),Los Rectores,,platform,,bus_stop,,,,,,,,,,,,-1.1608896,38.0152957
POINT (-1.1603625 38.0191373),Cementerio N-301,,platform,,bus_stop,,,,,,,,,,,,-1.1603625,38.0191373
POINT (-1.1636925 38.0199699),Petropay,,platform,,bus_stop,,,,,,,,,,,,-1.1636925,38.0199699
POINT (-1.1645517 38.0191994),C.C. Myrtea,,platform,,bus_stop,,,,,,,,,,,,-1.1645517,38.0191994
POINT (-1.1674771 38.0158145),Monte Romero,,platform,,bus_stop,,,,,,,,,,,,-1.1674771,38.0158145
POINT (-1.1670318 38.0167009),Monte Romero,,platform,,bus_stop,,,,,,,,,,,,-1.1670318,38.0167009
POINT (-1.1669728 38.0178357),Aulario General,,platform,,bus_stop,,,,,,,,,,,,-1.1669728,38.0178357
POINT (-1.1680886 38.0249205),Complejo,,platform,,bus_stop,,,,,,,,,,,,-1.1680886,38.0249205
POINT (-1.1682147 38.0249913),Complejo,,platform,,bus_stop,,,,,,,,,,,,-1.1682147,38.0249913
POINT (-1.1687766 38.0235662),Medicina I,,platform,,bus_stop,,,,,,,,,,,,-1.1687766,38.0235662
POINT (-1.1699004 38.0239053),Lateral Medicina,,platform,,bus_stop,,,,,,,,,,,,-1.1699004,38.0239053
POINT (-1.1717096 38.0233644),Aulario Norte,,platform,,bus_stop,,,,,,,,,,,,-1.1717096,38.0233644
POINT (-1.1715876 38.0235831),Aulario Norte,,platform,,bus_stop,,,,,,,,,,,,-1.1715876,38.0235831
POINT (-1.1736408 38.0240764),Facultad de Bellas Artes,,platform,,bus_stop,,,,,,,,,,,,-1.1736408,38.0240764
POINT (-1.1741606 38.024478),Facultad de Bellas Artes,,platform,,bus_stop,,,,,,,,,,,,-1.1741606,38.024478
POINT (-1.171316 38.0216257),Vial Norte,,platform,,bus_stop,,,,,,,,,,,,-1.171316,38.0216257
POINT (-1.1712523 38.0218166),Vial Norte,,platform,,bus_stop,,,,,,,,,,,,-1.1712523,38.0218166
POINT (-1.1711946 38.0207549),Informática,,platform,,bus_stop,,,,,,,,,,,,-1.1711946,38.0207549
POINT (-1.1717659 38.0200301),Biológicas,,platform,,bus_stop,,,,,,,,,,,,-1.1717659,38.0200301
POINT (-1.1716479 38.019674),Veterinaria,,platform,,bus_stop,,,,,,,,,,,,-1.1716479,38.019674
POINT (-1.1723186 38.0173075),,,platform,,bus_stop,,,,,,,,,,,,-1.1723186,38.0173075
POINT (-1.1726242 38.017542),Psicología,,platform,,bus_stop,,,,,,,,,,,,-1.1726242,38.017542
POINT (-1.1731429 38.0165835),Luis Vives,,platform,,bus_stop,,,,,,,,,,,,-1.1731429,38.0165835
POINT (-1.1739439 38.0158134),Apartamentos Campus,,platform,,bus_stop,,,,,,,,,,,,-1.1739439,38.0158134
POINT (-1.1731734 38.0134519),Educación,,platform,,bus_stop,,,,,,,,,,,,-1.1731734,38.0134519
POINT (-1.1728884 38.0128919),Educación,,platform,,bus_stop,,,,,,,,,,,,-1.1728884,38.0128919
POINT (-1.1697878 38.0127609),Agridulce,,platform,,bus_stop,,,,,,,,,,,,-1.1697878,38.0127609
POINT (-1.1694632 38.0125327),Agridulce,,platform,,bus_stop,,,,,,,,,,,,-1.1694632,38.0125327
POINT (-1.1586674 38.0213285),Puerta del Cementerio,,platform,,bus_stop,,,,,,,,,,,,-1.1586674,38.0213285
POINT (-1.1238321 37.9816782),Palacio de Justicia,,platform,,bus_stop,,,,,,,,,,,,-1.1238321,37.9816782
POINT (-1.1217838 37.9806914),Avenida Infante Juan Manuel II,,platform,,bus_stop,,,,,,,,,,,,-1.1217838,37.9806914
POINT (-1.1254281 37.980492),Avenida Infante Juan Manuel I,,platform,,bus_stop,,,,,,,,,,,,-1.1254281,37.980492
POINT (-1.129593 37.9769152),Muebles La Fábrica,,platform,,bus_stop,,,,,,,,,,,,-1.129593,37.9769152
POINT (-1.1534679 37.9423995),Riacho,,platform,,bus_stop,,,,,,,,,,,,-1.1534679,37.9423995
POINT (-1.1505818 37.94272),Riacho,,platform,,bus_stop,,,,,,,,,,,,-1.1505818,37.94272
POINT (-1.1655083 37.9281603),Barrio de La Paloma,,platform,,bus_stop,,,,,,,,,,,,-1.1655083,37.9281603
POINT (-1.1657766 37.9281413),Barrio de La Paloma,,platform,,bus_stop,,,,,,,,,,,,-1.1657766,37.9281413
POINT (-1.1683501 37.9288267),"Camino de La Balsa, 39",,platform,,bus_stop,,,,,,,,,,,,-1.1683501,37.9288267
POINT (-1.1683796 37.9288955),Camino de La Balsa,,platform,,bus_stop,,,,,,,,,,,,-1.1683796,37.9288955
POINT (-1.1655593 37.9299597),"Camino de La Balsa, 3",,platform,,bus_stop,,,,,,,,,,,,-1.1655593,37.9299597
POINT (-1.1655975 37.9300125),"Camino de La Balsa, 2",,platform,,bus_stop,,,,,,,,,,,,-1.1655975,37.9300125
POINT (-1.1187132 37.977155),Miriamar,cafe,,,,,no,,,,,Mo-Su 08:00-23:00,,,,,-1.1187132,37.977155
POINT (-1.1186964 37.9772401),Cafe Bar Thisis,cafe,,,,,no,,,,,,,,,,-1.1186964,37.9772401
POINT (-1.1172485 37.9777753),Vicente Alexandre,,platform,,bus_stop,,,,,,,,,,,,-1.1172485,37.9777753
POINT (-1.1175804 37.9785605),"Vicente Aleixandre, 4",,platform,,bus_stop,,,,,,,,,,,,-1.1175804,37.9785605
POINT (-1.1134099 37.9774562),Ciudad de la Justicia,,platform,,bus_stop,,,,,,,,,,,,-1.1134099,37.9774562
POINT (-1.1133311 37.9766251),,parking,,,,,,,,,,,,,,,-1.1133311,37.9766251
POINT (-1.1125197 37.9773636),,parking,,,,,,,,,,,,,,,-1.1125197,37.9773636
POINT (-1.1108745 37.9771048),,parking,,,,,,,,,,,,,,,-1.1108745,37.9771048
POINT (-1.1106576 37.9777006),,parking,,,,,,,,,,,,,,,-1.1106576,37.9777006
POINT (-1.1138481 37.9791737),Esquina Ciudad de la Justicia,,platform,,bus_stop,,,,,,,,,,,,-1.1138481,37.9791737
POINT (-1.117438 37.9756424),Esquina Centro Social Infante,,platform,,bus_stop,,,,,,,,,,,,-1.117438,37.9756424
POINT (-1.1172319 37.9754765),Esquina Centro Social Infante,,platform,,bus_stop,,,,,,,,,,,,-1.1172319,37.9754765
POINT (-1.1194971 37.9756377),Centro Salud Infante,,platform,,bus_stop,,,,,,,,,,,,-1.1194971,37.9756377
POINT (-1.1194473 37.9754482),Centro Salud Infante,,platform,,bus_stop,,,,,,,,,,,,-1.1194473,37.9754482
POINT (-1.1229494 37.9755323),Pintor Almela Costa,,platform,,bus_stop,,,,,,,,yes,,,,-1.1229494,37.9755323
POINT (-1.1229328 37.9754471),Pintor Almela Costa,,platform,,bus_stop,,,,,,,,,,,,-1.1229328,37.9754471
POINT (-1.1207633 37.9762177),Pío Baroja,,platform,,bus_stop,,,,,,,,,,,,-1.1207633,37.9762177
POINT (-1.1209226 37.9761154),Pabellón Infante,,platform,,bus_stop,,,,,,,,,,,,-1.1209226,37.9761154
POINT (-1.1198336 37.9767038),Hospital San Carlos - Monte Carmelo,,platform,,bus_stop,,,,,,,,,,,,-1.1198336,37.9767038
POINT (-1.1193387 37.9767193),Monte Carmelo,,platform,,bus_stop,,,,,,,,,,,,-1.1193387,37.9767193
POINT (-1.1150911 37.9791617),Alberto Sevilla Centro Educacion,,platform,,bus_stop,,,,,,,,,,,,-1.1150911,37.9791617
POINT (-1.1147089 37.9790961),Alberto Sevilla Centro Educación,,platform,,bus_stop,,,,,,,,,,,,-1.1147089,37.9790961
POINT (-1.1141997 37.9812894),Eroski Infante,,platform,,bus_stop,,,,,,,,,,,,-1.1141997,37.9812894
POINT (-1.1290164 37.9920245),"Ronda de Levante, 6",,platform,,bus_stop,,,,,,,,yes,,,,-1.1290164,37.9920245
POINT (-1.1264837 37.9917983),Plaza Juan XXIII,,platform,,bus_stop,,,,,,,,,,,,-1.1264837,37.9917983
POINT (-1.1240703 37.9913544),Ronda de Levante - Bloques de Ayuso,,platform,,bus_stop,,,,,,,,,,,,-1.1240703,37.9913544
POINT (-1.1208863 37.9905661),Gasolinera Atalayas,,platform,,bus_stop,,,,,,,,,,,,-1.1208863,37.9905661
POINT (-1.1181849 37.9899612),"Avenida Primero de Mayo, 6",,platform,,bus_stop,,,,,,,,,,,,-1.1181849,37.9899612
POINT (-1.1161313 37.9885347),Avenida Primero de Mayo Bloque 12,,platform,,bus_stop,,,,,,,,,,,,-1.1161313,37.9885347
POINT (-1.1156634 37.986388),Avenida Primero de Mayo Bloque 15,,platform,,bus_stop,,,,,,,,,,,,-1.1156634,37.986388
POINT (-1.1147621 37.9837523),Auditorio Víctor Villegas,,platform,,bus_stop,,,,,,,,,,,,-1.1147621,37.9837523
POINT (-1.1143368 37.9834997),Auditorio Víctor Villegas,,platform,,bus_stop,,,,,,,,yes,,,,-1.1143368,37.9834997
POINT (-1.1254918 37.9755222),"Pintor Pedro Flores, 15",,platform,,bus_stop,,,,,,,,,,,,-1.1254918,37.9755222
POINT (-1.1389959 37.9892354),Jardín de la Seda,,platform,,bus_stop,,,,,,,,,,,,-1.1389959,37.9892354
POINT (-1.0627668 37.9666984),El Bojar,,platform,,bus_stop,,,,,,,,,,,,-1.0627668,37.9666984
POINT (-1.0647995 37.9680717),El Pino,,platform,,bus_stop,,,,,,,,,,,,-1.0647995,37.9680717
POINT (-1.0667965 37.9690547),Quiosco,,platform,,bus_stop,,,,,,,,,,,,-1.0667965,37.9690547
POINT (-1.0692724 37.9712642),Cementerio,,platform,,bus_stop,,,,,,,,,,,,-1.0692724,37.9712642
POINT (-1.0677855 37.9729433),Monte-Azahar,,platform,,bus_stop,,,,,,,,,,,,-1.0677855,37.9729433
POINT (-1.0684261 37.9740942),Instituto,,platform,,bus_stop,,,,,,,,,,,,-1.0684261,37.9740942
POINT (-1.071696 37.9732398),La Tana,,platform,,bus_stop,,,,,,,,,,,,-1.071696,37.9732398
POINT (-1.0794955 37.9716623),Las Casillas,,platform,,bus_stop,,,,,,,,,,,,-1.0794955,37.9716623
POINT (-1.0849068 37.9779654),Reguerón,,platform,,bus_stop,,,,,,,,,,,,-1.0849068,37.9779654
POINT (-1.0835486 37.974721),Los Tonos,,platform,,bus_stop,,,,,,,,,,,,-1.0835486,37.974721
POINT (-1.0812007 37.9714619),La Ceña,,platform,,bus_stop,,,,,,,,,,,,-1.0812007,37.9714619
POINT (-1.0861229 37.9798189),El Papeles,,platform,,bus_stop,,,,,,,,,,,,-1.0861229,37.9798189
POINT (-1.0882248 37.9789186),Los Remolinos,,platform,,bus_stop,,,,,,,,,,,,-1.0882248,37.9789186
POINT (-1.0904178 37.976619),El Cojo Canales,,platform,,bus_stop,,,,,,,,,,,,-1.0904178,37.976619
POINT (-1.0933475 37.9746879),El Chuti,,platform,,bus_stop,,,,,,,,,,,,-1.0933475,37.9746879
POINT (-1.0966913 37.9726509),Arnaus,,platform,,bus_stop,,,,,,,,,,,,-1.0966913,37.9726509
POINT (-1.0996428 37.9721331),El Horno,,platform,,bus_stop,,,,,,,,,,,,-1.0996428,37.9721331
POINT (-1.101 37.9734293),Placido,,platform,,bus_stop,,,,,,,,,,,,-1.101,37.9734293
POINT (-1.1031286 37.9761758),El Pollo,,platform,,bus_stop,,,,,,,,,,,,-1.1031286,37.9761758
POINT (-1.1053418 37.9780454),Iglesia,,platform,,bus_stop,,,,,,,,,,,,-1.1053418,37.9780454
POINT (-1.1062337 37.979334),Pescaderia,,platform,,bus_stop,,,,,,,,,,,,-1.1062337,37.979334
POINT (-1.1129582 37.9822055),Carrefour Infante,,platform,,bus_stop,,,,,,,,,,,,-1.1129582,37.9822055
POINT (-1.1128458 37.9819569),Carrefour Infante,,platform,,bus_stop,,,,,,,,,,,,-1.1128458,37.9819569
POINT (-1.106318 37.9792941),Pescaderia,,platform,,bus_stop,,,,,,,,,,,,-1.106318,37.9792941
POINT (-1.1052516 37.9777552),Iglesia,,platform,,bus_stop,,,,,,,,,,,,-1.1052516,37.9777552
POINT (-1.1031124 37.9759556),El Pollo,,platform,,bus_stop,,,,,,,,,,,,-1.1031124,37.9759556
POINT (-1.1010451 37.9733207),Placido,,platform,,bus_stop,,,,,,,,,,,,-1.1010451,37.9733207
POINT (-1.0999056 37.9721677),El Horno,,platform,,bus_stop,,,,,,,,,,,,-1.0999056,37.9721677
POINT (-1.0966861 37.9725596),Arnaus,,platform,,bus_stop,,,,,,,,,,,,-1.0966861,37.9725596
POINT (-1.0932081 37.9747053),El Chuti,,platform,,bus_stop,,,,,,,,,,,,-1.0932081,37.9747053
POINT (-1.0903387 37.9765921),El Cojo Canales,,platform,,bus_stop,,,,,,,,,,,,-1.0903387,37.9765921
POINT (-1.088184 37.9789725),Los Remolinos,,platform,,bus_stop,,,,,,,,,,,,-1.088184,37.9789725
POINT (-1.0859936 37.9797908),El Papeles,,platform,,bus_stop,,,,,,,,,,,,-1.0859936,37.9797908
POINT (-1.0836761 37.9747249),Los Tonos,,platform,,bus_stop,,,,,,,,,,,,-1.0836761,37.9747249
POINT (-1.0810028 37.9710576),La Ceña,,platform,,bus_stop,,,,,,,,,,,,-1.0810028,37.9710576
POINT (-1.0792637 37.9716763),Las Casillas,,platform,,bus_stop,,,,,,,,,,,,-1.0792637,37.9716763
POINT (-1.0716392 37.9732969),La Tana,,platform,,bus_stop,,,,,,,,,,,,-1.0716392,37.9732969
POINT (-1.0703621 37.9736048),San Francisco,,platform,,bus_stop,,,,,,,,,,,,-1.0703621,37.9736048
POINT (-1.0679443 37.972885),Monte-Azahar,,platform,,bus_stop,,,,,,,,,,,,-1.0679443,37.972885
POINT (-1.0691664 37.9714318),Cementerio,,platform,,bus_stop,,,,,,,,,,,,-1.0691664,37.9714318
POINT (-1.0648823 37.9680097),El Pino,,platform,,bus_stop,,,,,,,,,,,,-1.0648823,37.9680097
POINT (-1.0844985 37.9675457),Carril Hondo,,platform,,bus_stop,,,,,,,,,,,,-1.0844985,37.9675457
POINT (-1.0843975 37.967476),Carril Hondo,,platform,,bus_stop,,,,,,,,,,,,-1.0843975,37.967476
POINT (-1.0861012 37.9656061),Yerbero,,platform,,bus_stop,,,,,,,,,,,,-1.0861012,37.9656061
POINT (-1.0866141 37.9653658),Yerbero,,platform,,bus_stop,,,,,,,,,,,,-1.0866141,37.9653658
POINT (-1.0879198 37.9634592),Muebles Marisol,,platform,,bus_stop,,,,,,,,,,,,-1.0879198,37.9634592
POINT (-1.0910537 37.9639826),El Rastro,,platform,,bus_stop,,,,,,,,,,,,-1.0910537,37.9639826
POINT (-1.0910362 37.9640809),El Rastro,,platform,,bus_stop,,,,,,,,,,,,-1.0910362,37.9640809
POINT (-1.0927367 37.9648279),Instituto S. Ochoa,,platform,,bus_stop,,,,,,,,,,,,-1.0927367,37.9648279
POINT (-1.0924016 37.9648131),Instituto S. Ochoa,,platform,,bus_stop,,,,,,,,,,,,-1.0924016,37.9648131
POINT (-1.0949579 37.9664147),El Puente,,platform,,bus_stop,,,,,,,,,,,,-1.0949579,37.9664147
POINT (-1.0949526 37.9665331),El Puente,,platform,,bus_stop,,,,,,,,,,,,-1.0949526,37.9665331
POINT (-1.0972051 37.9694232),Las Olivas,,platform,,bus_stop,,,,,,,,,,,,-1.0972051,37.9694232
POINT (-1.09728 37.9690803),Las Olivas,,platform,,bus_stop,,,,,,,,,,,,-1.09728,37.9690803
POINT (-1.066873 37.9689784),Quiosco,,platform,,bus_stop,,,,,,,,,,,,-1.066873,37.9689784
POINT (-1.127606 37.9696723),Cafetería Tuenty,cafe,,,,,no,,,,,,,Paseo de Florencia,7,30010,-1.127606,37.9696723
POINT (-1.1279349 37.9697767),Mesa del Castillo,,platform,,bus_stop,,,,,,,,yes,,,,-1.1279349,37.9697767
POINT (-1.1305007 37.9692045),Paseo Florencia II,,platform,,bus_stop,,,,,,,,,,,,-1.1305007,37.9692045
POINT (-1.1324522 37.9688183),Paseo Florencia I,,platform,,bus_stop,,,,,,,,,,,,-1.1324522,37.9688183
POINT (-1.134471 37.9704534),Carril de la Condesa II,,platform,,bus_stop,,,,,,,,,,,,-1.134471,37.9704534
POINT (-1.1254837 37.970292),P. Jose Marin Serna,,platform,,bus_stop,,,,,,,,yes,,,,-1.1254837,37.970292
POINT (-1.1231227 37.9742359),La Vía,,platform,,bus_stop,,,,,,,,yes,,,,-1.1231227,37.9742359
POINT (-1.1221484 37.9713275),"Santiago el Mayor, 50",,platform,,bus_stop,,,,,,,,,,,,-1.1221484,37.9713275
POINT (-1.122243 37.9717441),"Santiago el Mayor, 13",,platform,,bus_stop,,,,,,,,yes,,,,-1.122243,37.9717441
POINT (-1.1322496 37.9881964),Cortefiel,,platform,,bus_stop,,,,,,,,,,,,-1.1322496,37.9881964
POINT (-1.1299744 37.9916199),"Plaza Circular, 2",,platform,,bus_stop,,,,,,,,,,,,-1.1299744,37.9916199
POINT (-1.1287031 37.9897055),Centrofama,,platform,,bus_stop,,,,,,,,,,,,-1.1287031,37.9897055
POINT (-1.1272258 37.98925),Puerta Nueva,,platform,,bus_stop,,,,,,,,,,,,-1.1272258,37.98925
POINT (-1.1273787 37.9875245),La Merced,,platform,,bus_stop,,,,,,,,,,,,-1.1273787,37.9875245
POINT (-1.1215015 37.9805062),Pío Baroja (Párraga),,platform,,bus_stop,,,,,,,,,,,,-1.1215015,37.9805062
POINT (-1.1213037 37.980447),Pío Baroja (Párraga),,platform,,bus_stop,,,,,,,,,,,,-1.1213037,37.980447
POINT (-1.1211003 37.9785718),San Carlos Nº5,,platform,,bus_stop,,,,,,,,,,,,-1.1211003,37.9785718
POINT (-1.1208958 37.9785834),San Carlos Nº5,,platform,,bus_stop,,,,,,,,,,,,-1.1208958,37.9785834
POINT (-1.1326794 37.9721839),Polideportivo Santiago el Mayor,,platform,,bus_stop,,,,,,,,,,,,-1.1326794,37.9721839
POINT (-1.1346455 37.972607),Carril de la Condesa,,platform,,bus_stop,,,,,,,,,,,,-1.1346455,37.972607
POINT (-1.1283343 37.9713244),Cruce Ctra. Patiño,,platform,,bus_stop,,,,,,,,,,,,-1.1283343,37.9713244
POINT (-1.1279091 37.9713878),Cruce Ctra. Patiño,,platform,,bus_stop,,,,,,,,,,,,-1.1279091,37.9713878
POINT (-1.1247307 37.9709459),Calle Morera,,platform,,bus_stop,,,,,,,,,,,,-1.1247307,37.9709459
POINT (-1.1232464 37.9741674),La Vía,,platform,,bus_stop,,,,,,,,,,,,-1.1232464,37.9741674
POINT (-1.1262947 37.9819101),Plaza Cruz Roja,,platform,,bus_stop,,,,,,,,,,,,-1.1262947,37.9819101
POINT (-1.1319438 37.9844726),"Gran Vía, 5",,platform,,bus_stop,,,,,,,,,,,,-1.1319438,37.9844726
POINT (-1.1321947 37.9860704),Santa Isabel,,platform,,bus_stop,,,,,,,,,,,,-1.1321947,37.9860704
POINT (-1.0851426 37.9777689),Reguerón,,platform,,bus_stop,,,,,,,,,,,,-1.0851426,37.9777689
POINT (-1.1138319 37.9811154),Eroski,,platform,,bus_stop,,,,,,,,,,,,-1.1138319,37.9811154
POINT (-1.1341867 37.9913681),"Primo de Rivera, 19",,platform,,bus_stop,,,,,,,,,,,,-1.1341867,37.9913681
POINT (-1.1366093 37.9917565),"Ronda Norte, 4",,platform,,bus_stop,,,,Transportes de Murcia,,,,,,,,-1.1366093,37.9917565
POINT (-1.1367311 37.9915664),"Ronda Norte, 3",,platform,,bus_stop,,,,,,,,,,,,-1.1367311,37.9915664
POINT (-1.1410419 37.991404),"San Antón, 29",,platform,,bus_stop,,,,,,,,,,,,-1.1410419,37.991404
POINT (-1.1313101 37.9750475),Estación de Ferrocarril,,platform,,bus_stop,,,,,,,,,,,,-1.1313101,37.9750475
POINT (-1.1349486 37.9894563),Parking El Corte Inglés,parking,,,,,,,,,,,,,,,-1.1349486,37.9894563
POINT (-1.1350123 37.9895696),Parking El Corte Inglés,parking,,,,,,,,,,,,,,,-1.1350123,37.9895696
POINT (-1.1346912 37.9891739),Parking El Corte Inglés,parking,,,,,,,,,,,,,,,-1.1346912,37.9891739
POINT (-1.1347474 37.9892452),Parking El Corte Inglés,parking,,,,,,,,,,,,,,,-1.1347474,37.9892452
POINT (-1.1311417 37.9817458),Plaza Camachos,,platform,,bus_stop,,,,,,,,,,,,-1.1311417,37.9817458
POINT (-1.1326545 37.9943942),Juan Carlos I,,stop_position,tram_stop,,,,,TDM,,,,,,,,-1.1326545,37.9943942
POINT (-1.1289743 37.9921351),Plaza Circular,,stop_position,tram_stop,,,,,TDM,,,,yes,,,,-1.1289743,37.9921351
POINT (-1.1289689 37.9921913),Plaza Circular,,stop_position,tram_stop,,,,,TDM,,,,yes,,,,-1.1289689,37.9921913
POINT (-1.1265535 37.9920814),Plaza Juan XXIII,,platform,,bus_stop,,,,,,,,,,,,-1.1265535,37.9920814
POINT (-1.1246556 37.9917745),Bloques de Ayuso,,platform,,bus_stop,,,,,,,,,,,,-1.1246556,37.9917745
POINT (-1.1207874 37.9908604),Gasolinera Atalayas,,platform,,bus_stop,,,,,,,,yes,,,,-1.1207874,37.9908604
POINT (-1.1166562 37.9895513),Hotel Nelva,,platform,,bus_stop,,,,,,,,,,,,-1.1166562,37.9895513
POINT (-1.1153753 37.9865657),"Avenida Primero de Mayo, 13",,platform,,bus_stop,,,,,,,,yes,,,,-1.1153753,37.9865657
POINT (-1.1622696 38.0166291),Centro Comercial Myrtea,,platform,,bus_stop,,,,,,,,,,,,-1.1622696,38.0166291
POINT (-1.1620992 38.0163591),Centro Comercial Myrtea,,platform,,bus_stop,,,,,,,,,,,,-1.1620992,38.0163591
POINT (-1.1730146 38.0030317),Guadalupe,,stop_position,tram_stop,,,,,TDM,,,,,,,,-1.1730146,38.0030317
POINT (-1.18765 37.9980016),Parking C.C. La Noria,parking,,,,,,,,,,,,,,,-1.18765,37.9980016
POINT (-1.186586 37.9929603),UCAM - Los Jerónimos,,stop_position,tram_stop,,,,,TDM,,,,,,,,-1.186586,37.9929603
POINT (-1.1863075 37.9923235),UCAM,,platform,,bus_stop,,,,,,,,,,,,-1.1863075,37.9923235
POINT (-1.142468 38.0269448),Príncipe Felipe,,stop_position,tram_stop,,,,,TDM,,,,,,,,-1.142468,38.0269448
POINT (-1.1391445 38.0217455),Churra,,stop_position,tram_stop,,,,,TDM,,,,,,,,-1.1391445,38.0217455
POINT (-1.1458839 38.0315207),Infantas,,stop_position,tram_stop,,,,,TDM,,,,,,,,-1.1458839,38.0315207
POINT (-1.14373 38.0349067),La Ladera,,stop_position,tram_stop,,,,,TDM,,,,,,,,-1.14373,38.0349067
POINT (-1.1459299 38.0401014),Estadio Nueva Condomina,,,,bus_stop,,,,,,,,,,,,-1.1459299,38.0401014
POINT (-1.1463323 38.0403222),Estadio Nueva Condomina,,stop_position,tram_stop,,,,,TDM,,,,,,,,-1.1463323,38.0403222
POINT (-1.1463925 38.0402928),Estadio Nueva Condomina,,stop_position,tram_stop,,,,,TDM,,,,,,,,-1.1463925,38.0402928
POINT (-1.1801807 37.9727733),Jazmines,,platform,,bus_stop,,,,,,,,,,,,-1.1801807,37.9727733
POINT (-1.1848088 37.9728724),La Pollera,,platform,,bus_stop,,,,,,,,,,,,-1.1848088,37.9728724
POINT (-1.1344938 37.9907376),Parking Libertad,parking,,,,,,,,,,,,,,,-1.1344938,37.9907376
POINT (-1.0962814 38.0086955),Cascales,,platform,,bus_stop,,,,,,,,,,,,-1.0962814,38.0086955
POINT (-1.1282296 37.990597),Parking Centrofama,parking,,,,,,,,,,,,,,,-1.1282296,37.990597
POINT (-1.1953692 37.9899377),Cuatro Esquinas,,platform,,bus_stop,,,,,,,,,,,,-1.1953692,37.9899377
POINT (-1.1308577 37.9891265),,parking,,,,,,,,,,,,,,,-1.1308577,37.9891265
POINT (-1.1171275 37.9371159),Santuario de la Fuensanta,,platform,,bus_stop,,,,,,,,,,,,-1.1171275,37.9371159
POINT (-1.2644443 37.9416016),Gasolinera,,platform,,bus_stop,,,,,,,,,,,,-1.2644443,37.9416016
POINT (-1.1361307 37.9417646),Transformador,,platform,,bus_stop,,,,,,,,,,,,-1.1361307,37.9417646
POINT (-1.1354627 37.9416828),Transformador,,platform,,bus_stop,,,,,,,,,,,,-1.1354627,37.9416828
POINT (-1.1438287 37.9384685),Vistabella,,platform,,bus_stop,,,,,,,,yes,,,,-1.1438287,37.9384685
POINT (-1.1438642 37.9358208),Los Almendros,,platform,,bus_stop,,,,,,,,,,,,-1.1438642,37.9358208
POINT (-1.1246224 37.9939755),Marina Española,,stop_position,tram_stop,,,,,,,,,,,,,-1.1246224,37.9939755
POINT (-1.179017 37.9769075),Plaza de la Iglesia,parking,,,,,,,Público,,,,,,,,-1.179017,37.9769075
POINT (-1.1724816 37.9730918),Media Legua,,platform,,bus_stop,,,,TMP Murcia,,,,,,,,-1.1724816,37.9730918
POINT (-1.1748456 37.9746725),La Cochera,,platform,,bus_stop,,,,,,,,,,,,-1.1748456,37.9746725
POINT (-1.178025 37.9767269),Puente del Molino,,platform,,bus_stop,,,,Latbus,,,,,,,,-1.178025,37.9767269
POINT (-1.1791287 37.9773164),Plaza de la Inmaculada,,platform,,bus_stop,,,,,,,,,,,,-1.1791287,37.9773164
POINT (-1.1805057 37.9780809),Escuelas,,platform,,bus_stop,,,,,,,,,,,,-1.1805057,37.9780809
POINT (-1.1828364 37.9786255),Cementerio,,platform,,bus_stop,,,,,,,,,,,,-1.1828364,37.9786255
POINT (-1.1868649 37.9780571),Gaspare,,platform,,bus_stop,,,,,,,,,,,,-1.1868649,37.9780571
POINT (-1.188508 37.9781202),Los Pujantes,,platform,,bus_stop,,,,,,,,,,,,-1.188508,37.9781202
POINT (-1.1272808 37.991768),Aulario Rector Sabater,university,,,,,yes,,Universidad de Murcia,,,,,,,,-1.1272808,37.991768
POINT (-1.1858905 38.0020885),quîckplâck España,,,,,,wlan,,,,,Mo-Sa 09:00-18:00,,Autovía del Mediterráneo,,30107,-1.1858905,38.0020885
POINT (-1.1318205 37.9426306),Consultorio Médico,,platform,,bus_stop,,,,,,,,,,,,-1.1318205,37.9426306
POINT (-1.1301248 37.9869158),Café del Arco,cafe,,,,,wlan,,,tapas,,,,Calle Arco de Santo Domingo,,,-1.1301248,37.9869158
POINT (-1.146741 37.9736069),Muebles Madrid,,platform,,bus_stop,,,,,,,,,,,,-1.146741,37.9736069
POINT (-1.1169603 37.9789116),Alberto Sevilla,,platform,,bus_stop,,,,,,,,yes,,,,-1.1169603,37.9789116
POINT (-1.1242782 37.9754272),"Pintor Pedro Flores, 32",,platform,,bus_stop,,,,,,,,yes,,,,-1.1242782,37.9754272
POINT (-1.1276002 37.9751414),"Pintor Pedro Flores, 8",,platform,,bus_stop,,,,,,,,yes,,,,-1.1276002,37.9751414
POINT (-1.1327242 37.9758696),Avenida de Perea,,platform,,bus_stop,,,,,,,,yes,,,,-1.1327242,37.9758696
POINT (-1.1374004 37.983934),Juan de la Cierva Nº6,,platform,,bus_stop,,,,,,,,limited,,,,-1.1374004,37.983934
POINT (-1.1379027 37.9857478),San Andrés (Farmacia),,platform,,bus_stop,,,,,,,,limited,,,,-1.1379027,37.9857478
POINT (-1.148306 37.9749065),Casas del Parra,,platform,,bus_stop,,,,,,,,,,,,-1.148306,37.9749065
POINT (-1.154504 37.9743045),Camino de Funes,,platform,,bus_stop,,,,,,,,,,,,-1.154504,37.9743045
POINT (-1.1325145 37.8042741),Aeropuerto Internacional Región de Murcia,,,,bus_stop,,,,,,,,,,,,-1.1325145,37.8042741
POINT (-1.1755049 38.0162128),,parking,,,,,,,,,,,,,,,-1.1755049,38.0162128
POINT (-1.1755277 38.0162942),,parking,,,,,,,,,,,,,,,-1.1755277,38.0162942
POINT (-1.1290533 37.9939655),,parking,,,,,,,Parking Docencia,,,,,,,,-1.1290533,37.9939655
POINT (-1.1338967 37.9929067),Parking La Vega,parking,,,,,,,,,,,,,,,-1.1338967,37.9929067
POINT (-1.1331998 37.9931098),Parking La Vega,parking,,,,,,,,,,,,,,,-1.1331998,37.9931098
POINT (-1.1394389 37.9860084),Estación de Autobuses de Murcia,,stop_position,,,,,,,,,,,,,,-1.1394389,37.9860084
POINT (-1.1287909 37.989897),,parking,,,,,,,,,,,,,,,-1.1287909,37.989897
POINT (-1.1285931 37.8698471),Venta La Virgen,,platform,,bus_stop,,,,,,,,,,,,-1.1285931,37.8698471
POINT (-1.1139067 37.9922374),Carrefour Atalayas,,platform,,bus_stop,,,,,,,,,,,,-1.1139067,37.9922374
POINT (-1.1262257 37.9982432),Cruce Juan de Borbon,,platform,,bus_stop,,,,,,,,,,,,-1.1262257,37.9982432
POINT (-1.1039644 37.8691568),Mosa Trajectum,,platform,,bus_stop,,,,,,,,,,,,-1.1039644,37.8691568
POINT (-0.9691686 37.9710326),Venta de los Pinos,,platform,,bus_stop,,,,,,,,,,,,-0.9691686,37.9710326
POINT (-1.0317767 37.995211),Sanchez y Galindo,,platform,,bus_stop,,,,,,,,,,,,-1.0317767,37.995211
POINT (-1.0393298 37.9902139),Los Ramos,,platform,,bus_stop,,,,,,,,,,,,-1.0393298,37.9902139
POINT (-1.0528542 37.9830372),Iglesia,,platform,,bus_stop,,,,,,,,,,,,-1.0528542,37.9830372
POINT (-1.0559012 37.9795861),El Rulo,,platform,,bus_stop,,,,,,,,,,,,-1.0559012,37.9795861
POINT (-1.0611188 37.97766),San Blas,,platform,,bus_stop,,,,,,,,,,,,-1.0611188,37.97766
POINT (-1.0751045 37.9823207),Cuatro Caminos,,platform,,bus_stop,,,,,,,,,,,,-1.0751045,37.9823207
POINT (-1.086349 37.9839951),Canute,,platform,,bus_stop,,,,,,,,,,,,-1.086349,37.9839951
POINT (-1.0895619 37.9835083),Carril de los Pinos,,platform,,bus_stop,,,,,,,,,,,,-1.0895619,37.9835083
POINT (-1.094816 37.9828905),La Azacaya,,platform,,bus_stop,,,,,,,,,,,,-1.094816,37.9828905
POINT (-1.1071955 37.9798182),La Curruca,,platform,,bus_stop,,,,,,,,,,,,-1.1071955,37.9798182
POINT (-1.1012426 37.9817119),Juan Llor,,platform,,bus_stop,,,,,,,,,,,,-1.1012426,37.9817119
POINT (-1.1013298 37.9818017),Juan Llor,,platform,,bus_stop,,,,,,,,,,,,-1.1013298,37.9818017
POINT (-1.0948375 37.9829677),La Azacaya,,platform,,bus_stop,,,,,,,,,,,,-1.0948375,37.9829677
POINT (-1.0895851 37.9836072),Carril de los Pinos,,platform,,bus_stop,,,,,,,,,,,,-1.0895851,37.9836072
POINT (-1.0864194 37.9840876),Canute,,platform,,bus_stop,,,,,,,,,,,,-1.0864194,37.9840876
POINT (-1.0751286 37.9825258),Cuatro Caminos,,platform,,bus_stop,,,,,,,,,,,,-1.0751286,37.9825258
POINT (-1.0610577 37.9777562),San Blas,,platform,,bus_stop,,,,,,,,,,,,-1.0610577,37.9777562
POINT (-1.0560849 37.9796231),El Rulo,,platform,,bus_stop,,,,,,,,,,,,-1.0560849,37.9796231
POINT (-1.0529058 37.9830897),Iglesia,,platform,,bus_stop,,,,,,,,,,,,-1.0529058,37.9830897
POINT (-1.031827 37.9952881),Sanchez y Galindo,,platform,,bus_stop,,,,,,,,,,,,-1.031827,37.9952881
POINT (-1.0394016 37.9902747),Los Ramos,,platform,,bus_stop,,,,,,,,,,,,-1.0394016,37.9902747
POINT (-0.9690325 37.9710315),Venta de los Pinos,,platform,,bus_stop,,,,,,,,,,,,-0.9690325,37.9710315
POINT (-1.0562512 37.8651993),Casas del Civl,,platform,,bus_stop,,,,,,,,,,,,-1.0562512,37.8651993
POINT (-1.0372319 37.8749807),Cruce del Garruchal,,platform,,bus_stop,,,,,,,,,,,,-1.0372319,37.8749807
POINT (-1.0170373 37.881932),Carril de las Escuelas,,platform,,bus_stop,,,,,,,,,,,,-1.0170373,37.881932
POINT (-0.9735252 37.8962307),Estación de Riquelme,,platform,,bus_stop,,,,,,,,,,,,-0.9735252,37.8962307
POINT (-0.9426697 37.890808),Ambulatorio Sucina,,platform,,bus_stop,,,,,,,,,,,,-0.9426697,37.890808
POINT (-0.9433517 37.8484799),Plaza Avileses,,,,bus_stop,,,,,,,,,,,,-0.9433517,37.8484799
POINT (-0.9427482 37.8907445),Ambulatorio Sucina,,platform,,bus_stop,,,,,,,,,,,,-0.9427482,37.8907445
POINT (-0.9693148 37.8976443),Hacienda Riquelme,,platform,,bus_stop,,,,,,,,,,,,-0.9693148,37.8976443
POINT (-0.9734876 37.8961759),Estación de Riquelme,,platform,,bus_stop,,,,,,,,,,,,-0.9734876,37.8961759
POINT (-1.0109407 37.8812482),Plaza de Gea y Truyols,,platform,,bus_stop,,,,,,,,,,,,-1.0109407,37.8812482
POINT (-1.0170266 37.88186),Carril de las Escuelas,,platform,,bus_stop,,,,,,,,,,,,-1.0170266,37.88186
POINT (-1.0371921 37.8748714),Cruce del Garruchal,,platform,,bus_stop,,,,,,,,,,,,-1.0371921,37.8748714
POINT (-1.0561627 37.8651189),Casas del Civil,,platform,,bus_stop,,,,,,,,,,,,-1.0561627,37.8651189
POINT (-1.1005224 37.8661268),Venta San Antonio,,platform,,bus_stop,,,,,,,,,,,,-1.1005224,37.8661268
POINT (-1.0746686 37.7190433),Los Conesas,,platform,,bus_stop,,,,,,,,,,,,-1.0746686,37.7190433
POINT (-1.0792431 37.7229036),Los Romeras,,platform,,bus_stop,,,,,,,,,,,,-1.0792431,37.7229036
POINT (-1.0843101 37.729446),La Fuente,,platform,,bus_stop,,,,,,,,,,,,-1.0843101,37.729446
POINT (-1.0858561 37.7369131),Los Urreas,,platform,,bus_stop,,,,,,,,,,,,-1.0858561,37.7369131
POINT (-1.1229309 37.7773655),Bar La Palmera,,,,bus_stop,,,,,,,,,,,,-1.1229309,37.7773655
POINT (-1.1263846 37.7779818),Empalme Valladolises,,platform,,bus_stop,,,,,,,,,,,,-1.1263846,37.7779818
POINT (-1.1229819 37.7774355),Bar La Palmera,,,,bus_stop,,,,,,,,,,,,-1.1229819,37.7774355
POINT (-1.0857542 37.7369343),Los Urreas,,platform,,bus_stop,,,,,,,,,,,,-1.0857542,37.7369343
POINT (-1.0842401 37.7295124),La Fuente,,platform,,bus_stop,,,,,,,,,,,,-1.0842401,37.7295124
POINT (-1.0790353 37.7228336),Los Romeras,,platform,,bus_stop,,,,,,,,,,,,-1.0790353,37.7228336
POINT (-1.0746941 37.7191261),Los Conesas,,platform,,bus_stop,,,,,,,,,,,,-1.0746941,37.7191261
POINT (-1.1390242 37.8829587),El Juncal,,platform,,bus_stop,,,,,,,,,,,,-1.1390242,37.8829587
POINT (-1.1408427 37.8761406),Hoya de los Gatos,,platform,,bus_stop,,,,,,,,,,,,-1.1408427,37.8761406
POINT (-1.1417238 37.8591473),Las Lomas,,platform,,bus_stop,,,,,,,,,,,,-1.1417238,37.8591473
POINT (-1.1460415 37.8397004),Venta del Cojo,,platform,,bus_stop,,,,,,,,,,,,-1.1460415,37.8397004
POINT (-1.1540365 37.8327099),Gasolinera,,platform,,bus_stop,,,,,,,,,,,,-1.1540365,37.8327099
POINT (-1.1561273 37.8308409),Plaza Sebastian Elcano,,platform,,bus_stop,,,,,,,,,,,,-1.1561273,37.8308409
POINT (-1.1596712 37.8281027),Cruce Los Martinez del Puerto,,platform,,bus_stop,,,,,,,,,,,,-1.1596712,37.8281027
POINT (-1.1627042 37.8258532),Colegio Isabel Bellvis,,platform,,bus_stop,,,,,,,,,,,,-1.1627042,37.8258532
POINT (-1.1614448 37.8136851),Cruce Casas Los Nogueras,,platform,,bus_stop,,,,,,,,,,,,-1.1614448,37.8136851
POINT (-1.1391771 37.7912609),La Torrica,,platform,,bus_stop,,,,,,,,,,,,-1.1391771,37.7912609
POINT (-1.1264728 37.7778913),Empalme Valladolises,,platform,,bus_stop,,,,,,,,,,,,-1.1264728,37.7778913
POINT (-1.1393152 37.7911888),La Torrica,,platform,,bus_stop,,,,,,,,,,,,-1.1393152,37.7911888
POINT (-1.1616406 37.8136623),Cruce Casas Los Nogueras,,platform,,bus_stop,,,,,,,,,,,,-1.1616406,37.8136623
POINT (-1.1627752 37.8259349),Colegio Isabel Bellvis,,platform,,bus_stop,,,,,,,,,,,,-1.1627752,37.8259349
POINT (-1.1596933 37.8282325),Cruce Los Martinez del Puerto,,platform,,bus_stop,,,,,,,,,,,,-1.1596933,37.8282325
POINT (-1.1562976 37.8308563),Plaza Sebastian Elcano,,platform,,bus_stop,,,,,,,,,,,,-1.1562976,37.8308563
POINT (-1.1543114 37.8326919),Gasolinera,,platform,,bus_stop,,,,,,,,,,,,-1.1543114,37.8326919
POINT (-1.1463882 37.839676),Venta del Cojo,,platform,,bus_stop,,,,,,,,,,,,-1.1463882,37.839676
POINT (-1.1422066 37.8607482),Cruce de los Muñoces,,platform,,bus_stop,,,,,,,,,,,,-1.1422066,37.8607482
POINT (-1.1409896 37.8761613),Hoya de los Gatos,,platform,,bus_stop,,,,,,,,,,,,-1.1409896,37.8761613
POINT (-1.139224 37.8828147),El Juncal,,platform,,bus_stop,,,,,,,,,,,,-1.139224,37.8828147
POINT (-1.162456 38.0238683),Globolandia,,platform,,platform,,,,,,,,,,,,-1.162456,38.0238683
POINT (-1.1622803 38.0239328),Globolandia,,platform,,platform,,,,,,,,,,,,-1.1622803,38.0239328
POINT (-1.1738285 38.0292117),Extranjeria,,platform,,bus_stop,,,,,,,,,,,,-1.1738285,38.0292117
POINT (-1.1764049 38.0311545),Cabezo Cortado,,platform,,bus_stop,,,,,,,,,,,,-1.1764049,38.0311545
POINT (-1.1672759 38.0269257),Puente Complejo,,platform,,bus_stop,,,,,,,,,,,,-1.1672759,38.0269257
POINT (-1.176315 38.0317766),Cabezo Cortado,,platform,,bus_stop,,,,,,,,,,,,-1.176315,38.0317766
POINT (-1.1732016 38.0298218),Extranjeria,,platform,,bus_stop,,,,,,,,,,,,-1.1732016,38.0298218
POINT (-1.1623728 38.0217849),Ford,,platform,,bus_stop,,,,,,,,,,,,-1.1623728,38.0217849
POINT (-1.1461227 38.0400499),Estadio Nueva Condomina,,,,bus_stop,,,,,,,,,,,,-1.1461227,38.0400499
POINT (-1.1857329 37.9492442),Polígono 3,,platform,,bus_stop,,,,,,,,,,,,-1.1857329,37.9492442
POINT (-1.1808184 37.948652),Polígono 2,,platform,,bus_stop,,,,,,,,,,,,-1.1808184,37.948652
POINT (-1.1902463 37.9509479),Polígono 4,,platform,,bus_stop,,,,,,,,,,,,-1.1902463,37.9509479
POINT (-1.1487864 37.9713223),Casas Nuevas,,platform,,bus_stop,,,,,,,,,,,,-1.1487864,37.9713223
POINT (-1.1620751 37.9659588),Rurru,,platform,,bus_stop,,,,,,,,,,,,-1.1620751,37.9659588
POINT (-1.1675602 37.9644595),El Rullo,,platform,,bus_stop,,,,,,,,,,,,-1.1675602,37.9644595
POINT (-1.1681597 37.9658404),Casino,,platform,,bus_stop,,,,,,,,,,,,-1.1681597,37.9658404
POINT (-1.1687209 37.9678157),Era Alta,,platform,,bus_stop,,,,,,,,,,,,-1.1687209,37.9678157
POINT (-1.1728308 37.9671985),El Parra,,platform,,bus_stop,,,,,,,,,,,,-1.1728308,37.9671985
POINT (-1.180522 37.958146),Zaranda,,platform,,bus_stop,,,,,,,,,,,,-1.180522,37.958146
POINT (-1.1442579 37.9748094),Panasa,,platform,,bus_stop,,,,,,,,,,,,-1.1442579,37.9748094
POINT (-1.1465646 37.9735952),Muebles Madrid,,platform,,bus_stop,,,,LAT,,,,,,,,-1.1465646,37.9735952
POINT (-1.1760977 37.9573762),Iglesia,,platform,,bus_stop,,,,,,,,,,,,-1.1760977,37.9573762
POINT (-1.1767092 37.9585632),La Tomasa,,platform,,bus_stop,,,,,,,,,,,,-1.1767092,37.9585632
POINT (-1.1829229 37.9601313),Curandero,,platform,,bus_stop,,,,,,,,,,,,-1.1829229,37.9601313
POINT (-1.1845879 37.9616854),Abrevador,,platform,,bus_stop,,,,,,,,,,,,-1.1845879,37.9616854
POINT (-1.1825994 37.962702),El Mosquito,,platform,,bus_stop,,,,,,,,,,,,-1.1825994,37.962702
POINT (-1.1811342 37.9636285),Orenes,,platform,,bus_stop,,,,,,,,,,,,-1.1811342,37.9636285
POINT (-1.1773486 37.9655739),Tres Puentes,,platform,,bus_stop,,,,,,,,,,,,-1.1773486,37.9655739
POINT (-1.1651972 37.9648835),Los Tordillos,,platform,,bus_stop,,,,,,,,,,,,-1.1651972,37.9648835
POINT (-1.1637649 37.96515),Chaparro,,platform,,bus_stop,,,,,,,,,,,,-1.1637649,37.96515
POINT (-1.160388 37.9667074),Las Casicas,,platform,,bus_stop,,,,,,,,,,,,-1.160388,37.9667074
POINT (-1.1580652 37.9677985),Pedriñanes,,platform,,bus_stop,,,,,,,,,,,,-1.1580652,37.9677985
POINT (-1.1552717 37.9679888),Estanco,,platform,,bus_stop,,,,,,,,,,,,-1.1552717,37.9679888
POINT (-1.151361 37.9697523),La Barraca,,platform,,bus_stop,,,,,,,,,,,,-1.151361,37.9697523
POINT (-1.0264894 38.0001512),,parking,,,,,,,,,,,,,,,-1.0264894,38.0001512
POINT (-1.0542476 37.983066),,parking,,,,,,,,,,,,,,,-1.0542476,37.983066
POINT (-1.0544314 37.9835321),,parking,,,,,,,,,,,,,,,-1.0544314,37.9835321
POINT (-1.115576 37.9892202),Colegio Jesuitinas,,platform,,bus_stop,,,,,,,,,,,,-1.115576,37.9892202
POINT (-1.1197102 37.9846645),La Fama Nº 3 (Consejería Politica Social),,platform,,bus_stop,,,,,,,,,,,,-1.1197102,37.9846645
POINT (-1.1737494 38.0157764),Apartamentos Campus,,platform,,bus_stop,,,,,,,,,,,,-1.1737494,38.0157764
POINT (-1.015137 38.0416633),Escuelas del Secano,,platform,,bus_stop,,,,,,,,,,,,-1.015137,38.0416633
POINT (-1.0151973 38.0416654),Escuelas del Secano,,platform,,bus_stop,,,,,,,,,,,,-1.0151973,38.0416654
POINT (-1.0123783 38.0395171),Iglesia,,platform,,bus_stop,,,,,,,,,,,,-1.0123783,38.0395171
POINT (-1.0123542 38.0394421),Iglesia,,platform,,bus_stop,,,,,,,,,,,,-1.0123542,38.0394421
POINT (-1.0401727 38.0270482),Desvio,,platform,,bus_stop,,,,,,,,,,,,-1.0401727,38.0270482
POINT (-1.0376689 38.0200903),Alonso,,platform,,bus_stop,,,,,,,,,,,,-1.0376689,38.0200903
POINT (-1.0375683 38.0201611),Alonso,,platform,,bus_stop,,,,,,,,,,,,-1.0375683,38.0201611
POINT (-1.0352469 38.0141757),Alquerias,,platform,,bus_stop,,,,,,,,,,,,-1.0352469,38.0141757
POINT (-1.1210758 37.9819856),Hospital Reina Sofía,,platform,,bus_stop,,,,,,,,,,,,-1.1210758,37.9819856
POINT (-1.1198373 37.9846627),La Fama Nº 3 (Consejería Politica Social),,platform,,platform,,,,,,,,,,,,-1.1198373,37.9846627
POINT (-1.1198371 37.9868057),La Fama Nº 11 (Colegio Divino Maestro),,platform,,bus_stop,,,,,,,,,,,,-1.1198371,37.9868057
POINT (-1.1199604 37.9868669),La Fama Nº 11 (Colegio Divino Maestro),,platform,,bus_stop,,,,,,,,,,,,-1.1199604,37.9868669
POINT (-1.118748 37.9873944),Pablo VI,,platform,,platform,,,,,,,,,,,,-1.118748,37.9873944
POINT (-1.1187561 37.9875255),Pablo VI,,platform,,bus_stop,,,,,,,,,,,,-1.1187561,37.9875255
POINT (-1.1116182 37.9894473),Asilo de Ancianos,,platform,,bus_stop,,,,,,,,,,,,-1.1116182,37.9894473
POINT (-1.1121002 37.9894311),Asilo de Ancianos,,platform,,bus_stop,,,,,,,,,,,,-1.1121002,37.9894311
POINT (-1.1093335 37.990735),Paquele,,platform,,bus_stop,,,,,,,,,,,,-1.1093335,37.990735
POINT (-1.1092751 37.9906626),Paquele,,platform,,bus_stop,,,,,,,,,,,,-1.1092751,37.9906626
POINT (-1.1060867 37.992211),La Parra,,platform,,bus_stop,,,,,,,,,,,,-1.1060867,37.992211
POINT (-1.1060773 37.9920588),La Parra,,platform,,bus_stop,,,,,,,,,,,,-1.1060773,37.9920588
POINT (-1.1033374 37.9930655),Iglesia,,platform,,bus_stop,,,,,,,,,,,,-1.1033374,37.9930655
POINT (-1.1033602 37.9931627),Iglesia,,platform,,bus_stop,,,,,,,,,,,,-1.1033602,37.9931627
POINT (-1.1008617 37.9939876),Bodega,,platform,,bus_stop,,,,,,,,,,,,-1.1008617,37.9939876
POINT (-1.1008604 37.9940764),Bodega,,platform,,bus_stop,,,,,,,,,,,,-1.1008604,37.9940764
POINT (-1.0985188 37.9947232),Puente Tocinos,,platform,,bus_stop,,,,,,,,,,,,-1.0985188,37.9947232
POINT (-1.0984384 37.9948796),Puente Tocinos,,platform,,bus_stop,,,,,,,,,,,,-1.0984384,37.9948796
POINT (-1.0965156 37.9958422),Ermita,,platform,,bus_stop,,,,,,,,,,,,-1.0965156,37.9958422
POINT (-1.0968312 37.9958376),Ermita,,platform,,bus_stop,,,,,,,,,,,,-1.0968312,37.9958376
POINT (-1.0928165 37.9970675),La Gondola,,platform,,bus_stop,,,,,,,,,,,,-1.0928165,37.9970675
POINT (-1.0929144 37.9971358),La Gondola,,platform,,bus_stop,,,,,,,,,,,,-1.0929144,37.9971358
POINT (-1.0909201 37.9977215),Dieguito,,platform,,bus_stop,,,,,,,,,,,,-1.0909201,37.9977215
POINT (-1.0909469 37.9977987),Dieguito,,platform,,bus_stop,,,,,,,,,,,,-1.0909469,37.9977987
POINT (-1.0864046 37.9992),Gasolinera,,platform,,bus_stop,,,,,,,,,,,,-1.0864046,37.9992
POINT (-1.0868955 37.9988809),Gasolinera,,platform,,bus_stop,,,,,,,,,,,,-1.0868955,37.9988809
POINT (-1.0821936 38.000204),La Bascula,,platform,,bus_stop,,,,,,,,,,,,-1.0821936,38.000204
POINT (-1.0821158 38.0000941),La Bascula,,platform,,bus_stop,,,,,,,,,,,,-1.0821158,38.0000941
POINT (-1.079455 38.0007662),Barba,,platform,,bus_stop,,,,,,,,,,,,-1.079455,38.0007662
POINT (-1.0792378 38.0009353),Barba,,platform,,bus_stop,,,,,,,,,,,,-1.0792378,38.0009353
POINT (-1.0769525 38.0016877),Vereda de la Cueva,,platform,,bus_stop,,,,,,,,,,,,-1.0769525,38.0016877
POINT (-1.0770142 38.001861),Vereda de la Cueva,,platform,,bus_stop,,,,,,,,,,,,-1.0770142,38.001861
POINT (-1.0646224 38.0073497),Bravo,,platform,,bus_stop,,,,,,,,,,,,-1.0646224,38.0073497
POINT (-1.0646412 38.0074681),Bravo,,platform,,bus_stop,,,,,,,,,,,,-1.0646412,38.0074681
POINT (-1.0624015 38.0076942),Molino,,platform,,bus_stop,,,,,,,,,,,,-1.0624015,38.0076942
POINT (-1.0624203 38.0078105),Molino,,platform,,bus_stop,,,,,,,,,,,,-1.0624203,38.0078105
POINT (-1.0581529 38.0100908),Los Paquitos,,platform,,bus_stop,,,,,,,,,,,,-1.0581529,38.0100908
POINT (-1.0582629 38.0101669),Los Paquitos,,platform,,bus_stop,,,,,,,,,,,,-1.0582629,38.0101669
POINT (-1.0557966 38.0123467),La Torre,,platform,,bus_stop,,,,,,,,,,,,-1.0557966,38.0123467
POINT (-1.0560192 38.0122801),La Torre,,platform,,bus_stop,,,,,,,,,,,,-1.0560192,38.0122801
POINT (-1.0539472 38.0144747),Maruja,,platform,,bus_stop,,,,,,,,,,,,-1.0539472,38.0144747
POINT (-1.0542624 38.0141799),Maruja,,platform,,bus_stop,,,,,,,,,,,,-1.0542624,38.0141799
POINT (-1.0526665 38.0160543),Vigueras,,platform,,bus_stop,,,,,,,,,,,,-1.0526665,38.0160543
POINT (-1.0528784 38.0160374),Vigueras,,platform,,bus_stop,,,,,,,,,,,,-1.0528784,38.0160374
POINT (-1.0507232 38.0178674),Los Perez,,platform,,bus_stop,,,,,,,,,,,,-1.0507232,38.0178674
POINT (-1.0507473 38.0180364),Los Perez,,platform,,bus_stop,,,,,,,,,,,,-1.0507473,38.0180364
POINT (-1.0475904 38.0198325),Señorito Lazaro,,platform,,bus_stop,,,,,,,,,,,,-1.0475904,38.0198325
POINT (-1.047931 38.0197818),Señorito Lazaro,,platform,,bus_stop,,,,,,,,,,,,-1.047931,38.0197818
POINT (-1.0454755 38.0226576),El Trenque,,platform,,bus_stop,,,,,,,,,,,,-1.0454755,38.0226576
POINT (-1.045804 38.0224991),El Trenque,,platform,,bus_stop,,,,,,,,,,,,-1.045804,38.0224991
POINT (-1.0464786 38.0273134),Juanchi,,platform,,platform,,,,,,,,,,,,-1.0464786,38.0273134
POINT (-1.046555 38.0274486),Juanchi,,platform,,platform,,,,,,,,,,,,-1.046555,38.0274486
POINT (-1.0449833 38.0297864),La Cañona,,platform,,bus_stop,,,,,,,,,,,,-1.0449833,38.0297864
POINT (-1.0452542 38.0296026),La Cañona,,platform,,bus_stop,,,,,,,,,,,,-1.0452542,38.0296026
POINT (-1.0423909 38.0321769),Cruce El Raal,,platform,,bus_stop,,,,,,,,,,,,-1.0423909,38.0321769
POINT (-1.042344 38.0321009),Cruce El Raal,,platform,,bus_stop,,,,,,,,,,,,-1.042344,38.0321009
POINT (-1.0394593 38.0337265),El Jarabe,,platform,,bus_stop,,,,,,,,,,,,-1.0394593,38.0337265
POINT (-1.0395022 38.0337794),El Jarabe,,platform,,bus_stop,,,,,,,,,,,,-1.0395022,38.0337794
POINT (-1.0361427 38.0356506),La Patricia,,platform,,bus_stop,,,,,,,,,,,,-1.0361427,38.0356506
POINT (-1.036195 38.0355318),La Patricia,,platform,,bus_stop,,,,,,,,,,,,-1.036195,38.0355318
POINT (-1.0337046 38.0369144),Lechuga,,platform,,bus_stop,,,,,,,,,,,,-1.0337046,38.0369144
POINT (-1.0338387 38.0369567),Lechuga,,platform,,bus_stop,,,,,,,,,,,,-1.0338387,38.0369567
POINT (-1.030219 38.0389192),El Pino,,platform,,bus_stop,,,,,,,,,,,,-1.030219,38.0389192
POINT (-1.0301587 38.0388506),El Pino,,platform,,bus_stop,,,,,,,,,,,,-1.0301587,38.0388506
POINT (-1.0274644 38.0403568),Iglesia,,platform,,bus_stop,,,,,,,,,,,,-1.0274644,38.0403568
POINT (-1.0272941 38.0405405),Iglesia,,platform,,bus_stop,,,,,,,,,,,,-1.0272941,38.0405405
POINT (-1.0254045 38.0415946),Estanco,,platform,,bus_stop,,,,,,,,,,,,-1.0254045,38.0415946
POINT (-1.0253616 38.0415344),Estanco,,platform,,bus_stop,,,,,,,,,,,,-1.0253616,38.0415344
POINT (-1.0224507 38.0432328),Los Garcias,,platform,,bus_stop,,,,,,,,,,,,-1.0224507,38.0432328
POINT (-1.0223904 38.0431678),Los Garcias,,platform,,bus_stop,,,,,,,,,,,,-1.0223904,38.0431678
POINT (-1.0194352 38.044778),Casas Nuevas,,platform,,bus_stop,,,,,,,,,,,,-1.0194352,38.044778
POINT (-1.0194969 38.0448456),Casas Nuevas,,platform,,bus_stop,,,,,,,,,,,,-1.0194969,38.0448456
POINT (-1.0161824 38.0465914),Vereda del Marchante,,platform,,bus_stop,,,,,,,,,,,,-1.0161824,38.0465914
POINT (-1.0159195 38.0468433),Vereda del Marchante,,platform,,bus_stop,,,,,,,,,,,,-1.0159195,38.0468433
POINT (-1.0117608 38.049944),Curandero,,platform,,bus_stop,,,,,,,,,,,,-1.0117608,38.049944
POINT (-1.0119418 38.0499414),Curandero,,platform,,bus_stop,,,,,,,,,,,,-1.0119418,38.0499414
POINT (-1.010372 38.0524457),Camino del Puente,,platform,,bus_stop,,,,,,,,,,,,-1.010372,38.0524457
POINT (-1.0103747 38.052239),Camino del Puente,,platform,,bus_stop,,,,,,,,,,,,-1.0103747,38.052239
POINT (-1.0079942 38.0485887),Puente Beniel,,platform,,bus_stop,,,,,,,,,,,,-1.0079942,38.0485887
POINT (-1.0062441 38.0063818),El Algibe,,platform,,bus_stop,,,,,,,,,,,,-1.0062441,38.0063818
POINT (-1.0068181 38.0062846),El Algibe,,platform,,bus_stop,,,,,,,,,,,,-1.0068181,38.0062846
POINT (-1.004215 38.0073793),San Isidro,,platform,,bus_stop,,,,,,,,,,,,-1.004215,38.0073793
POINT (-1.004439 38.0073899),San Isidro,,platform,,bus_stop,,,,,,,,,,,,-1.004439,38.0073899
POINT (-1.0010849 38.0088038),Hogar 3ª Edad,,platform,,bus_stop,,,,,,,,,,,,-1.0010849,38.0088038
POINT (-1.0011452 38.0088904),Hogar 3ª Edad,,platform,,bus_stop,,,,,,,,,,,,-1.0011452,38.0088904
POINT (-1.0002172 38.0093342),Farmacia,,platform,,bus_stop,,,,,,,,,,,,-1.0002172,38.0093342
POINT (-1.0000241 38.0095963),Farmacia,,platform,,bus_stop,,,,,,,,,,,,-1.0000241,38.0095963
POINT (-0.9959979 38.0117409),Alcaldia,,platform,,bus_stop,,,,,,,,,,,,-0.9959979,38.0117409
POINT (-1.0257626 37.9984074),La Barraca,,platform,,bus_stop,,,,,,,,,,,,-1.0257626,37.9984074
POINT (-1.0086641 37.9952728),Discoteca,,platform,,bus_stop,,,,,,,,,,,,-1.0086641,37.9952728
POINT (-0.9933494 37.9879324),Matadero,,platform,,bus_stop,,,,,,,,,,,,-0.9933494,37.9879324
POINT (-0.9919607 37.9800216),Cabezo de la Plata,,platform,,bus_stop,,,,,,,,,,,,-0.9919607,37.9800216
POINT (-1.1185509 37.9803778),Instituto,,platform,,bus_stop,,,,,,,,,,,,-1.1185509,37.9803778
POINT (-1.1153832 37.9806389),Bomberos,,platform,,bus_stop,,,,,,,,,,,,-1.1153832,37.9806389
POINT (-1.1061752 37.9799571),"Avenida Región Murciana, 23",,platform,,bus_stop,,,,,,,,,,,,-1.1061752,37.9799571
POINT (-1.1044586 37.9802838),Curva Marin,,platform,,bus_stop,,,,,,,,,,,,-1.1044586,37.9802838
POINT (-1.1042601 37.980585),Curva Marin,,platform,,bus_stop,,,,,,,,,,,,-1.1042601,37.980585
POINT (-1.0798654 37.9836082),Reguerón,,platform,,bus_stop,,,,,,,,,,,,-1.0798654,37.9836082
POINT (-1.0797863 37.9836938),Reguerón,,platform,,bus_stop,,,,,,,,,,,,-1.0797863,37.9836938
POINT (-1.0729346 37.979103),Los Almacenes,,platform,,bus_stop,,,,,,,,,,,,-1.0729346,37.979103
POINT (-1.0689542 37.975403),Peugeot,,platform,,bus_stop,,,,,,,,,,,,-1.0689542,37.975403
POINT (-1.0683232 37.9755614),Peugeot,,platform,,bus_stop,,,,,,,,,,,,-1.0683232,37.9755614
POINT (-1.063984 37.9771029),La Rambla,,platform,,bus_stop,,,,,,,,,,,,-1.063984,37.9771029
POINT (-1.0653023 37.9766018),La Rambla,,platform,,bus_stop,,,,,,,,,,,,-1.0653023,37.9766018
POINT (-1.0575487 37.9773133),Severo,,platform,,bus_stop,,,,,,,,,,,,-1.0575487,37.9773133
POINT (-1.0576453 37.977382),Severo,,platform,,bus_stop,,,,,,,,,,,,-1.0576453,37.977382
POINT (-1.0485687 37.98416),Autos Gomez,,platform,,bus_stop,,,,,,,,,,,,-1.0485687,37.98416
POINT (-1.0486344 37.9842657),Autos Gomez,,platform,,bus_stop,,,,,,,,,,,,-1.0486344,37.9842657
POINT (-1.0465973 37.9853079),La Colmena,,platform,,bus_stop,,,,,,,,,,,,-1.0465973,37.9853079
POINT (-1.046663 37.9854136),La Colmena,,platform,,bus_stop,,,,,,,,,,,,-1.046663,37.9854136
POINT (-1.0413495 37.989149),Los Pisos,,platform,,bus_stop,,,,,,,,,,,,-1.0413495,37.989149
POINT (-1.0419571 37.9888562),Los Pisos,,platform,,bus_stop,,,,,,,,,,,,-1.0419571,37.9888562
POINT (-1.0364451 37.9918167),Iglesia,,platform,,bus_stop,,,,,,,,,,,,-1.0364451,37.9918167
POINT (-1.0366718 37.9917914),Iglesia,,platform,,bus_stop,,,,,,,,,,,,-1.0366718,37.9917914
POINT (-1.0348231 37.9930343),Parada Nueva,,platform,,bus_stop,,,,,,,,,,,,-1.0348231,37.9930343
POINT (-1.0348888 37.99314),Parada Nueva,,platform,,bus_stop,,,,,,,,,,,,-1.0348888,37.99314
POINT (-1.1216086 37.9875044),Calle Melilla,,platform,,platform,,,,,,,,,,,,-1.1216086,37.9875044
POINT (-1.1231046 37.9856842),Nuevos Juzgados,,platform,,bus_stop,,,,,,,,,,,,-1.1231046,37.9856842
POINT (-1.1228102 37.986032),Nuevos Juzgados,,platform,,platform,,,,,,,,,,,,-1.1228102,37.986032
POINT (-1.1230132 37.9848203),Plaza de Toros,,platform,,bus_stop,,,,,,,,,,,,-1.1230132,37.9848203
POINT (-1.1220398 37.9830186),Centro Hemodonación,,platform,,platform,,,,,,,,,,,,-1.1220398,37.9830186
POINT (-0.9934741 37.9879335),Matadero,,platform,,bus_stop,,,,,,,,,,,,-0.9934741,37.9879335
POINT (-1.008752 37.9951819),Discoteca,,platform,,bus_stop,,,,,,,,,,,,-1.008752,37.9951819
POINT (-1.0256043 37.9983747),La Barraca,,platform,,bus_stop,,,,,,,,,,,,-1.0256043,37.9983747
POINT (-1.0717249 37.9756292),Casino,,platform,,bus_stop,,,,,,,,,,,,-1.0717249,37.9756292
POINT (-1.073066 37.9790628),Los Almacenes,,platform,,bus_stop,,,,,,,,,,,,-1.073066,37.9790628
POINT (-1.1093584 37.9821046),Ciudad del Transporte,,platform,,bus_stop,,,,,,,,,,,,-1.1093584,37.9821046
POINT (-1.1322074 37.9379076),El Estanco,,platform,,bus_stop,,,,,,,,,,,,-1.1322074,37.9379076
POINT (-1.1340071 37.9377373),"Calle Malecón, 25",,platform,,bus_stop,,,,,,,,,,,,-1.1340071,37.9377373
POINT (-1.1357828 37.9407772),El Cine,,platform,,bus_stop,,,,,,,,,,,,-1.1357828,37.9407772
POINT (-1.1422174 37.9390944),Serrano,,platform,,platform,,,,,,,,,,,,-1.1422174,37.9390944
POINT (-1.1378145 37.9377183),Los Chalets,,platform,,bus_stop,,,,,,,,,,,,-1.1378145,37.9377183
POINT (-1.1358914 37.9378072),La Paz,,platform,,bus_stop,,,,,,,,,,,,-1.1358914,37.9378072
POINT (-1.1348721 37.9368404),Los Baños,,platform,,bus_stop,,,,,,,,,,,,-1.1348721,37.9368404
POINT (-1.1322792 37.937901),El Estanco,,platform,,bus_stop,,,,,,,,,,,,-1.1322792,37.937901
POINT (-1.132587 37.9419175),El Charco,,platform,,bus_stop,,,,,,,,,,,,-1.132587,37.9419175
POINT (-1.1390416 37.9686273),Alias,,platform,,bus_stop,,,,,,,,,,,,-1.1390416,37.9686273
POINT (-1.1378776 37.9940917),"Sierra Espartal, 2",,platform,,bus_stop,,,,,,,,,,,,-1.1378776,37.9940917
POINT (-1.1383027 37.9930528),"Sierra Espartal, 3",,platform,,bus_stop,,,,,,,,,,,,-1.1383027,37.9930528
POINT (-1.1367805 37.9950022),Hogar 3ª Edad,,platform,,bus_stop,,,,,,,,,,,,-1.1367805,37.9950022
POINT (-1.1361338 37.9940412),Santa Maria de Gracia,,platform,,bus_stop,,,,,,,,,,,,-1.1361338,37.9940412
POINT (-1.1386241 37.9665815),Yesera,,platform,,platform,,,,,,,,,,,,-1.1386241,37.9665815
POINT (-1.1386295 37.967149),Yesera,,platform,,platform,,,,,,,,,,,,-1.1386295,37.967149
POINT (-1.1380668 37.9647304),Royal Place,,platform,,bus_stop,,,,,,,,,,,,-1.1380668,37.9647304
POINT (-1.1382087 37.9645546),Duplex,,platform,,bus_stop,,,,,,,,,,,,-1.1382087,37.9645546
POINT (-1.1375888 37.962349),Tanatorio Arco Iris,,platform,,bus_stop,,,,,,,,,,,,-1.1375888,37.962349
POINT (-1.137683 37.9621528),Tanatorio Arco Iris,,platform,,bus_stop,,,,,,,,,,,,-1.137683,37.9621528
POINT (-1.1368604 37.9598736),Lavadero,,platform,,bus_stop,,,,,,,,,,,,-1.1368604,37.9598736
POINT (-1.1370085 37.9597522),Lavadero,,platform,,bus_stop,,,,,,,,,,,,-1.1370085,37.9597522
POINT (-1.1357854 37.956065),Escuelas,,platform,,bus_stop,,,,,,,,,,,,-1.1357854,37.956065
POINT (-1.1359156 37.9549893),La Romera,,platform,,bus_stop,,,,,,,,,,,,-1.1359156,37.9549893
POINT (-1.1356444 37.9532318),"Reguerón, 1",,platform,,bus_stop,,,,,,,,,,,,-1.1356444,37.9532318
POINT (-1.1354237 37.9517382),"Reguerón, 1",,platform,,bus_stop,,,,,,,,,,,,-1.1354237,37.9517382
POINT (-1.133983 37.9485262),"Reguerón, 2",,platform,,bus_stop,,,,,,,,,,,,-1.133983,37.9485262
POINT (-1.1340851 37.9490425),"Reguerón, 2",,platform,,bus_stop,,,,,,,,,,,,-1.1340851,37.9490425
POINT (-1.1441957 37.9358023),Jardin de Infancia,,platform,,bus_stop,,,,,,,,,,,,-1.1441957,37.9358023
POINT (-1.1447356 37.9384065),Vistabella,,platform,,bus_stop,,,,,,,,yes,,,,-1.1447356,37.9384065
POINT (-1.1444255 37.9423927),Peones Camineros,,platform,,bus_stop,,,,,,,,,,,,-1.1444255,37.9423927
POINT (-1.1292406 37.9437438),Casino,,platform,,,,,,,,,,,,,,-1.1292406,37.9437438
POINT (-1.12358 37.9446586),Marcialas,,platform,,,,,,,,,,,,,,-1.12358,37.9446586
POINT (-1.1238188 37.9471503),La Fabrica,,platform,,,,,,,,,,,,,,-1.1238188,37.9471503
POINT (-1.1239985 37.9513096),Felipe,,platform,,bus_stop,,,,,,,,,,,,-1.1239985,37.9513096
POINT (-1.1249547 37.9557044),Carmen Ruiz,,platform,,,,,,,,,,,,,,-1.1249547,37.9557044
POINT (-1.1265094 37.959383),Puente Alto,,platform,,,,,,,,,,,,,,-1.1265094,37.959383
POINT (-1.1455098 37.9986251),Reyes Católicos,,platform,,bus_stop,,,,,,,,,,,,-1.1455098,37.9986251
POINT (-1.1424889 37.9992323),"Avenida de los Pinos, 3",,platform,,bus_stop,,,,,,,,,,,,-1.1424889,37.9992323
POINT (-1.1368863 37.9968773),Pabellón Principe de Asturias,,platform,,bus_stop,,,,,,,,,,,,-1.1368863,37.9968773
POINT (-1.1395732 37.9979453),Avenida de los Pinos - Gasolinera,,platform,,bus_stop,,,,,,,,,,,,-1.1395732,37.9979453
POINT (-1.1288184 37.9663008),Los Pajaros,,platform,,,,,,,,,,,,,,-1.1288184,37.9663008
POINT (-1.1287218 37.9664615),Los Pajaros,,platform,,,,,,,,,,,,,,-1.1287218,37.9664615
POINT (-1.1281988 37.9640287),Farmacia,,platform,,,,,,,,,,,,,,-1.1281988,37.9640287
POINT (-1.128062 37.9640551),Farmacia,,platform,,,,,,,,,,,,,,-1.128062,37.9640551
POINT (-1.1274733 37.9617443),Casino,,platform,,,,,,,,,,,,,,-1.1274733,37.9617443
POINT (-1.1273365 37.9617707),Casino,,platform,,,,,,,,,,,,,,-1.1273365,37.9617707
POINT (-1.1264019 37.9594085),Puente Alto,,platform,,,,,,,,,,,,,,-1.1264019,37.9594085
POINT (-1.1248621 37.9557208),Carmen Ruiz,,platform,,,,,,,,,,,,,,-1.1248621,37.9557208
POINT (-1.1237262 37.9471164),La Fabrica,,platform,,,,,,,,,,,,,,-1.1237262,37.9471164
POINT (-1.1234687 37.9446443),Marcialas,,platform,,,,,,,,,,,,,,-1.1234687,37.9446443
POINT (-1.1289609 37.9437087),Casino,,platform,,,,,,,,,,,,,,-1.1289609,37.9437087
POINT (-1.2149761 37.9308966),Herrería,,platform,,bus_stop,,,,,,,,,,,,-1.2149761,37.9308966
POINT (-1.1526974 37.9559101),Confitería Lorena,,platform,,bus_stop,,,,,,,,,,,,-1.1526974,37.9559101
POINT (-1.1571345 37.9563347),Escuelas Nuevas,,platform,,bus_stop,,,,,,,,,,,,-1.1571345,37.9563347
POINT (-1.1594841 37.9565028),La Care,,platform,,bus_stop,,,,,,,,,,,,-1.1594841,37.9565028
POINT (-1.1755264 37.9523851),Jardín,,platform,,bus_stop,,,,,,,,,,,,-1.1755264,37.9523851
POINT (-1.1660635 37.9265122),Sanatorio,,platform,,bus_stop,,,,,,,,,,,,-1.1660635,37.9265122
POINT (-1.167367 37.9239057),Venta La Paloma,,platform,,bus_stop,,,,,,,,,,,,-1.167367,37.9239057
POINT (-1.1646943 37.9307953),Ciencias de la Salud,,platform,,bus_stop,,,,,,,,,,,,-1.1646943,37.9307953
POINT (-1.1649437 37.9308228),Ciencias de la Salud,,platform,,bus_stop,,,,,,,,,,,,-1.1649437,37.9308228
POINT (-1.1666879 37.9254336),Sanatorio,,platform,,bus_stop,,,,,,,,,,,,-1.1666879,37.9254336
POINT (-1.1623279 37.9423377),Iglesia,,platform,,bus_stop,,,,,,,,,,,,-1.1623279,37.9423377
POINT (-1.1668119 37.9415238),Psiquiátrico,,platform,,bus_stop,,,,,,,,,,,,-1.1668119,37.9415238
POINT (-1.1747418 37.9530671),Almacén,,platform,,bus_stop,,,,,,,,,,,,-1.1747418,37.9530671
POINT (-1.1595351 37.9566011),La Care,,platform,,bus_stop,,,,,,,,,,,,-1.1595351,37.9566011
POINT (-1.157164 37.9563865),Escuelas Nuevas,,platform,,bus_stop,,,,,,,,,,,,-1.157164,37.9563865
POINT (-1.1632405 37.9356494),Colegio José María Párraga,,platform,,bus_stop,,,,,,,,,,,,-1.1632405,37.9356494
POINT (-1.132497 37.9873035),Marcos Redondo,,platform,,platform,,,,,,,,,,,,-1.132497,37.9873035
POINT (-1.1359182 37.9870414),Santa Teresa,,platform,,platform,,,,,,,,,,,,-1.1359182,37.9870414
POINT (-1.1375564 37.9881777),Plaza de las Agustinas,,platform,,,,,,,,,,,,,,-1.1375564,37.9881777
POINT (-1.1399175 37.9881058),Jardín de la Seda / C. Olma,,platform,,bus_stop,,,,,,,,,,,,-1.1399175,37.9881058
POINT (-1.140175 37.9869682),Ambulatorio San Andrés,,platform,,bus_stop,,,,,,,,,,,,-1.140175,37.9869682
POINT (-1.139212 37.986793),Doctor Quesada,,platform,,bus_stop,,,,,,,,,,,,-1.139212,37.986793
POINT (-1.1349593 37.9840046),Plaza San Julián,,platform,,bus_stop,,,,,,,,,,,,-1.1349593,37.9840046
POINT (-1.136686 37.9848656),San Antolín,,platform,,bus_stop,,,,,,,,,,,,-1.136686,37.9848656
POINT (-1.1337318 37.9844251),San Pedro,,platform,,bus_stop,,,,,,,,,,,,-1.1337318,37.9844251
POINT (-1.1573303 38.0042308),Joven Futura,,platform,,bus_stop,,,,,,,,,,,,-1.1573303,38.0042308
POINT (-1.1246247 37.9934908),Maristas Fuensanta,,platform,,bus_stop,,,,,,,,,,,,-1.1246247,37.9934908
POINT (-1.1233212 37.994254),Marina Española,,platform,,bus_stop,,,,,,,,,,,,-1.1233212,37.994254
POINT (-1.1202162 37.9959034),Puente Genil,,platform,,bus_stop,,,,,,,,,,,,-1.1202162,37.9959034
POINT (-1.1183135 37.9948659),Rodriguez de Hita,,platform,,bus_stop,,,,,,,,,,,,-1.1183135,37.9948659
POINT (-1.116841 37.9937995),Maderas Cano Molina,,platform,,bus_stop,,,,,,,,,,,,-1.116841,37.9937995
POINT (-1.1159421 37.9945737),Garcia Aranda,,platform,,platform,,,,,,,,,,,,-1.1159421,37.9945737
POINT (-1.115225 37.9934666),Virgen del Rocio,,platform,,bus_stop,,,,,,,,,,,,-1.115225,37.9934666
POINT (-1.1169201 37.9905815),Carretera de Alicante,,platform,,bus_stop,,,,,,,,,,,,-1.1169201,37.9905815
POINT (-1.1199076 37.98792),La Fama Nº 36 (Consejería Educación),,platform,,bus_stop,,,,,,,,,,,,-1.1199076,37.98792
POINT (-1.1376134 37.9949272),Miguel de Unamuno,,platform,,bus_stop,,,,,,,,,,,,-1.1376134,37.9949272
POINT (-1.139733 37.9957738),Ambulatorio Santa Maria de Gracia,,platform,,bus_stop,,,,,,,,,,,,-1.139733,37.9957738
POINT (-1.1182297 37.9824148),Jorge Palacios,,platform,,bus_stop,,,,,,,,,,,,-1.1182297,37.9824148
POINT (-1.1165627 37.9828292),Marin Fuentes,,platform,,bus_stop,,,,,,,,,,,,-1.1165627,37.9828292
POINT (-1.1171038 37.9841383),"Luis Fontes Pagan, 16",,platform,,bus_stop,,,,,,,,,,,,-1.1171038,37.9841383
POINT (-1.1188392 37.9837742),"Luis Fontes Pagan, 6",,platform,,bus_stop,,,,,,,,,,,,-1.1188392,37.9837742
POINT (-1.1214973 37.984215),Seminario Diocesano,,platform,,bus_stop,,,,,,,,,,,,-1.1214973,37.984215
POINT (-1.1216321 37.987687),Santa Rita,,platform,,bus_stop,,,,,,,,,,,,-1.1216321,37.987687
POINT (-1.1234663 37.9880017),Javier Paulino,,platform,,bus_stop,,,,,,,,,,,,-1.1234663,37.9880017
POINT (-1.1306329 37.9895089),Jaime I,,platform,,bus_stop,,,,,,,,,,,,-1.1306329,37.9895089
POINT (-1.126904 37.9897224),Tapia Sanz,,platform,,bus_stop,,,,,,,,,,,,-1.126904,37.9897224
POINT (-1.124948 37.9885381),Universidad,,platform,,bus_stop,,,,,,,,,,,,-1.124948,37.9885381
POINT (-1.1241916 37.9869399),Obispo Frutos,,platform,,bus_stop,,,,,,,,,,,,-1.1241916,37.9869399
POINT (-1.1216649 37.9849517),Jefatura de Tráfico,,platform,,bus_stop,,,,,,,,,,,,-1.1216649,37.9849517
POINT (-1.1201897 37.9857836),Biblioteca La Fama,,platform,,bus_stop,,,,,,,,,,,,-1.1201897,37.9857836
POINT (-1.118632 37.9842768),"Antonio Torrecillas, 12",,platform,,bus_stop,,,,,,,,,,,,-1.118632,37.9842768
POINT (-1.118107 37.9827261),"Antonio Torrecillas, 2",,platform,,bus_stop,,,,,,,,,,,,-1.118107,37.9827261
POINT (-1.1224287 37.9775749),Colegio Mariano Aroca,,platform,,bus_stop,,,,,,,,,,,,-1.1224287,37.9775749
POINT (-1.1362575 37.9964755),Piscina Barnes,,platform,,bus_stop,,,,,,,,,,,,-1.1362575,37.9964755
POINT (-1.1398262 37.9977374),Avenida de los Pinos - Gasolinera,,platform,,bus_stop,,,,,,,,,,,,-1.1398262,37.9977374
POINT (-1.1419599 37.9986811),"Avenida de los Pinos, 3",,platform,,bus_stop,,,,,,,,,,,,-1.1419599,37.9986811
POINT (-1.1348369 38.0182074),C/ Mayor N° 22,,platform,,bus_stop,,,,,,,,,,,,-1.1348369,38.0182074
POINT (-1.1347741 38.0181088),C/ Mayor N° 22,,platform,,bus_stop,,,,,,,,,,,,-1.1347741,38.0181088
POINT (-1.1370119 38.0167272),Puerta de Hierro,,,,bus_stop,,,,,,,,,,,,-1.1370119,38.0167272
POINT (-1.1364473 38.0160929),Puerta de Hierro,,platform,,bus_stop,,,,,,,,,,,,-1.1364473,38.0160929
POINT (-1.1351205 38.0139358),Cano,,platform,,bus_stop,,,,,,,,,,,,-1.1351205,38.0139358
POINT (-1.1351169 38.0137977),Cano,,platform,,bus_stop,,,,,,,,,,,,-1.1351169,38.0137977
POINT (-1.1332129 38.011949),Jazminero,,platform,,bus_stop,,,,,,,,,,,,-1.1332129,38.011949
POINT (-1.1330345 38.0118741),Jazminero,,platform,,bus_stop,,,,,,,,,,,,-1.1330345,38.0118741
POINT (-1.1338495 38.0096186),El Castellar,,platform,,bus_stop,,,,,,,,,,,,-1.1338495,38.0096186
POINT (-1.1365604 38.0080953),La Coleta,,platform,,bus_stop,,,,,,,,,,,,-1.1365604,38.0080953
POINT (-1.1321643 38.010238),Los Brazales,,platform,,bus_stop,,,,,,,,,,,,-1.1321643,38.010238
POINT (-1.080352 38.0095679),TIO LUCAS,restaurant,,,,,wlan,,,steak_house,,,,Vereda de la Cueva,,30161,-1.080352,38.0095679
POINT (-1.0974136 38.0179336),Puente,,platform,,bus_stop,,,,,,,,,,,,-1.0974136,38.0179336
POINT (-1.0977307 38.0178469),Puente,,platform,,bus_stop,,,,,,,,,,,,-1.0977307,38.0178469
POINT (-1.097946 38.0214976),,parking,,,,,,,,,,,,,,,-1.097946,38.0214976
POINT (-1.1030395 38.0113353),Monteagudo,,,,,2,,,,,,,,Avenida de Alicante,9,30160,-1.1030395,38.0113353
POINT (-1.1034496 38.0106822),Puente Azarbe,,platform,,bus_stop,,,,,,,,,,,,-1.1034496,38.0106822
POINT (-1.1052877 38.008057),Cruce de Casillas,,platform,,bus_stop,,,,,,,,,,,,-1.1052877,38.008057
POINT (-1.1062267 38.007236),Cruce de Casillas,,platform,,bus_stop,,,,,,,,,,,,-1.1062267,38.007236
POINT (-1.1086803 38.0041396),El Pocero,,platform,,bus_stop,,,,,,,,,,,,-1.1086803,38.0041396
POINT (-1.1084572 38.004073),El Pocero,,platform,,bus_stop,,,,,,,,,,,,-1.1084572,38.004073
POINT (-1.1116046 38.0004505),Zarandona,,platform,,bus_stop,,,,,,,,,,,,-1.1116046,38.0004505
POINT (-1.1256196 37.9983854),,,platform,,bus_stop,,,,,,,,,,,,-1.1256196,37.9983854
