geometry,name,shop,amenity,tourism,healthcare,office,leisure,addr:street,addr:housenumber,addr:postcode,brand,operator,cuisine,lon,lat,hdbscan_5_5,hdbscan_5_5_merged,hdbscan_5_5_merged
POINT (-3.6361022 40.4631411),mk2 Palacio de Hielo,,cinema,,,,,,,,,,,-3.6361022,40.4631411,195,0,0
POINT (-3.7020018 40.428732),Café Comercial,,restaurant,,,,,Glorieta de Bilbao,7,28004,,,,-3.7020018,40.428732,1321,1,1
POINT (-3.7016997 40.4270276),Honest Greens,,restaurant,,,,,Calle de Fuencarral,95,28004,Honest Greens,,,-3.7016997,40.4270276,-1,-1,-1
POINT (-3.6962892 40.4276137),Gran Café Santander,,pub,,,,,Plaza de Santa Bárbara,4,28004,,,,-3.6962892,40.4276137,1086,2,2
POINT (-3.7045532 40.4232134),Teatro Alfil,,theatre,,,,,Calle del Pez,10,28004,,,,-3.7045532,40.4232134,1307,3,3
POINT (-3.7068876 40.480352),Alcampo,supermarket,,,,,,,,,Alcampo,,,-3.7068876,40.480352,469,4,4
POINT (-3.7074361 40.4798421),Multicines La Vaguada,,cinema,,,,,,,,,,,-3.7074361,40.4798421,469,4,4
POINT (-3.6072228 40.4333661),Burger King,,fast_food,,,,,,,,Burger King,,burger,-3.6072228,40.4333661,260,716,716
POINT (-3.6050886 40.4285305),Los arcángeles de Las Rosas,lottery,,,,,,,,,,,,-3.6050886,40.4285305,269,719,719
POINT (-3.7021068 40.4122075),Filmoteca Nacional,,cinema,,,,,,,,,,,-3.7021068,40.4122075,-1,-1,-1
POINT (-3.7079389 40.4117047),Farmacia la Latina,,pharmacy,,pharmacy,,,Calle de Toledo,53,28005,,,,-3.7079389,40.4117047,-1,-1,-1
POINT (-3.7522395 40.3865761),Farmacia Estrella,,pharmacy,,pharmacy,,,Calle de Nuestra Señora de la Luz,57,28047,,,,-3.7522395,40.3865761,218,5,5
POINT (-3.7010866 40.4097328),Café Melo's,,pub,,,,,Calle del Ave María,44,28012,,,,-3.7010866,40.4097328,-1,-1,-1
POINT (-3.6981336 40.4260312),Olé Lola,,pub,,,,,Calle de San Mateo,28,28004,,,,-3.6981336,40.4260312,1076,6,6
POINT (-3.7122038 40.4256477),Mür Café,,bar,,,,,Plaza de Cristino Martos,2,28015,,,,-3.7122038,40.4256477,1120,912,912
POINT (-3.7120898 40.4257656),La Parrilla de Nino,,restaurant,,,,,Plaza de Cristino Martos,2,28015,,,,-3.7120898,40.4257656,1120,912,912
POINT (-3.7117951 40.4254487),Tempo,,pub,,,,,,,,,,,-3.7117951,40.4254487,1114,7,7
POINT (-3.7118533 40.42514),Taj Mahal,,restaurant,,,,,Calle del Duque de Osuna,6,28015,,,indian,-3.7118533,40.42514,1114,7,7
POINT (-3.7115084 40.426008),La Pomarada,,restaurant,,,,,Calle del Conde Duque,,28015,,,regional,-3.7115084,40.426008,1163,8,8
POINT (-3.7093262 40.4188562),Room Mate Mario Hotel,,,hotel,,,,Calle de Campomanes,4,28013,Room Mate,Room Mate,,-3.7093262,40.4188562,-1,-1,-1
POINT (-3.6963836 40.4252476),Sexto,,restaurant,,,,,Calle de Fernando VI,6,28004,,,,-3.6963836,40.4252476,1082,9,9
POINT (-3.6962971 40.4274303),,,fast_food,,,,,,,,,,,-3.6962971,40.4274303,1086,2,2
POINT (-3.7163184 40.4366465),Don Oso,,fast_food,,,,,Calle de Donoso Cortés,90,28015,,,burger,-3.7163184,40.4366465,1019,898,898
POINT (-3.7049818 40.4164064),McDonald's,,fast_food,,,,,,,,McDonald's,McDonald's,burger,-3.7049818,40.4164064,-1,-1,-1
POINT (-3.7088498 40.4162327),Brasa y Leña,,restaurant,,,,,Plaza del Comandante Las Morenas,3,28013,,,,-3.7088498,40.4162327,1221,926,926
POINT (-3.7087304 40.4136118),100 Montaditos,,restaurant,,,,,,,,100 Montaditos,,sandwich,-3.7087304,40.4136118,-1,-1,-1
POINT (-3.7101814 40.4167458),Peor Para El Sol,,bar,,,,,Calle de la Unión,2,28013,,,,-3.7101814,40.4167458,-1,-1,-1
POINT (-3.7114792 40.4787084),,,pub,,,,,,,,,,,-3.7114792,40.4787084,-1,-1,-1
POINT (-3.7108592 40.4754931),,,pharmacy,,pharmacy,,,Calle de Melchor Fernández Almagro,84,28029,,,,-3.7108592,40.4754931,489,773,773
POINT (-3.7069843 40.4785121),,,pharmacy,,pharmacy,,,,,,,,,-3.7069843,40.4785121,469,4,4
POINT (-3.7126596 40.4784303),,,pharmacy,,pharmacy,,,Avenida de Betanzos,61,28029,,,,-3.7126596,40.4784303,466,10,10
POINT (-3.6982537 40.4779706),,,pharmacy,,pharmacy,,,Calle de Melchor Fernández Almagro,8,28029,,,,-3.6982537,40.4779706,-1,-1,-1
POINT (-3.7106687 40.4723365),,,pharmacy,,pharmacy,,,Calle de Ribadavia,9,28029,,,,-3.7106687,40.4723365,449,10,10
POINT (-3.7089677 40.476349),,,pharmacy,,pharmacy,,,Plaza de Redondela,3,28029,,,,-3.7089677,40.476349,-1,-1,-1
POINT (-3.699712 40.4874732),Cadillac Solitario,,bar,,,,,,,,,,,-3.699712,40.4874732,387,750,750
POINT (-3.7094244 40.4114612),Evo Banco,,bank,,,,,,,,,,,-3.7094244,40.4114612,1179,11,11
POINT (-3.7101786 40.4116487),El Viajero,,restaurant,,,,,Plaza de la Cebada,11,28005,,,,-3.7101786,40.4116487,1179,11,11
POINT (-3.7105359 40.4118381),Pez Tortilla,,pub,,,,,Calle de la Cava Baja,42,28005,,,local;spanish,-3.7105359,40.4118381,1179,11,11
POINT (-3.7103837 40.41178),La Tomasa,,pub,,,,,,,,,,,-3.7103837,40.41178,1179,11,11
POINT (-3.7106292 40.4118652),El Bonanno,,pub,,,,,Plaza del Humilladero,4,28005,,,,-3.7106292,40.4118652,1179,11,11
POINT (-3.7105933 40.412068),Que trabaje Rita,,restaurant,,,,,,,,,,,-3.7105933,40.412068,1179,11,11
POINT (-3.7109337 40.4118925),Cervecería San Andrés,,pub,,,,,,,,,,,-3.7109337,40.4118925,1179,11,11
POINT (-3.7117469 40.4131593),Tío Timón,,restaurant,,,,,Costanilla de San Andrés,8,28005,,,regional,-3.7117469,40.4131593,-1,-1,-1
POINT (-3.7127335 40.4137154),Taquería del Alamillo,,restaurant,,,,,,,,,,,-3.7127335,40.4137154,-1,-1,-1
POINT (-3.7126525 40.4135438),"Librería ""Arranca Thelma""",books,,,,,,,,,,,,-3.7126525,40.4135438,1075,906,906
POINT (-3.7129344 40.4130638),Bar Barocco,,bar,,,,,,,,,,,-3.7129344,40.4130638,1071,12,12
POINT (-3.7077499 40.4726288),,,pharmacy,,pharmacy,,,,,,,,,-3.7077499,40.4726288,-1,-1,-1
POINT (-3.7039056 40.4773454),,,pharmacy,,pharmacy,,,Calle de Ginzo de Limia,23,28029,,,,-3.7039056,40.4773454,477,13,13
POINT (-3.7060053 40.4807164),,,pharmacy,,pharmacy,,,,,,,,,-3.7060053,40.4807164,469,4,4
POINT (-3.7120611 40.4764767),,,pharmacy,,pharmacy,,,Calle de La Bañeza,3,28029,,,,-3.7120611,40.4764767,489,773,773
POINT (-3.6951618 40.5454203),Facultad de Ciencias,,university,,,,,,,,,,,-3.6951618,40.5454203,16,637,637
POINT (-3.6966059 40.5449246),Facultad de Ciencias Económicas y Empresariales,,university,,,,,Avenida de Francisco Tomás y Valiente,,,,,,-3.6966059,40.5449246,16,637,637
POINT (-3.6939836 40.4547254),Irish Rover,,pub,,,,,Avenida de Brasil,7,28020,,,,-3.6939836,40.4547254,746,14,14
POINT (-3.6967219 40.4634507),Centro de Especialidades José Marvá,,clinic,,clinic,,,Calle de Bravo Murillo,317,28020,,,,-3.6967219,40.4634507,865,15,15
POINT (-3.6890368 40.4556239),Lolita's,,pub,,,,,,,,,,,-3.6890368,40.4556239,617,810,810
POINT (-3.6754942 40.4634167),,,pharmacy,,pharmacy,,,,,,,,,-3.6754942,40.4634167,531,16,16
POINT (-3.690935 40.4719534),Lda. Marta Pérez Álvarez,,pharmacy,,pharmacy,,,Calle de Matilde Landa,7,28029,,,,-3.690935,40.4719534,-1,-1,-1
POINT (-3.6941494 40.4716608),Pueblos Unidos,,,,,ngo,,Calle de los Mártires de la Ventilla,103,28029,,,,-3.6941494,40.4716608,673,823,823
POINT (-3.6884698 40.4840464),,grocery,,,,,,,,,,,,-3.6884698,40.4840464,-1,-1,-1
POINT (-3.6887887 40.4847655),,,post_box,,,,,,,,Correos,Correos,,-3.6887887,40.4847655,372,17,17
POINT (-3.6852544 40.485413),Casa Ginés,,restaurant,,,,,,,,,,,-3.6852544,40.485413,377,18,18
POINT (-3.6875356 40.4844235),,,pharmacy,,pharmacy,,,Calle de Isidro Fernández,11,28034,,,,-3.6875356,40.4844235,-1,-1,-1
POINT (-3.6905678 40.4858413),,,pharmacy,,pharmacy,,,Calle de Virgen de Aránzazu,11,28034,,,,-3.6905678,40.4858413,372,17,17
POINT (-3.6926733 40.4857882),Mesón Gallego,,restaurant,,,,,,,,,,,-3.6926733,40.4857882,364,19,19
POINT (-3.6920333 40.4855645),Queen Burger Gourmet,,restaurant,,,,,Calle de San Modesto,34,28034,,,burger,-3.6920333,40.4855645,364,19,19
POINT (-3.6924531 40.4862924),tele-bocata,,restaurant,,,,,,,,,,,-3.6924531,40.4862924,364,19,19
POINT (-3.6922933 40.4860327),El Rincón de Salva II,,pub,,,,,,,,,,,-3.6922933,40.4860327,364,19,19
POINT (-3.6868649 40.4843585),,,restaurant,,,,,,,,,,,-3.6868649,40.4843585,376,20,20
POINT (-3.6870451 40.4844368),,,restaurant,,,,,,,,,,,-3.6870451,40.4844368,376,20,20
POINT (-3.6863802 40.4848128),,,pub,,,,,,,,,,,-3.6863802,40.4848128,-1,-1,-1
POINT (-3.6853156 40.4854456),La Muralla,,pub,,,,,,,,,,,-3.6853156,40.4854456,377,18,18
POINT (-3.6863931 40.4859346),Bar Acueducto,,pub,,,,,,,,,,,-3.6863931,40.4859346,-1,-1,-1
POINT (-3.689688 40.4869313),Oficina de Correos,,post_office,,,,,Calle de Virgen de Aránzazu,31,28034,Correos,Correos,,-3.689688,40.4869313,372,17,17
POINT (-3.6862337 40.4858578),Floralbir,florist,,,,,,,,,,,,-3.6862337,40.4858578,-1,-1,-1
POINT (-3.6865262 40.4859986),Exp. nº 326,tobacco,,,,,,,,,,,,-3.6865262,40.4859986,-1,-1,-1
POINT (-3.6871567 40.484238),Peluquería caballeros Florencio,hairdresser,,,,,,,,,,,,-3.6871567,40.484238,376,20,20
POINT (-3.6895993 40.485544),Casa Mouriño,,restaurant,,,,,,,,,,,-3.6895993,40.485544,372,17,17
POINT (-3.6903822 40.4860809),chinos alimentación,convenience,,,,,,,,,,,,-3.6903822,40.4860809,372,17,17
POINT (-3.6883678 40.485625),Carnicería Pollería José Martin,butcher,,,,,,Calle de San Dacio,23,28034,,,,-3.6883678,40.485625,372,17,17
POINT (-3.6852389 40.4845853),,kiosk,,,,,,,,,,,,-3.6852389,40.4845853,377,18,18
POINT (-3.68482 40.4849065),Tapería de Fuencarral,,restaurant,,,,,,,,,,,-3.68482,40.4849065,377,18,18
POINT (-3.6854466 40.4850146),,,veterinary,,,,,,,,,,,-3.6854466,40.4850146,377,18,18
POINT (-3.6902926 40.4857917),"Bar ""La Toledana""",,pub,,,,,,,,,,,-3.6902926,40.4857917,372,17,17
POINT (-3.6901398 40.4859586),"Habitaciones ""Aránzazu""",,,hostel,,,,,,,,,,-3.6901398,40.4859586,372,17,17
POINT (-3.6902918 40.4854304),Dia,supermarket,,,,,,Calle Virgen de Aránzazu,3,28034,Dia,,,-3.6902918,40.4854304,372,17,17
POINT (-3.6900576 40.4865637),Globalpiso,seafood,,,,,,,,,,,,-3.6900576,40.4865637,372,17,17
POINT (-3.6903559 40.4865441),Exp. nº 148,tobacco,,,,,,,,,,,,-3.6903559,40.4865441,372,17,17
POINT (-3.6907459 40.4859643),,bakery,,,,,,,,,,,,-3.6907459,40.4859643,372,17,17
POINT (-3.6890846 40.487335),Positivo gastrobar,,pub,,,,,,,,,,,-3.6890846,40.487335,372,17,17
POINT (-3.6895729 40.487095),Las Torres,,pub,,,,,,,,,,,-3.6895729,40.487095,372,17,17
POINT (-3.7173167 40.4473599),La friolera,,pub,,,,,,,,,,,-3.7173167,40.4473599,588,21,21
POINT (-3.7176804 40.4474125),,kiosk,,,,,,,,,,,,-3.7176804,40.4474125,588,21,21
POINT (-3.716618 40.4485397),,,post_box,,,,,,,,Correos,Correos,,-3.716618,40.4485397,-1,-1,-1
POINT (-3.7149013 40.4463777),Condemar,,cafe,,,,,,,,,,,-3.7149013,40.4463777,-1,-1,-1
POINT (-3.7144127 40.4466867),,,pharmacy,,,,,Calle del Conde de la Cimera,2,28040,,,,-3.7144127,40.4466867,-1,-1,-1
POINT (-3.714308 40.4468248),Taberna la Tortuga,,restaurant,,,,,,,,,,,-3.714308,40.4468248,-1,-1,-1
POINT (-3.7141298 40.4465597),,butcher,,,,,,,,,,,,-3.7141298,40.4465597,742,841,841
POINT (-3.7136781 40.4467104),Estanco,tobacco,,,,,,,,,,,,-3.7136781,40.4467104,742,841,841
POINT (-3.7156961 40.4480906),,,pharmacy,,pharmacy,,,Calle Beatriz de Bobadilla,11,28040,,,,-3.7156961,40.4480906,-1,-1,-1
POINT (-3.7127513 40.4483577),Metropolitano,,,,,,sports_centre,,,,,,,-3.7127513,40.4483577,-1,-1,-1
POINT (-3.7119678 40.4471184),Dia,supermarket,,,,,,Calle de Juan Montalvo,21,28040,Dia,,,-3.7119678,40.4471184,-1,-1,-1
POINT (-3.6903193 40.4875148),Bar Derby,,pub,,,,,,,,,,,-3.6903193,40.4875148,372,17,17
POINT (-3.6898562 40.4873888),Frutería,supermarket,,,,,,,,,,,,-3.6898562,40.4873888,372,17,17
POINT (-3.6897821 40.4874481),La Caixa,,atm,,,,,,,,La Caixa,La Caixa,,-3.6897821,40.4874481,372,17,17
POINT (-3.6892489 40.4868023),Restaurante otavaleño,,restaurant,,,,,,,,,,equatorian,-3.6892489,40.4868023,372,17,17
POINT (-3.6887967 40.4864013),M-KOR,supermarket,,,,,,,,,,,,-3.6887967,40.4864013,372,17,17
POINT (-3.6892715 40.4858345),Taller T y J,car_repair,,,,,,,,,,,,-3.6892715,40.4858345,372,17,17
POINT (-3.6894525 40.4858434),MultiPan's,bakery,,,,,,,,,,,,-3.6894525,40.4858434,372,17,17
POINT (-3.6897017 40.4861194),Caixabank,,atm,,,,,,,,Caixabank,Caixabank,,-3.6897017,40.4861194,372,17,17
POINT (-3.6898293 40.4859977),"Pollos ""El Sabroso""",,fast_food,,,,,,,,,,,-3.6898293,40.4859977,372,17,17
POINT (-3.6901201 40.4860185),Ferretería JA,hardware,,,,,,,,,,,,-3.6901201,40.4860185,372,17,17
POINT (-3.6890489 40.4870215),Ferretería de Aluminio Carmetal,hardware,,,,,,,,,,,,-3.6890489,40.4870215,372,17,17
POINT (-3.6893842 40.4865081),"Supermercado ""GAMA""",supermarket,,,,,,,,,,,,-3.6893842,40.4865081,372,17,17
POINT (-3.6893885 40.4866367),Clínica Dental,,dentist,,dentist,,,,,,,,,-3.6893885,40.4866367,372,17,17
POINT (-3.6892626 40.4864428),"Frutería ""María del Mar""",greengrocer,,,,,,,,,,,,-3.6892626,40.4864428,372,17,17
POINT (-3.6905682 40.4861016),dentista,,dentist,,dentist,,,,,,,,,-3.6905682,40.4861016,372,17,17
POINT (-3.6899996 40.4856407),Clínica Dental Dra. Ceballos,,clinic,,clinic,,,,,,,,,-3.6899996,40.4856407,372,17,17
POINT (-3.6896661 40.4855764),"Pensión ""Mónica""",,,hostel,,,,,,,,,,-3.6896661,40.4855764,372,17,17
POINT (-3.6895029 40.4854963),Restaurante Fereva,,restaurant,,,,,,,,,,,-3.6895029,40.4854963,372,17,17
POINT (-3.6883279 40.4839533),"Panadería pastelería ""Marines""",bakery,,,,,,,,,,,,-3.6883279,40.4839533,-1,-1,-1
POINT (-3.68723 40.4845081),"Pan y bebidas ""José María""",bakery,,,,,,,,,,,,-3.68723,40.4845081,376,20,20
POINT (-3.6868917 40.4849503),"Bar ""annais""",,pub,,,,,,,,,,,-3.6868917,40.4849503,376,20,20
POINT (-3.6877452 40.4851104),Food Basics,supermarket,,,,,,,,,Food Basics,,,-3.6877452,40.4851104,-1,-1,-1
POINT (-3.6988043 40.477954),,,pharmacy,,pharmacy,,,Calle de Melchor Fernández Almagro,12,28029,,,,-3.6988043,40.477954,425,22,22
POINT (-3.6994592 40.4759151),,,pharmacy,,pharmacy,,,Calle de Villa de Marín,4,28029,,,,-3.6994592,40.4759151,-1,-1,-1
POINT (-3.6937516 40.4877305),,kiosk,,,,,,,,,,,,-3.6937516,40.4877305,366,19,19
POINT (-3.6927429 40.4860015),Servired,,atm,,,,,,,,BBVA,BBVA,,-3.6927429,40.4860015,364,19,19
POINT (-3.6691465 40.422598),Museo Casa de la Moneda,,,museum,,,,Calle del Doctor Esquerdo,36,28009,,,,-3.6691465,40.422598,-1,-1,-1
POINT (-3.7297735 40.4486523),Cafetería Filosofía,,restaurant,,,,,,,,,,,-3.7297735,40.4486523,86,23,23
POINT (-3.7059758 40.4766852),,,pharmacy,,pharmacy,,,Plaza de Padrón,1,28029,,,,-3.7059758,40.4766852,483,24,24
POINT (-3.6852867 40.4841061),Centro de Salud Virgen Begoña,,clinic,,clinic,,,,,,,,,-3.6852867,40.4841061,-1,-1,-1
POINT (-3.6911438 40.4074382),,,pharmacy,,pharmacy,,,,,,,,,-3.6911438,40.4074382,-1,-1,-1
POINT (-3.6926831 40.4096055),McDonald's,,fast_food,,,,,Calle de Atocha,127,28012,McDonald's,,burger,-3.6926831,40.4096055,-1,-1,-1
POINT (-3.6917429 40.4093955),Quiosco Prado,kiosk,,,,,,,,,,,,-3.6917429,40.4093955,-1,-1,-1
POINT (-3.6928352 40.4098332),NH Nacional,,,hotel,,,,Paseo del Prado,48,28014,,,,-3.6928352,40.4098332,1073,25,25
POINT (-3.6956565 40.4104639),Pizza Capasso,,fast_food,,,,,,,,,,,-3.6956565,40.4104639,-1,-1,-1
POINT (-3.6966965 40.4109882),Gujarat,,pub,,,,,,,,,,,-3.6966965,40.4109882,1132,915,915
POINT (-3.6967784 40.4110395),Alcampo,supermarket,,,,,,,,,Alcampo,,,-3.6967784,40.4110395,1132,915,915
POINT (-3.6968537 40.4110728),,variety_store,,,,,,,,,,,,-3.6968537,40.4110728,1132,915,915
POINT (-3.6979403 40.4116383),Diego,,bar,,,,,,,,,,,-3.6979403,40.4116383,1195,26,26
POINT (-3.6978097 40.4115676),Fuente de la Fama,,restaurant,,,,,,,,,,,-3.6978097,40.4115676,1195,26,26
POINT (-3.6961428 40.4109761),Casa Pajuelo,deli,,,,,,,,,,,,-3.6961428,40.4109761,-1,-1,-1
POINT (-3.6957127 40.4108575),Casablanca,,pub,,,,,,,,,,,-3.6957127,40.4108575,1135,27,27
POINT (-3.69567 40.4112109),A Cañada,,restaurant,,,,,Calle de Fúcar,20,,,,,-3.69567,40.4112109,1135,27,27
POINT (-3.6956831 40.4117497),Lda. María Carmen Lejeune Dopico,,pharmacy,,pharmacy,,,Calle de Fúcar,10,28014,,,,-3.6956831,40.4117497,1135,27,27
POINT (-3.695567 40.4125053),Alimentación Mantequería,convenience,,,,,,Calle de Fúcar,1,,,,,-3.695567,40.4125053,1104,911,911
POINT (-3.6956871 40.412496),La Tabernita de San Juan,,pub,,,,,,,,,,,-3.6956871,40.412496,1104,911,911
POINT (-3.6961583 40.4124453),Fever,,bar,,,,,,,,,,,-3.6961583,40.4124453,1104,911,911
POINT (-3.6963071 40.412427),Arrocería Gala,,restaurant,,,,,,,,,,,-3.6963071,40.412427,1104,911,911
POINT (-3.6943165 40.4127079),La Platería,,pub,,,,,Calle de Moratín,49,28014,,,,-3.6943165,40.4127079,-1,-1,-1
POINT (-3.6938445 40.4126615),,kiosk,,,,,,,,,,,,-3.6938445,40.4126615,1072,904,904
POINT (-3.6939658 40.4122937),El Fogón Verde,,restaurant,,,,,Calle de la Alameda,4,28014,,,spanish,-3.6939658,40.4122937,1072,904,904
POINT (-3.6943236 40.4114334),Hotel México,,,hotel,,,,,,,,,,-3.6943236,40.4114334,-1,-1,-1
POINT (-3.6947372 40.4110206),Chinos,supermarket,,,,,,,,,,,,-3.6947372,40.4110206,1141,28,28
POINT (-3.6933431 40.4108079),,music,,,,,,,,,,,,-3.6933431,40.4108079,-1,-1,-1
POINT (-3.695685 40.4128038),La Hidria,,bar,,,,,,,,,,,-3.695685,40.4128038,1104,911,911
POINT (-3.6956873 40.4129838),La Esquina,,bar,,,,,,,,,,,-3.6956873,40.4129838,1104,911,911
POINT (-3.6951865 40.4125537),Moratin 40,,restaurant,,,,,Calle de Moratín,40,28014,,,,-3.6951865,40.4125537,1104,911,911
POINT (-3.6949558 40.4125743),,vacant,,,,,,Calle de Moratín,42,,,,,-3.6949558,40.4125743,1104,911,911
POINT (-3.6953428 40.4129173),Dia,supermarket,,,,,,Calle de las Huertas,,,Dia,DIA,,-3.6953428,40.4129173,1104,911,911
POINT (-3.6957012 40.413178),El Diario,,bar,,,,,Calle de las Huertas,69,28014,,,,-3.6957012,40.413178,1104,911,911
POINT (-3.6956999 40.4136254),La Fábrica,,bar,,,,,Calle de Jesús,2,28014,,,,-3.6956999,40.4136254,1104,911,911
POINT (-3.6957073 40.4135119),Los Gatos,,bar,,,,,,,,,,,-3.6957073,40.4135119,1104,911,911
POINT (-3.695701 40.4133633),La Anchoíta,,bar,,,,,,,,,,,-3.695701,40.4133633,1104,911,911
POINT (-3.6957085 40.4134319),El Rábano,,restaurant,,,,,,,,,,,-3.6957085,40.4134319,1104,911,911
POINT (-3.6954498 40.4136017),,,post_box,,,,,,,,Correos,Correos,,-3.6954498,40.4136017,1104,911,911
POINT (-3.6960696 40.4136237),Terra Mundi,,restaurant,,,,,Calle de Lope de Vega,32,28014,,,regional,-3.6960696,40.4136237,1104,911,911
POINT (-3.6957781 40.4137383),Taberna de la Dolores,,pub,,,,,Plaza de Jesús,4,28014,,,,-3.6957781,40.4137383,1104,911,911
POINT (-3.6957942 40.4141167),Taberna de la Daniela,,bar,,,,,Plaza de Jesús,7,28014,,,,-3.6957942,40.4141167,-1,-1,-1
POINT (-3.6955895 40.4137787),"Parafarmacia, herbolario",,pharmacy,,pharmacy,,,,,,,,,-3.6955895,40.4137787,1104,911,911
POINT (-3.6955887 40.4137161),Granja Blanca,,pub,,,,,,,,,,,-3.6955887,40.4137161,1104,911,911
POINT (-3.6958434 40.414563),La Taberna de Jose,,pub,,,,,,,,,,,-3.6958434,40.414563,-1,-1,-1
POINT (-3.6958024 40.4154544),The Westin Palace,,,hotel,,,,Plaza de las Cortes,7,28014,Westin,Westin,,-3.6958024,40.4154544,880,29,29
POINT (-3.6970951 40.4159605),BBVA,,bank,,,,,Plaza de las Cortes,11,28014,BBVA,BBVA,,-3.6970951,40.4159605,-1,-1,-1
POINT (-3.6970821 40.4157301),Hotel Villa Real 5,,,hotel,,,,Plaza de las Cortes,10,28014,,,,-3.6970821,40.4157301,-1,-1,-1
POINT (-3.6970294 40.4152683),Caixabank,,bank,,,,,,,,Caixabank,,,-3.6970294,40.4152683,-1,-1,-1
POINT (-3.6966322 40.4169233),Edelweiss,,restaurant,,,,,,,,,,,-3.6966322,40.4169233,1037,30,30
POINT (-3.6965924 40.4171806),El Secreto de Castilla,,restaurant,,,,,,,,,,,-3.6965924,40.4171806,-1,-1,-1
POINT (-3.6966034 40.4173325),Sagardi,,restaurant,,,,,Calle de Jovellanos,3,28014,,,,-3.6966034,40.4173325,-1,-1,-1
POINT (-3.6969322 40.4168278),Hostal Olga,,,hotel,,,,,,,,,,-3.6969322,40.4168278,1037,30,30
POINT (-3.6970761 40.4168278),Bar,,pub,,,,,,,,,,,-3.6970761,40.4168278,1037,30,30
POINT (-3.6971908 40.416822),Vegetariano,,restaurant,,,,,,,,,,,-3.6971908,40.416822,1037,30,30
POINT (-3.6973366 40.4168084),,,cafe,,,,,,,,,,,-3.6973366,40.4168084,1037,30,30
POINT (-3.6961976 40.4182418),,,cafe,,,,,,,,,,,-3.6961976,40.4182418,944,31,31
POINT (-3.6962744 40.4180464),Cine Estudio,,cinema,,,,,,,,,,,-3.6962744,40.4180464,944,31,31
POINT (-3.6926507 40.418646),,,taxi,,,,,Paseo del Prado,,,,Ayuntamiento de Madrid,,-3.6926507,40.418646,733,32,32
POINT (-3.6899043 40.4237276),Biblioteca Nacional de España,,library,,,,,Paseo de Recoletos,20-22,28071,,,,-3.6899043,40.4237276,-1,-1,-1
POINT (-3.7022852 40.4044125),La Feria del Mar,seafood,,,,,,,,,,,,-3.7022852,40.4044125,1047,902,902
POINT (-3.7022372 40.4043334),Fórmula Nieto's,,pub,,,,,,,,,,,-3.7022372,40.4043334,1047,902,902
POINT (-3.7021908 40.4042641),Carnicería,butcher,,,,,,,,,,,,-3.7021908,40.4042641,1047,902,902
POINT (-3.7019736 40.4039813),Movileo.com,mobile_phone,,,,,,,,,,,,-3.7019736,40.4039813,1047,902,902
POINT (-3.7016814 40.4036196),Gilmar,,,,,estate_agent,,,,,,,,-3.7016814,40.4036196,1047,902,902
POINT (-3.701651 40.4035317),Döner Kebab,,fast_food,,,,,,,,,,,-3.701651,40.4035317,-1,-1,-1
POINT (-3.7011902 40.4029771),Chinos - alimentación,convenience,,,,,,,,,,,,-3.7011902,40.4029771,-1,-1,-1
POINT (-3.701739 40.4049613),Banco Santander,,bank,,,,,Glorieta de Embajadores,3,28012,Banco Santander,Santander,,-3.701739,40.4049613,-1,-1,-1
POINT (-3.7019897 40.4046885),Granier,bakery,cafe,,,,,Calle de Embajadores,55,28012,Granier,,coffee_shop,-3.7019897,40.4046885,1047,902,902
POINT (-3.7018264 40.4044417),La Verde Doncella,greengrocer,,,,,,,,,,,,-3.7018264,40.4044417,1047,902,902
POINT (-3.7015443 40.4041266),Los chiquitos,,pub,,,,,,,,,,,-3.7015443,40.4041266,1047,902,902
POINT (-3.7014278 40.4039506),Bar Díaz,,pub,,,,,,,,,,,-3.7014278,40.4039506,1047,902,902
POINT (-3.7013673 40.4041585),Alimentación,convenience,,,,,,,,,,,,-3.7013673,40.4041585,1047,902,902
POINT (-3.7009208 40.4040925),Uskar,,restaurant,,,,,,,,,,regional,-3.7009208,40.4040925,-1,-1,-1
POINT (-3.7015311 40.4051443),Dia,supermarket,,,,,,,,,Dia,,,-3.7015311,40.4051443,1050,33,33
POINT (-3.7014847 40.4047549),A Cañada,,restaurant,,,,,,,,,,,-3.7014847,40.4047549,-1,-1,-1
POINT (-3.7012155 40.4036812),La Sirena,frozen_food,,,,,,Calle de Embajadores,67,28012,La Sirena,,,-3.7012155,40.4036812,1047,902,902
POINT (-3.7011116 40.4035399),Arrenda,,,,,estate_agent,,Calle de Embajadores,69,28012,,,,-3.7011116,40.4035399,-1,-1,-1
POINT (-3.7001622 40.4037836),El encuentro,,cafe,,,,,,,,,,,-3.7001622,40.4037836,-1,-1,-1
POINT (-3.7000905 40.403803),El Encuentro,,pub,,,,,,,,,,,-3.7000905,40.403803,-1,-1,-1
POINT (-3.6995978 40.4037373),El Valle,,restaurant,,,,,Calle de Sebastián Herrera,6,28012,,,spanish,-3.6995978,40.4037373,-1,-1,-1
POINT (-3.7011604 40.4040328),Chinos - alimentación,convenience,,,,,,,,,,,,-3.7011604,40.4040328,1047,902,902
POINT (-3.6986721 40.4049362),Tia Julia,,restaurant,,,,,,,,,,,-3.6986721,40.4049362,-1,-1,-1
POINT (-3.6973199 40.4051914),Ramen Kagura,,restaurant,,,,,Calle de José Antonio Armona,12,28012,,,ramen,-3.6973199,40.4051914,-1,-1,-1
POINT (-3.6980734 40.4061261),Chinos - alimentación,convenience,,,,,,,,,,,,-3.6980734,40.4061261,-1,-1,-1
POINT (-3.6971953 40.4050149),Granadilla,,pub,,,,,,,,,,,-3.6971953,40.4050149,-1,-1,-1
POINT (-3.6974369 40.4027377),Telepizza,,fast_food,,,,,,,,Telepizza,,pizza,-3.6974369,40.4027377,-1,-1,-1
POINT (-3.696878 40.4028283),Mercadona,supermarket,,,,,,,,,Mercadona,,,-3.696878,40.4028283,-1,-1,-1
POINT (-3.6968298 40.4034105),BBVA,,bank,,,,,,,,BBVA,,,-3.6968298,40.4034105,-1,-1,-1
POINT (-3.6967265 40.4034965),Asociación de Sordos de Madrid (ASM),,,,,association,,,,,,,,-3.6967265,40.4034965,970,891,891
POINT (-3.698188 40.4033056),,tobacco,,,,,,,,,,,,-3.698188,40.4033056,-1,-1,-1
POINT (-3.6959215 40.4041585),Bar Teide,,pub,,,,,Calle de las Delicias,2,28045,,,,-3.6959215,40.4041585,967,34,34
POINT (-3.6962581 40.4040199),Chinos - alimentación,convenience,,,,,,,,,,,,-3.6962581,40.4040199,-1,-1,-1
POINT (-3.6964406 40.4038286),Mama Teresa Burger,,restaurant,,,,,P.º de Sta. María de la Cabeza,35,28045,,,burger,-3.6964406,40.4038286,-1,-1,-1
POINT (-3.6956117 40.4047334),Chin Chin,,pub,,,,,Calle Batalla del Salado,1,28045,,,,-3.6956117,40.4047334,967,34,34
POINT (-3.6952969 40.4050712),Atocha Tandoori,,restaurant,,,,,Paseo de Santa María de la Cabeza,27,28045,,,indian,-3.6952969,40.4050712,-1,-1,-1
POINT (-3.6949384 40.4054539),redpiso arganzuela,,,,,estate_agent,,,,,,,,-3.6949384,40.4054539,-1,-1,-1
POINT (-3.6964274 40.4043696),Croquetería Ven y verás,,pub,,,,,,,,,,,-3.6964274,40.4043696,967,34,34
POINT (-3.6962338 40.404582),Alimentación,convenience,,,,,,,,,,,,-3.6962338,40.404582,967,34,34
POINT (-3.6962007 40.4046153),,hairdresser,,,,,,,,,,,,-3.6962007,40.4046153,967,34,34
POINT (-3.6961054 40.404721),,estate_agent,,,,,,,,,,,,-3.6961054,40.404721,967,34,34
POINT (-3.6960825 40.4047475),Exp. nº 84,tobacco,,,,,,,,,,,,-3.6960825,40.4047475,967,34,34
POINT (-3.6960055 40.4048223),Bar,,pub,,,,,,,,,,,-3.6960055,40.4048223,967,34,34
POINT (-3.6958776 40.4049622),La Caixa,,atm,,,,,,,,La Caixa,La Caixa,,-3.6958776,40.4049622,967,34,34
POINT (-3.6942996 40.4879991),Servired,,atm,,,,,,,,,Bankia,,-3.6942996,40.4879991,366,19,19
POINT (-3.6939829 40.487891),Servired,,atm,,,,,,,,,Bankia,,-3.6939829,40.487891,366,19,19
POINT (-3.7121513 40.4151603),La Mayor,,pub,,,,,Calle Mayor,77,28013,,,,-3.7121513,40.4151603,1069,35,35
POINT (-3.7125627 40.4152258),,,post_box,,,,,,,,Correos,Correos,,-3.7125627,40.4152258,-1,-1,-1
POINT (-3.7111315 40.4154876),Ssambar,,bar,,,,,Calle Mayor,74,28013,,,,-3.7111315,40.4154876,1069,35,35
POINT (-3.7117251 40.4153818),Mercado Jamón Ibérico,food,,,,,,Calle Mayor,80,28013,,,,-3.7117251,40.4153818,1069,35,35
POINT (-3.7118077 40.4151444),,,cafe,,,,,,,,,,,-3.7118077,40.4151444,1069,35,35
POINT (-3.7116415 40.4151622),Horno San Onofre,bakery,,,,,,,,,,,,-3.7116415,40.4151622,1069,35,35
POINT (-3.7115508 40.4152606),Arcade,,restaurant,,,,,Calle Mayor,73,28013,,,regional,-3.7115508,40.4152606,1069,35,35
POINT (-3.7102121 40.4156653),Cruz Blanca,,restaurant,,,,,Calle Mayor,68,28013,,,,-3.7102121,40.4156653,1217,35,35
POINT (-3.7099687 40.4155515),Jiao Jiao,,restaurant,,,,,,,,,,chinese,-3.7099687,40.4155515,1217,35,35
POINT (-3.709523 40.4156013),BBVA,,bank,,,,,Plaza de San Miguel,,28005,BBVA,BBVA,,-3.709523,40.4156013,-1,-1,-1
POINT (-3.709488 40.4154788),,,pharmacy,,pharmacy,,,Plaza de San Miguel,8,28005,,,,-3.709488,40.4154788,-1,-1,-1
POINT (-3.7094547 40.4153729),Taste Gallery,,restaurant,,,,,,,,,,,-3.7094547,40.4153729,1221,926,926
POINT (-3.7094269 40.4152466),Los Austrias,,veterinary,,,,,,,,,,,-3.7094269,40.4152466,1221,926,926
POINT (-3.7092046 40.4157426),SuperSano,convenience,,,,,,,,,,,,-3.7092046,40.4157426,1221,926,926
POINT (-3.7104348 40.4163669),Taberneros,,restaurant,,,,,Calle de Santiago,9,28013,,,,-3.7104348,40.4163669,-1,-1,-1
POINT (-3.7106873 40.4164826),Arbonaida,,restaurant,,,,,Calle de Santiago,11,28013,,,,-3.7106873,40.4164826,-1,-1,-1
POINT (-3.7085285 40.416073),Velicia,,bar,,,,,Calle Mayor,42,28013,,,,-3.7085285,40.416073,1225,35,35
POINT (-3.7081195 40.4160241),Santander,,atm,,,,,,,,Banco Santander,Banco Santander,,-3.7081195,40.4160241,1225,35,35
POINT (-3.7084882 40.4177059),Banco Santander,,bank,,,,,Calle del Arenal,19,28013,Banco Santander,,,-3.7084882,40.4177059,1244,36,36
POINT (-3.706803 40.4167707),Chocolatería San Ginés,,cafe,,,,,Pasadizo de San Ginés,5,28013,,,coffee_shop,-3.706803,40.4167707,-1,-1,-1
POINT (-3.7069412 40.4166338),Yambala,,pub,,,,,Calle de Coloreros,4,28013,,,,-3.7069412,40.4166338,1230,37,37
POINT (-3.7068957 40.4163626),La Caixa,,atm,,,,,,,,La Caixa,La Caixa,,-3.7068957,40.4163626,-1,-1,-1
POINT (-3.7075072 40.4161161),Grazie Mille,,restaurant,,,,,,,,,,,-3.7075072,40.4161161,-1,-1,-1
POINT (-3.7062395 40.4162754),,,pharmacy,,pharmacy,,,Calle Mayor,13,28013,,,,-3.7062395,40.4162754,-1,-1,-1
POINT (-3.7059297 40.4163439),,,post_box,,,,,,,,Correos,Correos,,-3.7059297,40.4163439,1204,35,35
POINT (-3.7057872 40.4161692),Santander,,atm,,,,,,,,Banco Santander,Banco Santander,,-3.7057872,40.4161692,-1,-1,-1
POINT (-3.7054341 40.4163777),Telebanco 4B,,atm,,,,,,,,,Banco Popular,,-3.7054341,40.4163777,1204,35,35
POINT (-3.7050598 40.4160273),Burger King,,fast_food,,,,,Calle de Esparteros,3,28012,Burger King,,burger,-3.7050598,40.4160273,-1,-1,-1
POINT (-3.704493 40.4164854),KFC,,fast_food,,,,,,,,KFC,,chicken,-3.704493,40.4164854,1175,38,38
POINT (-3.7044352 40.4165025),BBVA,,atm,,,,,,,,BBVA,BBVA,,-3.7044352,40.4165025,1175,38,38
POINT (-3.7089054 40.4177493),opera:pizza,,fast_food,,,,,Calle del Arenal,23,28013,,,pizza,-3.7089054,40.4177493,-1,-1,-1
POINT (-3.7092982 40.4177572),,convenience,,,,,,,,,,,,-3.7092982,40.4177572,-1,-1,-1
POINT (-3.7087248 40.4180474),,convenience,,,,,,,,,,,,-3.7087248,40.4180474,-1,-1,-1
POINT (-3.7088597 40.4187713),,convenience,,,,,,,,,,,,-3.7088597,40.4187713,1255,39,39
POINT (-3.7090308 40.4186369),Entre suspiro y suspiro,,restaurant,,,,,Calle de Caños del Peral,3,28013,,,mexican,-3.7090308,40.4186369,-1,-1,-1
POINT (-3.7089327 40.4185506),Ópera Victoria,,restaurant,,,,,Calle de Caños del Peral,2,28013,,,,-3.7089327,40.4185506,-1,-1,-1
POINT (-3.7086559 40.4188918),Discoteca Olimpia,,bar,,,,,Calle de Caños del Peral,7,28013,,,,-3.7086559,40.4188918,1255,39,39
POINT (-3.7081865 40.4192196),Are you ready?,cosmetics,,,,,,,,,,,,-3.7081865,40.4192196,-1,-1,-1
POINT (-3.7077336 40.4195999),Wok King,,restaurant,,,,,Calle de las Veneras,9,28013,,,chinese,-3.7077336,40.4195999,1272,930,930
POINT (-3.7080852 40.4196858),,convenience,,,,,,,,,,,,-3.7080852,40.4196858,1272,930,930
POINT (-3.7080551 40.4191426),,greengrocer,,,,,,,,,,,,-3.7080551,40.4191426,1265,40,40
POINT (-3.7082433 40.4186643),Taberna de los Ángeles,,restaurant,,,,,Costanilla de los Ángeles,8,28013,,,,-3.7082433,40.4186643,1265,40,40
POINT (-3.7074213 40.4196853),Hotel Preciados,,,hotel,,,,Calle Preciados,37,28013,,,,-3.7074213,40.4196853,1272,930,930
POINT (-3.7070086 40.4196449),Prep‘ la Crêpe,,restaurant,,,,,Calle Preciados,33,28013,,,crepes,-3.7070086,40.4196449,1273,41,41
POINT (-3.7074836 40.4192413),Cervercería Erte,,pub,,,,,Calle de las Veneras,,28013,,,,-3.7074836,40.4192413,1272,930,930
POINT (-3.7077233 40.4189334),,,pub,,,,,,,,,,,-3.7077233,40.4189334,-1,-1,-1
POINT (-3.7066997 40.4186548),Palacio San Martín,,,hotel,,,,Plaza de San Martín,5,28013,,Intur,,-3.7066997,40.4186548,-1,-1,-1
POINT (-3.7063377 40.4190798),Doña Juana cervecería,,pub,,,,,Calle del Postigo de San Martín,5,28013,,,,-3.7063377,40.4190798,1269,42,42
POINT (-3.704916 40.4187951),Viandas de Salamanca,deli,,,,,,Calle del Carmen,27,28013,,,,-3.704916,40.4187951,1270,43,43
POINT (-3.7046339 40.418129),Farmacia 24 horas,,pharmacy,,pharmacy,,,Calle Preciados,14,28013,,,,-3.7046339,40.418129,1267,41,41
POINT (-3.7041565 40.418096),Telebanco 4B,,atm,,,,,,,,Banco Santander,Banco Santander,,-3.7041565,40.418096,1270,43,43
POINT (-3.7043155 40.4181423),Petit Palace Preciados,,,hotel,,,,Calle de Galdo,2,28013,Petit Palace Hotelity,Hoteatelier,,-3.7043155,40.4181423,1270,43,43
POINT (-3.7035489 40.4175269),Hotel Europa,,,hotel,,,,Calle del Carmen,4,28013,,,,-3.7035489,40.4175269,-1,-1,-1
POINT (-3.7031236 40.418183),El Gaucho,,restaurant,,,,,Calle de Tetuán,34,28013,,,,-3.7031236,40.418183,1276,44,44
POINT (-3.7034663 40.4178368),,convenience,,,,,,,,,,,,-3.7034663,40.4178368,1278,45,45
POINT (-3.7029353 40.4184455),,vacant,,,,,,,,,,,,-3.7029353,40.4184455,-1,-1,-1
POINT (-3.7034827 40.4185047),Vianvi,,cafe,,,,,,,,,,,-3.7034827,40.4185047,-1,-1,-1
POINT (-3.7039628 40.4187423),Hotel Liabeny,,,hotel,,,,Calle de la Salud,3,28013,,,,-3.7039628,40.4187423,-1,-1,-1
POINT (-3.7028511 40.4189577),Petit Palace Plaza del Carmen,,,hotel,,,,Plaza del Carmen,4,28013,Petit Palace Hotelity,Hotelatelier,,-3.7028511,40.4189577,-1,-1,-1
POINT (-3.7029076 40.419207),Artemisa,,restaurant,,,,,Calle de las Tres Cruces,4,28013,,,,-3.7029076,40.419207,1159,46,46
POINT (-3.7026244 40.4195823),Teatro Príncipe Gran Vía,,theatre,,,,,Calle de las Tres Cruces,8,,,,,-3.7026244,40.4195823,1159,46,46
POINT (-3.7030373 40.4192843),Anaco,,,hotel,,,,Calle de las Tres Cruces,3,28013,,,,-3.7030373,40.4192843,1159,46,46
POINT (-3.7029579 40.4193933),,convenience,,,,,,,,,,,,-3.7029579,40.4193933,1159,46,46
POINT (-3.7031275 40.419776),Hotel Arosa,,,hotel,,,,Calle de la Salud,21,28013,,,,-3.7031275,40.419776,1159,46,46
POINT (-3.7032509 40.4199471),Casa del Libro,books,,,,,,Gran Vía,29,28013,Casa del Libro,,,-3.7032509,40.4199471,-1,-1,-1
POINT (-3.7039069 40.4191018),,,bar,,,,,,,,,,,-3.7039069,40.4191018,1156,918,918
POINT (-3.7037389 40.418948),Takos Al Pastor,,restaurant,,,,,Calle Abada,2,28013,,,mexican,-3.7037389,40.418948,-1,-1,-1
POINT (-3.703326 40.4193676),OVNI,,cafe,,,,,Calle de la Salud,13,28013,,,,-3.703326,40.4193676,1160,46,46
POINT (-3.7040573 40.4193117),,,pub,,,,,,,,,,,-3.7040573,40.4193117,1156,918,918
POINT (-3.7038692 40.4199982),Skechers,shoes,,,,,,,,,,,,-3.7038692,40.4199982,-1,-1,-1
POINT (-3.7043567 40.4192335),Hotel II Castillas,,,hotel,,,,Calle Abada,8,28013,,,,-3.7043567,40.4192335,1156,918,918
POINT (-3.7029282 40.4202714),Pans & Company,,fast_food,,,,,,,,Pans & Company,,sandwich,-3.7029282,40.4202714,1154,47,47
POINT (-3.7028563 40.4202661),Starbucks,,cafe,,,,,,,,Starbucks,,coffee_shop,-3.7028563,40.4202661,1154,47,47
POINT (-3.7045921 40.420392),Hotel Atlántico,,,hotel,,,,Gran Vía,38,28013,,,,-3.7045921,40.420392,-1,-1,-1
POINT (-3.7049789 40.4204138),Burger King,,fast_food,,,,,Gran Vía,40,28013,Burger King,,burger,-3.7049789,40.4204138,-1,-1,-1
POINT (-3.7052856 40.4204361),Ray-Ban Madrid,fashion_accessories,,,,,,Gran Vía,42,28013,Ray-Ban,,,-3.7052856,40.4204361,1301,47,47
POINT (-3.7058085 40.4194819),Rodilla,,fast_food,,,,,,,,Rodilla,,sandwich,-3.7058085,40.4194819,-1,-1,-1
POINT (-3.7066782 40.4205118),Cine Capitol,,cinema,,,,,,,,,,,-3.7066782,40.4205118,-1,-1,-1
POINT (-3.7068314 40.4205737),Ginos,,restaurant,,,,,Gran Vía,43,28013,Ginos,,italian,-3.7068314,40.4205737,-1,-1,-1
POINT (-3.7069568 40.4207682),,,post_box,,,,,,,,Correos,Correos,,-3.7069568,40.4207682,-1,-1,-1
POINT (-3.7096572 40.4224112),,convenience,,,,,,,,,,,,-3.7096572,40.4224112,1256,47,47
POINT (-3.6272678 40.4349449),,,post_box,,,,,,,,Correos,Correos,,-3.6272678,40.4349449,-1,-1,-1
POINT (-3.6254664 40.4332445),Caixabank,,bank,,,,,,,,Caixabank,,,-3.6254664,40.4332445,-1,-1,-1
POINT (-3.6177152 40.4382675),Europa,,pharmacy,,pharmacy,,,,,,,,,-3.6177152,40.4382675,-1,-1,-1
POINT (-3.617612 40.4386532),,,bank,,,,,,,,,,,-3.617612,40.4386532,-1,-1,-1
POINT (-3.6302875 40.4656622),Caixabank,,bank,,,,,,,,Caixabank,Caixabank,,-3.6302875,40.4656622,-1,-1,-1
POINT (-3.7080637 40.4839091),,,pharmacy,,pharmacy,,,,,,,,,-3.7080637,40.4839091,396,13,13
POINT (-3.631015 40.4481735),Banco Santander,,bank,,,,,,,,Banco Santander,,,-3.631015,40.4481735,111,48,48
POINT (-3.6371911 40.4423822),,,pharmacy,,pharmacy,,,Calle Conrado del Campo,5,28027,,,,-3.6371911,40.4423822,317,733,733
POINT (-3.6354236 40.4387505),Banco Santander,,bank,,,,,,,,Banco Santander,Santander,,-3.6354236,40.4387505,458,766,766
POINT (-3.7008624 40.4101569),Los Gamos,,pub,,,,,,,,,,,-3.7008624,40.4101569,-1,-1,-1
POINT (-3.7008582 40.4102862),Preity Raj,,restaurant,,,,,,,,,,,-3.7008582,40.4102862,1060,49,49
POINT (-3.7007429 40.4105707),La Aguja,,pub,,,,,,,,,,,-3.7007429,40.4105707,1055,49,49
POINT (-3.7004479 40.4109653),A Cañada,,restaurant,,,,,Calle del Ave María,17,28012,,,regional,-3.7004479,40.4109653,1055,49,49
POINT (-3.7004068 40.4110189),,hairdresser,,,,,,Calle del Ave María,17,28012,,,,-3.7004068,40.4110189,1055,49,49
POINT (-3.700326 40.4111374),Raja Mahal,,restaurant,,,,,Calle del Ave María,15,28012,,,indian,-3.700326,40.4111374,-1,-1,-1
POINT (-3.700589 40.4110886),Moharaj,,restaurant,,,,,,,,,,,-3.700589,40.4110886,1055,49,49
POINT (-3.7005322 40.4108202),Nap,,restaurant,,,,,Calle del Ave María,,28012,,,pizza,-3.7005322,40.4108202,1055,49,49
POINT (-3.7008747 40.4107264),Bombay Palace,,restaurant,,,,,,,,,,,-3.7008747,40.4107264,-1,-1,-1
POINT (-3.6999407 40.4098108),Ecooo,,,,,company,,,,,,,,-3.6999407,40.4098108,-1,-1,-1
POINT (-3.6995485 40.4101321),,,pub,,,,,,,,,,,-3.6995485,40.4101321,-1,-1,-1
POINT (-3.7009094 40.4096555),La Inquilina,,pub,,,,,Calle del Ave María,39,28012,,,,-3.7009094,40.4096555,1060,49,49
POINT (-3.7009194 40.4093708),,,restaurant,,,,,,,,,,,-3.7009194,40.4093708,1061,49,49
POINT (-3.7009059 40.4094201),Viva Chapata,,pub,,,,,Calle del Ave María,43,28012,,,,-3.7009059,40.4094201,1061,49,49
POINT (-3.7010845 40.4093334),Shisha-Tetería Babilonia,,pub,,,,,,,,,,,-3.7010845,40.4093334,1061,49,49
POINT (-3.6993951 40.4105463),El 15,,pub,,,,,,,,,,,-3.6993951,40.4105463,1169,50,50
POINT (-3.6994987 40.4107804),El Despertar,,cafe,,,,,,,,,,,-3.6994987,40.4107804,1169,50,50
POINT (-3.6996972 40.4115173),El Colmo,,cafe,,,,,,,,,,,-3.6996972,40.4115173,-1,-1,-1
POINT (-3.6995961 40.4115848),F.M.,,pub,,,,,,,,,,,-3.6995961,40.4115848,1210,51,51
POINT (-3.6994308 40.4114924),O'Barquiño,,restaurant,,,,,Calle de la Torrecilla del Leal,3,28012,,,,-3.6994308,40.4114924,-1,-1,-1
POINT (-3.700322 40.4117492),La Temeraria,,restaurant,,,,,Calle del Ave María,8,28012,,,italian;creative,-3.700322,40.4117492,-1,-1,-1
POINT (-3.700364 40.4116655),Taberna Garibaldi,,restaurant,,,,,,,,,,,-3.700364,40.4116655,-1,-1,-1
POINT (-3.7003917 40.4115875),Bodegas Alfaro,,pub,,,,,,,,,,,-3.7003917,40.4115875,-1,-1,-1
POINT (-3.7108742 40.4775054),,,pharmacy,,pharmacy,,,,,,,,,-3.7108742,40.4775054,479,52,52
POINT (-3.6226906 40.455063),Ginos,,restaurant,,,,,,,,Ginos,,italian,-3.6226906,40.455063,160,53,53
POINT (-3.622496 40.4550377),Wok,,restaurant,,,,,,,,,,,-3.622496,40.4550377,160,53,53
POINT (-3.6222587 40.4549871),Vips,,restaurant,,,,,,,,Vips,,international,-3.6222587,40.4549871,160,53,53
POINT (-3.6226101 40.4367886),Como Como Slow Food,,restaurant,,,,,Calle de Julián Camarillo,47,28037,,,international,-3.6226101,40.4367886,-1,-1,-1
POINT (-3.5807416 40.4698335),Ibis Madrid Aeropuerto Barajas,,,hotel,,,,Avenida General,49,28042,Ibis,,,-3.5807416,40.4698335,45,646,646
POINT (-3.6178172 40.4563958),Hipercor,supermarket,,,,,,Avenida de los Andes,50,28042,Hipercor,,,-3.6178172,40.4563958,160,53,53
POINT (-3.5799099 40.4709687),Hotel Clement Barajas,,,hotel,,,,Avenida General,43,,,,,-3.5799099,40.4709687,45,646,646
POINT (-3.6444322 40.4478236),,,pharmacy,,pharmacy,,,Calle Telémaco,8,28027,,,,-3.6444322,40.4478236,287,54,54
POINT (-3.6440234 40.4460782),,,pharmacy,,pharmacy,,,Calle de Fernández Caro,72,28027,,,,-3.6440234,40.4460782,-1,-1,-1
POINT (-3.6411778 40.445038),Restaurante Pico Pico,,restaurant,,,,,,,,,,,-3.6411778,40.445038,-1,-1,-1
POINT (-3.6403865 40.4445989),Asador Rías Bajas,,restaurant,,,,,,,,,,,-3.6403865,40.4445989,-1,-1,-1
POINT (-3.6412118 40.4426838),Banco Santander,,bank,,,,,,,,Banco Santander,Santander,,-3.6412118,40.4426838,344,55,55
POINT (-3.6384083 40.4424437),El Racó,,restaurant,,,,,,,,,,,-3.6384083,40.4424437,317,733,733
POINT (-3.6383442 40.4423564),Happiness,,restaurant,,,,,,,,,,,-3.6383442,40.4423564,317,733,733
POINT (-3.5819254 40.4716064),Centro de Salud de Barajas,,clinic,,clinic,,,,,,,,,-3.5819254,40.4716064,45,646,646
POINT (-3.5803968 40.4704992),Chutoro Madrid,,restaurant,,,,,,,,,,,-3.5803968,40.4704992,45,646,646
POINT (-3.5771263 40.4739074),La Plaza,,restaurant,,,,,,,,,,,-3.5771263,40.4739074,45,646,646
POINT (-3.5798455 40.4710865),Miravalles,,restaurant,,,,,,,,,,seafood;regional,-3.5798455,40.4710865,45,646,646
POINT (-3.5820736 40.4724032),Al Tran Tran,,restaurant,,,,,,,,,,,-3.5820736,40.4724032,45,646,646
POINT (-3.5820559 40.4723877),Al Tran Tran,,pub,,,,,,,,,,,-3.5820559,40.4723877,45,646,646
POINT (-3.6313812 40.4709165),Breaking Bar,,pub,,,,,,,28033,,,,-3.6313812,40.4709165,-1,-1,-1
POINT (-3.6390134 40.4763773),Bar Restaurante Miño,,pub,,,,,,,,,,,-3.6390134,40.4763773,-1,-1,-1
POINT (-3.6367311 40.4380852),Pinturas Murillo,paint,,,,,,,,,,,,-3.6367311,40.4380852,458,766,766
POINT (-3.6372999 40.4378811),Caixa Geral,,bank,,,,,,,,,,,-3.6372999,40.4378811,458,766,766
POINT (-3.6356333 40.4383732),,tobacco,,,,,,,,,,,,-3.6356333,40.4383732,458,766,766
POINT (-3.6371025 40.4379268),Banco Santander,,bank,,,,,,,,Banco Santander,Santander,,-3.6371025,40.4379268,458,766,766
POINT (-3.6373154 40.4382334),Jota Cinco,,restaurant,,,,,,,,,,,-3.6373154,40.4382334,458,766,766
POINT (-3.6373926 40.438217),Mamma Juana,,restaurant,,,,,,,,,,,-3.6373926,40.438217,458,766,766
POINT (-3.6376634 40.4381266),Banco Sabadell,,bank,,,,,,,,Banco Sabadell,,,-3.6376634,40.4381266,458,766,766
POINT (-3.6377347 40.4378363),,kiosk,,,,,,,,,,,,-3.6377347,40.4378363,458,766,766
POINT (-3.6380322 40.4382902),Unicaja Banco,,bank,,,,,,,,Unicaja Banco,,,-3.6380322,40.4382902,458,766,766
POINT (-3.6364268 40.4397488),Grant's,,restaurant,,,,,,,,,,,-3.6364268,40.4397488,-1,-1,-1
POINT (-3.6350442 40.4385381),,,pharmacy,,pharmacy,,,Calle de Alcalá,446,28027,,,,-3.6350442,40.4385381,458,766,766
POINT (-3.6349572 40.438863),Unicaja Banco,,bank,,,,,,,,Unicaja Banco,,,-3.6349572,40.438863,458,766,766
POINT (-3.6345604 40.4389703),Caixabank,,bank,,,,,,,,Caixabank,Caixabank,,-3.6345604,40.4389703,458,766,766
POINT (-3.6343578 40.4390259),BBK,,bank,,,,,,,,,,,-3.6343578,40.4390259,458,766,766
POINT (-3.6324081 40.4398746),,kiosk,,,,,,,,,,,,-3.6324081,40.4398746,-1,-1,-1
POINT (-3.6335757 40.4392346),Ibercaja,,bank,,,,,,,,Ibercaja,Ibercaja,,-3.6335757,40.4392346,458,766,766
POINT (-3.6339221 40.439144),,tobacco,,,,,,,,,,,,-3.6339221,40.439144,458,766,766
POINT (-3.6342102 40.4390614),BBVA,,bank,,,,,,,,BBVA,BBVA,,-3.6342102,40.4390614,458,766,766
POINT (-3.6350033 40.4381168),,kiosk,,,,,,,,,,,,-3.6350033,40.4381168,458,766,766
POINT (-3.6373156 40.4373015),,,pharmacy,,pharmacy,,,Calle de los Hermanos García Noblejas,7,28037,,,,-3.6373156,40.4373015,458,766,766
POINT (-3.6373847 40.4373888),Caixabank,,bank,,,,,,,,Caixabank,Caixabank,,-3.6373847,40.4373888,458,766,766
POINT (-3.6369484 40.4367912),BBVA,,bank,,,,,,,,BBVA,BBVA,,-3.6369484,40.4367912,-1,-1,-1
POINT (-3.6370092 40.4375703),Go,,restaurant,,,,,,,,,,asian,-3.6370092,40.4375703,458,766,766
POINT (-3.6345377 40.443889),Matsuri,,restaurant,,,,,Calle López de Aranda,38,,,,asian,-3.6345377,40.443889,276,721,721
POINT (-3.6344424 40.4439935),Unus,,restaurant,,,,,,,,,,,-3.6344424,40.4439935,276,721,721
POINT (-3.6343156 40.4440493),Carlos,,restaurant,,,,,,,,,,,-3.6343156,40.4440493,276,721,721
POINT (-3.6341149 40.4441386),El Ratito,,restaurant,,,,,,,,,,,-3.6341149,40.4441386,276,721,721
POINT (-3.6341303 40.4447687),La Plaza de DIA,supermarket,,,,,,,,,La Plaza de DIA,,,-3.6341303,40.4447687,276,721,721
POINT (-3.6346069 40.4445466),Eu Mundo,,restaurant,,,,,,,,,,,-3.6346069,40.4445466,276,721,721
POINT (-3.6350701 40.4445265),Caixabank,,bank,,,,,,,,Caixabank,,,-3.6350701,40.4445265,276,721,721
POINT (-3.635335 40.4448785),Casa Tampico,,restaurant,,,,,,,,,,,-3.635335,40.4448785,276,721,721
POINT (-3.6344015 40.4454246),,,pharmacy,,pharmacy,,,Calle de Tumaco,20,28027,,,,-3.6344015,40.4454246,276,721,721
POINT (-3.6365321 40.4472773),Caixa Geral,,bank,,,,,Calle de Juan Ignacio Luca de Tena,,,,,,-3.6365321,40.4472773,161,56,56
POINT (-3.6278933 40.4476313),,kiosk,,,,,,,,,,,,-3.6278933,40.4476313,111,48,48
POINT (-3.6888894 40.4234289),Museo Arqueológico Nacional,,,museum,,,,Calle de Serrano,13,28001,,,,-3.6888894,40.4234289,-1,-1,-1
POINT (-3.7325331 40.4010947),,,,viewpoint,,,,,,,,,,-3.7325331,40.4010947,-1,-1,-1
POINT (-3.7851767 40.4488342),,,post_box,,,,,Calle de la Golondrina,,,Correos,Correos,,-3.7851767,40.4488342,-1,-1,-1
POINT (-3.676075 40.5021915),,,pharmacy,,pharmacy,,,Calle Puente la Reina,12,28050,,,,-3.676075,40.5021915,147,681,681
POINT (-3.7111777 40.4006993),,,pharmacy,,pharmacy,,,Calle de Carmen Cobeña,5,28005,,,,-3.7111777,40.4006993,-1,-1,-1
POINT (-3.7088661 40.4778026),,,pharmacy,,pharmacy,,,Plaza de Verín,3,28029,,,,-3.7088661,40.4778026,468,4,4
POINT (-3.707423 40.476167),,,post_box,,,,,,,,Correos,Correos,,-3.707423,40.476167,-1,-1,-1
POINT (-3.7080393 40.4787611),,,post_box,,,,,,,,Correos,Correos,,-3.7080393,40.4787611,469,4,4
POINT (-3.6938712 40.4709234),Oficina de Correos,,post_office,,,,,Calle del Padre Rubio,43,28029,Oficina de Correos,Correos,,-3.6938712,40.4709234,-1,-1,-1
POINT (-3.7866978 40.4445042),Dia & Go,convenience,,,,,,Avenida de Europa,27,28023,Dia & Go,,,-3.7866978,40.4445042,29,57,57
POINT (-3.7847271 40.4479072),Farmacia Talgo,,pharmacy,,,,,Avenida del Talgo,206,28023,,,,-3.7847271,40.4479072,30,58,58
POINT (-3.7846942 40.4453295),Farmacia Victoria Caro,,pharmacy,,,,,Avenida de Europa,30,28023,,,,-3.7846942,40.4453295,29,57,57
POINT (-3.7849937 40.4512825),Molinaseca,supermarket,,,,,,,,,,,,-3.7849937,40.4512825,32,59,59
POINT (-3.7766234 40.521177),Palacio de El Pardo,,,attraction,,,,Calle Manuel Alonso,8,28048,,,,-3.7766234,40.521177,0,632,632
POINT (-3.7774345 40.5200567),Tío Antonio,,pub,,,,,,,,,,,-3.7774345,40.5200567,0,632,632
POINT (-3.7773737 40.5199058),Hermanos Rodríguez,,pub,,,,,,,,,,,-3.7773737,40.5199058,0,632,632
POINT (-3.7754372 40.5187667),La Montaña,,restaurant,,,,,,,,,,,-3.7754372,40.5187667,0,632,632
POINT (-3.7767025 40.5194084),Mesón del Pardo,,restaurant,,,,,,4,,,,,-3.7767025,40.5194084,0,632,632
POINT (-3.6757441 40.5059026),Canalla Tacos y Tragos,,restaurant,,,,,Calle de San Juan de Ortega,68,28050,,,,-3.6757441,40.5059026,154,684,684
POINT (-3.7071301 40.4785496),Uceda,,pub,,,,,,,,,,,-3.7071301,40.4785496,-1,-1,-1
POINT (-3.7846734 40.4473921),Supercor Exprés,convenience,,,,,,,,,Supercor,,,-3.7846734,40.4473921,31,643,643
POINT (-3.6872821 40.4605707),Alfredo's Barbacoa,,restaurant,,,,,Calle de Juan Hurtado de Mendoza,11,28036,,,burger,-3.6872821,40.4605707,636,60,60
POINT (-3.6676655 40.5060565),,,restaurant,,,,,,,,,,,-3.6676655,40.5060565,142,61,61
POINT (-3.7014682 40.4823061),Lima,,pub,,,,,,,,,,,-3.7014682,40.4823061,-1,-1,-1
POINT (-3.709978 40.4779466),Lemo's,,pub,,,,,,,,,,,-3.709978,40.4779466,479,52,52
POINT (-3.7059131 40.4743826),El 22,,pub,,,,,Avenida de El Ferrol,22,28029,,,,-3.7059131,40.4743826,433,62,62
POINT (-3.7054024 40.4740954),Petiscos Galegos,,restaurant,,,,,Avenida de El Ferrol,25,,,,galician,-3.7054024,40.4740954,433,62,62
POINT (-3.7046543 40.4741694),Altamira,,pub,,,,,Avenida de El Ferrol,,28029,,,,-3.7046543,40.4741694,433,62,62
POINT (-3.7031802 40.4747468),Niko's,,pub,,,,,Avenida de El Ferrol,2,28029,,,,-3.7031802,40.4747468,432,62,62
POINT (-3.7071302 40.4740748),San Antonio,,pub,,,,,,,,,,,-3.7071302,40.4740748,-1,-1,-1
POINT (-3.7070035 40.4740526),Auténtico Sabor Andaluz,,pub,,,,,,,,,,,-3.7070035,40.4740526,-1,-1,-1
POINT (-3.7068819 40.4763256),Casa Pepe,,pub,,,,,,,,,,,-3.7068819,40.4763256,484,22,22
POINT (-3.7062308 40.4787289),Burger King,,fast_food,,,,,,,,Burger King,,burger,-3.7062308,40.4787289,472,769,769
POINT (-3.707856 40.4794552),McDonald's,,fast_food,,,,,,,,McDonald's,,burger,-3.707856,40.4794552,469,4,4
POINT (-3.7085001 40.479773),Vips,,restaurant,,,,,,,,Vips,,international,-3.7085001,40.479773,469,4,4
POINT (-3.7083499 40.4793935),TGI Fridays,,restaurant,,,,,,,,TGI Fridays,,american,-3.7083499,40.4793935,469,4,4
POINT (-3.7183356 40.4804692),La Carabela,,pub,,,,,,,,,,,-3.7183356,40.4804692,405,63,63
POINT (-3.6768216 40.5044401),Dia,supermarket,,,,,,,,,Dia,,,-3.6768216,40.5044401,147,681,681
POINT (-3.6586609 40.4957951),Unicaja Banco,,bank,,,,,,,,Unicaja Banco,,,-3.6586609,40.4957951,125,674,674
POINT (-3.6675001 40.5090251),La Nicoletta,,restaurant,,,,,,,,,,italian,-3.6675001,40.5090251,142,61,61
POINT (-3.7067515 40.4743767),Pradena,,pub,,,,,Avenida de El Ferrol,32,28029,,,,-3.7067515,40.4743767,433,62,62
POINT (-3.7841258 40.4647933),Supercor Exprés,convenience,,,,,,,,,Supercor,,,-3.7841258,40.4647933,34,64,64
POINT (-3.6881339 40.4895942),Hotel VillaMadrid,,,hotel,,,,,,,,,,-3.6881339,40.4895942,-1,-1,-1
POINT (-3.6673737 40.5100394),Kobe,,restaurant,,,,,,,,,,,-3.6673737,40.5100394,142,61,61
POINT (-3.6662867 40.5051289),Farmacia Sana Las Tablas,,pharmacy,,pharmacy,,,,,,,,,-3.6662867,40.5051289,142,61,61
POINT (-3.6752771 40.5059616),,,pharmacy,,,,,Calle de Grañón,5,28050,,,,-3.6752771,40.5059616,154,684,684
POINT (-3.6719063 40.5050839),,,pharmacy,,pharmacy,,,Calle de Ages,2,28050,,,,-3.6719063,40.5050839,153,65,65
POINT (-3.6709914 40.5081627),Taberna La Bonica,,restaurant,,,,,,,,,,,-3.6709914,40.5081627,145,66,66
POINT (-3.7643136 40.3863802),Carrefour,supermarket,,,,,,Avenida de los Poblados,58,28044,Carrefour,Carrefour,,-3.7643136,40.3863802,227,67,67
POINT (-3.8366041 40.4761099),,,pharmacy,,,,,,,,,,,-3.8366041,40.4761099,13,68,68
POINT (-3.7501124 40.4075213),Colegio de Educación Infantil y Primaria Bolivia,,school,,,,,Calle de Villavaliente,29,28011,,Comunidad de Madrid,,-3.7501124,40.4075213,455,69,69
POINT (-3.5981296 40.4472065),Colegio de Educación Infantil y Primaria Ciudad Pegaso,,school,,,,,Avenida Séptima,12,28022,,Comunidad de Madrid,,-3.5981296,40.4472065,-1,-1,-1
POINT (-3.7622051 40.3628619),Colegio de Educación Especial María Soriano,,school,,,,,Avenida de la Peseta,22,28025,,Comunidad de Madrid,,-3.7622051,40.3628619,-1,-1,-1
POINT (-3.6508507 40.443436),Colegio de Educación Infantil y Primaria Méjico,,school,,,,,Avenida de Badajoz,74,28027,,Comunidad de Madrid,,-3.6508507,40.443436,386,70,70
POINT (-3.7582251 40.3722376),"Centro Privado de Educación Infantil, Primaria y Secundaria Colegio Diocesano María Inmaculada - Joaquín Turina",,school,,,,,Calle de Joaquín Turina,62,28044,,,,-3.7582251,40.3722376,454,71,71
POINT (-3.7031018 40.4021177),Colegio de Educación Infantil y Primaria San Eugenio y San Isidro,,school,,,,,Calle de las Peñuelas,31,28005,,Comunidad de Madrid,,-3.7031018,40.4021177,-1,-1,-1
POINT (-3.725068 40.3876001),Colegio de Educación Infantil y Primaria República de Ecuador,,school,,,,,Calle del Valle de Oro,41,28019,,Comunidad de Madrid,,-3.725068,40.3876001,-1,-1,-1
POINT (-3.6874627 40.4423487),Colegio de Educación Infantil y Primaria Ramiro de Maeztu,,school,,,,,Calle de Serrano,127,28006,,Comunidad de Madrid,,-3.6874627,40.4423487,589,72,72
POINT (-3.7134168 40.4262288),"Centro Privado de Educación Infantil, Primaria y Secundaria Madres Concepcionistas",,school,,,,,Calle de la Princesa,19,28008,,,,-3.7134168,40.4262288,-1,-1,-1
POINT (-3.7093833 40.3827694),Centro Privado de Educación Infantil y Primaria San Luis-felca,,school,,,,,Calle de Dolores Barranco,65,28026,,,,-3.7093833,40.3827694,-1,-1,-1
POINT (-3.7257724 40.3849226),Colegio de Educación Infantil y Primaria Arcipreste de Hita,,school,,,,,Calle de Antonio Moreno,25,28025,,Comunidad de Madrid,,-3.7257724,40.3849226,-1,-1,-1
POINT (-3.5941147 40.455138),"Centro Privado de Educación Infantil, Primaria y Secundaria Alameda de Osuna",,school,,,,,Paseo de la Alameda de Osuna,17,28042,,,,-3.5941147,40.455138,46,73,73
POINT (-3.7726641 40.3802565),"Centro Privado de Educación Infantil, Primaria y Secundaria Beata Filipina-fund.feliciana Viertola",,school,,,,,Calle de José de Cadalso,50,28044,,,,-3.7726641,40.3802565,-1,-1,-1
POINT (-3.6918802 40.3549461),Centro Privado de Educación Infantil y Primaria Liceo Oroquieta,,school,,,,,Calle del Sáhara,79,28041,,,,-3.6918802,40.3549461,-1,-1,-1
POINT (-3.6987685 40.4620328),Colegio Pablo VI,,school,,,,,Calle de Bravo Murillo,297,28020,,,,-3.6987685,40.4620328,-1,-1,-1
POINT (-3.7029033 40.4972833),Centro Privado de Educación Primaria y Secundaria El Prado,,school,,,,,Calle de la Costa Brava,4,28034,,,,-3.7029033,40.4972833,77,74,74
POINT (-3.6140021 40.4459524),"Centro Privado de Educación Infantil, Primaria y Secundaria Nuestra Señora de las Nieves",,school,,,,,Calle de Alcalá,589,28022,,,,-3.6140021,40.4459524,281,723,723
POINT (-3.6072162 40.4269984),"Centro Privado de Educación Infantil, Primaria y Secundaria San Vicente",,school,,,,,Calle del Butrón,33,28022,,,,-3.6072162,40.4269984,-1,-1,-1
POINT (-3.6477394 40.4335241),Centro Privado de Formación Profesional Específica Teide IV,,school,,,,,Calle de Alcalá,337,28027,,,,-3.6477394,40.4335241,464,31,31
POINT (-3.6143057 40.4456264),"Centro Privado de Educación Infantil, Primaria y Secundaria Santo Ángel de la Guarda",,school,,,,,Calle de Alcalá,587,28022,,,,-3.6143057,40.4456264,281,723,723
POINT (-3.7020249 40.3975606),"Centro Privado de Educación Infantil, Primaria y Secundaria San Javier",,school,,,,,Paseo de Santa María de la Cabeza,85,28045,,,,-3.7020249,40.3975606,-1,-1,-1
POINT (-3.7032159 40.4507065),Centro Privado de Educación Infantil y Primaria San Antonio,,school,,,,,Calle de Bravo Murillo,150,28020,,,,-3.7032159,40.4507065,-1,-1,-1
POINT (-3.7749985 40.3630969),Centro Privado de Educación Especial Instituto San José,,school,,,,,Calle del Pinar de San José,21,28044,,,,-3.7749985,40.3630969,27,75,75
POINT (-3.628936 40.4300709),Colegio de Educación Infantil y Primaria Carmen Cabezuelo,,school,,,,,Calle Cangas de Onís,7,28037,,Comunidad de Madrid,,-3.628936,40.4300709,-1,-1,-1
POINT (-3.7789704 40.3769063),"Centro de Educación Privado Infantil, Primaria y Secundaria El Carmelo Teresiano",,school,,,,,Calle de Nuñomoral,1,28044,,,,-3.7789704,40.3769063,-1,-1,-1
POINT (-3.7296944 40.3806883),"Centro Privado de Educación Infantil, Primaria y Secundaria Santa Beatriz de Silva",,school,,,,,Calle Alfonso Martínez Conde,4,28025,,,,-3.7296944,40.3806883,-1,-1,-1
POINT (-3.7417133 40.3880584),Colegio Con-Pe,,school,,,,,Calle de Florencio Sanz,1,28025,,,,-3.7417133,40.3880584,-1,-1,-1
POINT (-3.7564839 40.3691743),"Centro Privado de Educación Infantil, Primaria y Secundaria Amorós",,school,,,,,Calle de Gómez de Arteche,28,28044,,,,-3.7564839,40.3691743,-1,-1,-1
POINT (-3.705329 40.4369171),Colegio de Educación Infantil y Primaria San Cristóbal,,school,,,,,Calle de Bravo Murillo,39,28015,,Comunidad de Madrid,,-3.705329,40.4369171,-1,-1,-1
POINT (-3.6137583 40.4541697),Centro Privado de Educación Especial María Corredentora,,school,,,,,Calle de Luis de la Mata,24,28042,,,,-3.6137583,40.4541697,159,76,76
POINT (-3.7017956 40.4270218),Centro Privado de Educación Secundaria Marín Amat,,school,,,,,Calle de Fuencarral,95,28004,,,,-3.7017956,40.4270218,-1,-1,-1
POINT (-3.7467054 40.3785709),Antiguo Colegio Hispanidad,,school,,,,,Calle de la Época,3,28025,,,,-3.7467054,40.3785709,-1,-1,-1
POINT (-3.6547379 40.4600803),Institut.Hispano Americano de la Palabra,,school,,,,,Calle del Carril del Conde,47,28043,,,,-3.6547379,40.4600803,-1,-1,-1
POINT (-3.6894414 40.5229397),Centro Privado de Educación Especial Alenta,,school,,,,,Carretera de Colmenar Viejo,,28049,,,,-3.6894414,40.5229397,15,77,77
POINT (-3.6113927 40.4532614),"Centro Privado de Educación Infantil, Primaria y Secundaria Santa María de la Hispanidad",,school,,,,,Calle de Vizconde de Uzquieta,23,28042,,,,-3.6113927,40.4532614,159,76,76
POINT (-3.6458623 40.438428),"Centro Privado de Educación Infantil, Primaria y Secundaria Corazón de María",,school,,,,,Calle de Zigia,1,28027,,,,-3.6458623,40.438428,-1,-1,-1
POINT (-3.6669014 40.4712848),"Centro Privado de Educación Infantil, Primaria y Secundaria Huérfanos de la Armada",,school,,,,,Calle de Arturo Soria,278,28033,,,,-3.6669014,40.4712848,172,55,55
POINT (-3.7355487 40.3925091),Centro Privado de Educación Infantil y Primaria Nuestra Señora de la Merced,,school,,,,,Calle de Zaida,87,28019,,,,-3.7355487,40.3925091,503,78,78
POINT (-3.6940268 40.3596648),Centro Privado de Educación Secundaria Nuestra Señora de Gracia,,school,,,,,Paseo de Gigantes y Cabezudos,12,28041,,,,-3.6940268,40.3596648,141,79,79
POINT (-3.6413508 40.4351468),"Centro Privado de Educación Infantil, Primaria y Secundaria Liceo Madariaga",,school,,,,,Calle de Francisco Madariaga,11,28017,,,,-3.6413508,40.4351468,-1,-1,-1
POINT (-3.7538461 40.3893443),"Centro Privado de Educación Infantil, Primaria y Secundaria Nuestra Señora de las Escuelas Pías",,school,,,,,Calle de Ocaña,191,28047,,,,-3.7538461,40.3893443,-1,-1,-1
POINT (-3.7453196 40.3821654),"Centro Privado de Educación Infantil, Primaria y Secundaria Colegio la Milagrosa",,school,,,,,Calle de Monseñor Óscar Romero,54,28025,,,,-3.7453196,40.3821654,-1,-1,-1
POINT (-3.6480012 40.4372118),Colegio Begoña,,school,,,,,Calle de Emilio Gastesi Fernández,46,28027,,,,-3.6480012,40.4372118,-1,-1,-1
POINT (-3.6711536 40.4325726),"Centro Privado de Educación Infantil, Primaria y Secundaria Natividad de Nuestra Señora",,school,,,,,Calle de Martínez Izquierdo,8,28028,,,,-3.6711536,40.4325726,-1,-1,-1
POINT (-3.6081327 40.4072044),"Centro Privado de Educación Infantil, Primaria y Secundaria Minerva",,school,,,,,Calle de Villardondiego,15,28032,,,,-3.6081327,40.4072044,79,657,657
POINT (-3.7021039 40.4215066),"Centro Privado de Educación Infantil, Primaria y Secundaria Madres Mercedarias de D. Juan de Alarcón",,school,,,,,Calle de Valverde,15,28004,,,,-3.7021039,40.4215066,-1,-1,-1
POINT (-3.7285043 40.414614),Colegio Santa Cristina,,school,,,,,Avenida de Portugal,67,28011,,,,-3.7285043,40.414614,441,763,763
POINT (-3.6890396 40.3510801),"Centro Privado de Educación Infantil, Primaria y Secundaria San Pedro",,school,,,,,Calle de José del Pino,53,28021,,,,-3.6890396,40.3510801,-1,-1,-1
POINT (-3.7253361 40.38513),Colegio Cervantes,,school,,,,,Calle de Elvas,2,28025,,,,-3.7253361,40.38513,-1,-1,-1
POINT (-3.6921875 40.3727453),Centro Privado de Educación Infantil y Primaria San Fermín,,school,,,,,Calle de la Estafeta,17,28041,,,,-3.6921875,40.3727453,116,671,671
POINT (-3.694003 40.3570121),Centro Privado de Educación Infantil y Primaria Sagrados Corazones,,school,,,,,Calle de Pan y Toros,45,28041,,,,-3.694003,40.3570121,151,80,80
POINT (-3.7236947 40.4024192),"Centro Privado de Educación Infantil, Primaria y Secundaria San Alberto Magno",,school,,,,,Travesía de Iván de Vargas,1,28019,,,,-3.7236947,40.4024192,485,81,81
POINT (-3.6645157 40.3953054),"Centro Privado de Educación Infantil, Primaria y Secundaria Centro Cultural Salmantino",,school,,,,,Calle Puerto de Pajares,6,28053,,,,-3.6645157,40.3953054,-1,-1,-1
POINT (-3.6621031 40.4240493),Antiguo Colegio Viancor,,school,,,,,Calle Rosario Acuña,13,28028,,,,-3.6621031,40.4240493,-1,-1,-1
POINT (-3.685059 40.4457699),Colegio británico Maxwell School,,school,,,,,Calle Serrano,158,28002,,,,-3.685059,40.4457699,591,804,804
POINT (-3.6824442 40.4497314),Centro Privado de Educación Especial Los Álamos,,school,,,,,Calle Serrano,194,28002,,,,-3.6824442,40.4497314,594,806,806
POINT (-3.6809785 40.4458753),Centro Docente Extranjero en España Union-Chrétienne de Saint Chaumond,,school,,,,,Calle de Rodríguez Marín,32,28002,,,,-3.6809785,40.4458753,-1,-1,-1
POINT (-3.664748 40.4265814),Colegio Virgen de La Luz,,school,,,,,Calle del Vizconde de Matamala,1,28028,,,,-3.664748,40.4265814,867,869,869
POINT (-3.6489097 40.4340867),"Centro Privado de Educación Infantil, Primaria y Secundaria Centro Cultural Elfo",,school,,,,,Calle del Elfo,74,28027,,,,-3.6489097,40.4340867,-1,-1,-1
POINT (-3.6644886 40.4218935),Colegio Stoa Liceo,,school,,,,,Calle de Mercedes Fórmica,34,28028,,,,-3.6644886,40.4218935,-1,-1,-1
POINT (-3.7102697 40.394305),"Centro Privado de Educación Infantil, Primaria y Secundaria Liceo Ibérico",,school,,,,,Calle Antonio Vicent,62,28019,,,,-3.7102697,40.394305,-1,-1,-1
POINT (-3.7789832 40.3837547),Colegio de Educación Infantil y Primaria Ciudad de Badajoz,,school,,,,,Calle de Fray José Cerdeiriña,51,28024,,Comunidad de Madrid,,-3.7789832,40.3837547,-1,-1,-1
POINT (-3.7098461 40.4224323),Centro Privado de Educación Secundaria Darío Estudio,,school,,,,,Gran Vía,63,28013,,,,-3.7098461,40.4224323,1256,47,47
POINT (-3.6891964 40.4943477),"Centro Privado de Educación Infantil, Primaria y Secundaria Sagrado Corazón",,school,,,,,Plaza de la Madre María Ana Mogas,12,28034,,,,-3.6891964,40.4943477,-1,-1,-1
POINT (-3.6252824 40.429072),Instituto de Educación Secundaria Barrio Simancas,,school,,,,,Calle Zaratán,6,28037,,Comunidad de Madrid,,-3.6252824,40.429072,167,82,82
POINT (-3.7462856 40.4038146),"Centro Privado de Educación Infantil, Primaria y Secundaria San José-lucero",,school,,,,,Calle del Palmípedo,12,28047,,,,-3.7462856,40.4038146,-1,-1,-1
POINT (-3.7069054 40.4298609),Centro Privado de Formación Profesional Específica Escuela Profesional Javeriana,,school,,,,,Calle de Alberto Aguilera,8,28015,,,,-3.7069054,40.4298609,1107,83,83
POINT (-3.7165381 40.4410303),"Centro Privado de Educación Infantil, Primaria y Secundaria Santa María del Yermo",,school,,,,,Calle de Gaztambide,91,28003,,,,-3.7165381,40.4410303,-1,-1,-1
POINT (-3.7762829 40.3804575),Colegio de Educación Infantil y Primaria Alcalde de Móstoles,,school,,,,,Calle de Aldeanueva de la Vera,9,28044,,Comunidad de Madrid,,-3.7762829,40.3804575,-1,-1,-1
POINT (-3.7525477 40.3689252),Instituto de Educación Secundaria Instituto Politecnico N.1 del Ejército,,school,,,,,Avenida de Carabanchel Alto,17,28044,,,,-3.7525477,40.3689252,-1,-1,-1
POINT (-3.5849421 40.4590033),Colegio de Educación Infantil y Primaria Ciudad de Guadalajara,,school,,,,,Calle del Bergantín,13,28042,,Comunidad de Madrid,,-3.5849421,40.4590033,47,647,647
POINT (-3.7129528 40.4107469),Centro Privado de Formación Profesional Específica Afuera II,,school,,,,,Carrera de San Francisco,11,28005,,,,-3.7129528,40.4107469,1041,84,84
POINT (-3.7023644 40.4284328),Centro Privado de Formación Profesional Específica Gonzalez Cañadas,,school,,,,,Calle de Fuencarral,105,28004,,,,-3.7023644,40.4284328,-1,-1,-1
POINT (-3.6943266 40.4267633),Academia J.E.A.,,school,,,,,Calle de Génova,14,28004,,,,-3.6943266,40.4267633,-1,-1,-1
POINT (-3.6985632 40.4259867),Torval'l Formación,,school,,,,,Calle de San Mateo,15,28004,,,,-3.6985632,40.4259867,1076,6,6
POINT (-3.5911118 40.4605125),Colegio de Educación Infantil y Primaria Ciudad de Zaragoza,,school,,,,,Calle de Manuel Aguilar Muñoz,1,28042,,Comunidad de Madrid,,-3.5911118,40.4605125,-1,-1,-1
POINT (-3.6828789 40.4227116),Centro Privado de Educación Secundaria Aries,,school,,,,,Calle de Núñez de Balboa,10,28001,,,,-3.6828789,40.4227116,860,867,867
POINT (-3.7175148 40.4341776),Centro Privado de Educación Secundaria Díaz Balaguer,,school,,,,,Calle de Fernando el Católico,77,28015,,,,-3.7175148,40.4341776,1017,897,897
POINT (-3.7091246 40.4219785),Centro Privado de Educación Secundaria Vox,,school,,,,,Gran Vía,59,28013,,,,-3.7091246,40.4219785,1258,47,47
POINT (-3.7100844 40.4232128),Quick,,school,,,,,Gran Vía,76,28015,,,,-3.7100844,40.4232128,1177,47,47
POINT (-3.6409337 40.4371671),Colegio Besana,,school,,,,,Calle Estrecho de Gibraltar,27,28027,,,,-3.6409337,40.4371671,-1,-1,-1
POINT (-3.686481 40.4942106),Colegio de Educación Especial Francisco del Pozo,,school,,,,,Callejón del Dómine,6,28034,,,,-3.686481,40.4942106,-1,-1,-1
POINT (-3.6899905 40.3678822),"Centro Privado de Educación Infantil, Primaria y Secundaria La Natividad",,school,,,,,Calle de Torrox,4,28041,,,,-3.6899905,40.3678822,119,85,85
POINT (-3.6827155 40.4485677),Centro Privado de Educación Especial Centro Nuevo de Pedagogía,,school,,,,,Calle Tajo,6,28002,,,,-3.6827155,40.4485677,594,806,806
POINT (-3.7012985 40.4143134),Centro Privado de Formación Profesional Específica Afuera I,,school,,,,,Plaza de Santa Ana,13,28012,,,,-3.7012985,40.4143134,1173,86,86
POINT (-3.7528567 40.3745662),"Centro Privado de Educación Infantil, Primaria y Secundaria institucion Profesional Salesiana",,school,,,,,Ronda de Don Bosco,3,28044,,,,-3.7528567,40.3745662,508,87,87
POINT (-3.728264 40.3791298),Centro Privado de Educación Infantil y Primaria Cervantes,,school,,,,,Calle Carrero Juan Ramón,2,28025,,,,-3.728264,40.3791298,-1,-1,-1
POINT (-3.5850729 40.47275),"Centro Privado de Educación Infantil, Primaria y Secundaria Colegio de Jesús",,school,,,,,Calle del Timón,18,28042,,,,-3.5850729,40.47275,45,646,646
POINT (-3.7091042 40.4157649),Centro Privado de Formación Profesional Específica Teide II,,school,,,,,Calle Mayor,49,28013,,,,-3.7091042,40.4157649,1221,926,926
POINT (-3.7474666 40.3963134),"Centro Privado de Educación Infantil, Primaria y Secundaria Bienaventurada Virgen María",,school,,,,,Calle de Cullera,17,28047,,,,-3.7474666,40.3963134,284,88,88
POINT (-3.6759404 40.4325989),Circulo Ecca,,school,,,,,Calle de Juan Bravo,51,28006,,,,-3.6759404,40.4325989,-1,-1,-1
POINT (-3.7033722 40.3972382),Centro Privado de Educación Infantil y Primaria Dos Parques,,school,,,,,Calle de San Anastasio,4,28005,,,,-3.7033722,40.3972382,-1,-1,-1
POINT (-3.7067618 40.4115325),Antiguo Centro de Estudios Sol,,school,,,,,Calle del Duque de Alba,15,28012,,,,-3.7067618,40.4115325,-1,-1,-1
POINT (-3.6878857 40.4428104),Instituto de Educación Secundaria Ramiro de Maeztu,,school,,,,,Calle de Serrano,127,28006,,Comunidad de Madrid,,-3.6878857,40.4428104,589,72,72
POINT (-3.6579234 40.4274073),Centro Privado de Educación Especial La Purísima,,school,,,,,Calle de Ricardo Ortiz,29,28017,,,,-3.6579234,40.4274073,315,89,89
POINT (-3.6952191 40.441934),Centro Docente Extranjero En España Scuola Statale Italiana de Madrid (italiano),,school,,,,,Calle de Agustín de Betancourt,1,28003,,,,-3.6952191,40.441934,774,90,90
POINT (-3.6496481 40.403818),Centro Público de Educación de Personas Adultas Cultural Moratalaz,,school,,,,,Calle del Corregidor Alonso de Tobar,7,28030,,Comunidad de Madrid,,-3.6496481,40.403818,-1,-1,-1
POINT (-3.6493561 40.4560206),Centro Docente Extranjero En España Numont School (britanico),,school,,,,,Calle de Parma,16,28043,,,,-3.6493561,40.4560206,271,91,91
POINT (-3.6638364 40.4702083),Centro Docente Extranjero En España Hof Der Lage Landen (países Bajos),,school,,,,,Calle Alonso Saavedra,20,28033,,,,-3.6638364,40.4702083,-1,-1,-1
POINT (-3.7026257 40.4898707),Centro Privado de Educación Especial Leo Kanner,,school,,,,,Calle de Peña del Sol,22,28034,,,,-3.7026257,40.4898707,-1,-1,-1
POINT (-3.7261302 40.3899718),Colegio de Educación Especial Inmaculada Concepción,,school,,,,,Calle de Saldaña,30,28019,,,,-3.7261302,40.3899718,-1,-1,-1
POINT (-3.6818229 40.4456314),"Centro Docente Extranjero En España Colegio Libio de Madrid (libia, Alum. Extr.)",,school,,,,,Calle de Rodríguez Marín,7,28002,,,,-3.6818229,40.4456314,-1,-1,-1
POINT (-3.6699409 40.4271234),"Centro Privado de Formación Profesional Específica Organizacion Profesional Española, Opesa",,school,,,,,Calle de Ayala,109,28009,,,,-3.6699409,40.4271234,869,870,870
POINT (-3.662711 40.3928289),Centro Público de Educación de Personas Adultas La Albufera,,school,,,,,Calle de Nuestra Señora del Perpetuo Socorro,23,28053,,Comunidad de Madrid,,-3.662711,40.3928289,-1,-1,-1
POINT (-3.6768545 40.4617099),"Centro Privado de Educación Infantil, Primaria y Secundaria Willoughby College",,school,,,,,Calle de la Macarena,37,28016,,,,-3.6768545,40.4617099,-1,-1,-1
POINT (-3.589105 40.4603155),Instituto de Educación Secundaria Alameda de Osuna,,school,,,,,Calle de Antonio Sancha,11,28042,,Comunidad de Madrid,,-3.589105,40.4603155,49,92,92
POINT (-3.7368841 40.3940299),Colegio de Educación Infantil y Primaria Miguel Servet,,school,,,,,Calle de la Fragata,33,28019,,Comunidad de Madrid,,-3.7368841,40.3940299,-1,-1,-1
POINT (-3.7624389 40.3890501),Instituto de Educación Secundaria Blas de Otero,,school,,,,,Calle de Maqueda,130,28024,,Comunidad de Madrid,,-3.7624389,40.3890501,-1,-1,-1
POINT (-3.7625512 40.3886546),Colegio de Educación Infantil y Primaria La Latina,,school,,,,,Calle de Maqueda,130,28024,,Comunidad de Madrid,,-3.7625512,40.3886546,-1,-1,-1
POINT (-3.6712953 40.4298593),C.Est.Profes.Advos.y Linguisticos (Cepal),,school,,,,,Calle de José Ortega y Gasset,87,28006,,,,-3.6712953,40.4298593,889,876,876
POINT (-3.7655713 40.3942741),Centro Privado de Formación Profesional Específica Escuela Politecnica Giner,,school,,,,,Calle de Maqueda,8,28024,,,,-3.7655713,40.3942741,278,93,93
POINT (-3.7035557 40.4148943),Centro Privado de Formación Profesional Específica Centro de Formación Técnica,,school,,,,,Calle de Carretas,14,28012,,,,-3.7035557,40.4148943,1248,94,94
POINT (-3.7073252 40.3481158),Centro Privado de Formación Profesional Específica Hease,,school,,,,,Calle de la Plata,6,28021,,,,-3.7073252,40.3481158,131,676,676
POINT (-3.6500734 40.4435394),Colegio de Educación Especial Infanta Elena,,school,,,,,Avenida de Badajoz,76,28027,,Comunidad de Madrid,,-3.6500734,40.4435394,386,70,70
POINT (-3.6963686 40.4111037),Centro Privado de Educación de Personas Adultas Practivox,,school,,,,,Calle de Atocha,93,28014,,,,-3.6963686,40.4111037,-1,-1,-1
POINT (-3.5840634 40.470602),Colegio de Educación Infantil y Primaria Calderón de la Barca,,school,,,,,Calle de Calderón,2,28042,,Comunidad de Madrid,,-3.5840634,40.470602,45,646,646
POINT (-3.6862022 40.4271337),institucion Artística de Enseñanza (IADE),,school,,,,,Calle de Claudio Coello,48,28001,,,,-3.6862022,40.4271337,962,95,95
POINT (-3.707302 40.4244706),Escuela Superior de Canto Escuela Superior de Canto de Madrid,,school,,,,,Calle de San Bernardo,44,28015,,Comunidad de Madrid,,-3.707302,40.4244706,1311,3,3
POINT (-3.7115228 40.440524),Escuela Oficial de Idiomas de Madrid-Jesús Maestro,,language_school,,,,,Calle de Jesús Maestro,,28003,,Comunidad de Madrid,,-3.7115228,40.440524,-1,-1,-1
POINT (-3.6192572 40.3772231),"Centro Privado de Educación Infantil, Primaria y Secundaria Nueva Castilla",,school,,,,,Calle de los Montes de Barbanza,19,28031,,,,-3.6192572,40.3772231,-1,-1,-1
POINT (-3.6577024 40.4605049),Antiguo Centro de E.E. Virgen de Nuria,,school,,,,,Calle Asura,134,28043,,,,-3.6577024,40.4605049,-1,-1,-1
POINT (-3.7027826 40.3678875),Centro Público de Educación para Personas Adultas Daoiz y Velarde,,school,,,,,Calle de Fernando Ortiz,2,28026,,Comunidad de Madrid,,-3.7027826,40.3678875,114,669,669
POINT (-3.6713004 40.419323),Aula Hospitalaria Hospital Gregorio Marañón,,school,,,,,Calle de O'Donnell,49,28009,,Comunidad de Madrid,,-3.6713004,40.419323,788,854,854
POINT (-3.647009 40.4633849),Centro Privado de Educación Secundaria Santa Rosa de Lima,,school,,,,,Carretera de Canillas,43,28043,,,,-3.647009,40.4633849,286,96,96
POINT (-3.7057673 40.3438685),Colegio de Educación Infantil y Primaria Nuestra Señora de la Luz,,school,,,,,Calle del Bismuto,1,28021,,Comunidad de Madrid,,-3.7057673,40.3438685,-1,-1,-1
POINT (-3.706672 40.4456104),Centro de enseñanza CENEC,,school,,,,,Calle del Marqués de Lema,7,28003,,,,-3.706672,40.4456104,-1,-1,-1
POINT (-3.708723 40.3475234),"Centro Privado de Educación Infantil, Primaria y Secundaria Colegio Addis",,school,,,,,Calle Vieja de Pinto,15,28021,,,,-3.708723,40.3475234,-1,-1,-1
POINT (-3.6954101 40.4170421),Escuela de Arte de Madrid N.2,,school,,,,,Calle del Marqués de Cubas,15,28014,,,,-3.6954101,40.4170421,879,97,97
POINT (-3.6563957 40.4393997),Instituto de Educación Secundaria Salvador Dalí,,school,,,,,Calle de Verdaguer y García,2,28027,,Comunidad de Madrid,,-3.6563957,40.4393997,-1,-1,-1
POINT (-3.7218959 40.4729967),Escuela Oficial de Idiomas de Madrid-Valdezarza,,language_school,,,,,Calle Isla Malaita,2,28035,,Comunidad de Madrid,,-3.7218959,40.4729967,356,98,98
POINT (-3.618561 40.4248295),Escuela Oficial de Idiomas de Madrid-san Blas,,language_school,,,,,Calle de los Artífices,,28037,,Comunidad de Madrid,,-3.618561,40.4248295,-1,-1,-1
POINT (-3.7250262 40.3882038),Escuela Oficial de Idiomas de Madrid-Carabanchel,,language_school,,,,,Calle de Portalegre,52,28019,,Comunidad de Madrid,,-3.7250262,40.3882038,-1,-1,-1
POINT (-3.707176 40.4482889),Centro Privado de Formación Profesional Específica Escuela Técnica de Enseñanzas Especializadas,,school,,,,,Calle de Adela Balboa,16,28039,,,,-3.707176,40.4482889,-1,-1,-1
POINT (-3.7016118 40.3842671),Escuela Infantil La Jara,,school,,,,,Calle de las Hijas de Jesús,30,28026,,Comunidad de Madrid,,-3.7016118,40.3842671,-1,-1,-1
POINT (-3.6928051 40.3733742),Escuela Infantil San Fermín,,school,,,,,Calle de la Estafeta,14,28041,,Comunidad de Madrid,,-3.6928051,40.3733742,116,671,671
POINT (-3.7326034 40.3936967),Escuela Infantil Roger de Flor,,school,,,,,Plaza Roger de Flor,18,28019,,Comunidad de Madrid,,-3.7326034,40.3936967,-1,-1,-1
POINT (-3.6385389 40.4362587),Academia Toan,,school,,,,,Calle de José Arcones Gil,13,28017,,,,-3.6385389,40.4362587,-1,-1,-1
POINT (-3.7345139 40.3771653),Centro Público de Educación de Personas Adultas Pan Bendito,,school,,,,,Calle del Camino Viejo de Leganés,188,28025,,Comunidad de Madrid,,-3.7345139,40.3771653,213,701,701
POINT (-3.6936021 40.4958979),Centro Público de Educación de Personas Adultas Fuencarral,,school,,,,,Calle de Braille,10,28034,,Comunidad de Madrid,,-3.6936021,40.4958979,-1,-1,-1
POINT (-3.701622 40.3681492),Escuela Infantil Albaicín,,school,,,,,Calle de Albaicín,1,28041,,Comunidad de Madrid,,-3.701622,40.3681492,114,669,669
POINT (-3.6935148 40.3943159),Escuela de Adultos de Arganzuela,,school,,,,,Calle de Alicante,5,28045,,,,-3.6935148,40.3943159,-1,-1,-1
POINT (-3.6082446 40.4373479),Centro Público de Educación de Personas Adultas Canillejas,,school,,,,,Calle de las Musas,11,28022,,Comunidad de Madrid,,-3.6082446,40.4373479,244,99,99
POINT (-3.650306 40.4431958),Escuela Oficial de Idiomas de Madrid-ciudad Lineal,,language_school,,,,,Calle de Carlota O’Neill,,28027,,Comunidad de Madrid,,-3.650306,40.4431958,386,70,70
POINT (-3.7518825 40.3971227),Centro Privado de Educación de Personas Adultas Nazaret,,school,,,,,Calle de Cuart de Poblet,6,28047,,,,-3.7518825,40.3971227,-1,-1,-1
POINT (-3.6910176 40.4914245),Centro-Taller Norte Joven,,school,,,,,Avenida del Cardenal Herrera Oria,78,28034,,,,-3.6910176,40.4914245,-1,-1,-1
POINT (-3.6837492 40.4493364),Centro de Educación Especial Cisen,,school,,,,,Calle del Pisuerga,9,28002,,,,-3.6837492,40.4493364,594,806,806
POINT (-3.7186348 40.4349752),Escuela Municipal de Educación de Personas Adultas Escuela de Adultos de Moncloa,,school,,,,,Plaza de la Moncloa,1,28008,,,,-3.7186348,40.4349752,988,100,100
POINT (-3.779584 40.4665952),Centro Privado de Educación Secundaria T.e.m.s.,,school,,,,,Calle de la Salle,23,28023,,,,-3.779584,40.4665952,-1,-1,-1
POINT (-3.6381186 40.443705),"Centro Privado de Educación Infantil, Primaria y Secundaria Bra-institucion",,school,,,,,Calle de María Lombillo,5,28027,,,,-3.6381186,40.443705,317,733,733
POINT (-3.7743983 40.5171311),Colegio de Educación Infantil y Primaria Monte de el Pardo,,school,,,,,Avenida de la Guardia,19,28048,,Comunidad de Madrid,,-3.7743983,40.5171311,0,632,632
POINT (-3.7706532 40.3820024),Centro Público de Educación de Personas Adultas Cid Campeador las Águilas - Cuatro Vientos,,school,,,,,Calle de Anselmo Lorenzo,12,28044,,Comunidad de Madrid,,-3.7706532,40.3820024,-1,-1,-1
POINT (-3.7249473 40.3862315),Centro Público de Educación de Personas Adultas Oporto,,school,,,,,Avenida de Oporto,46,28019,,Comunidad de Madrid,,-3.7249473,40.3862315,-1,-1,-1
POINT (-3.6323355 40.4292596),Centro Público de Educación de Personas Adultas Ciudad Lineal,,school,,,,,Calle de los Hermanos García Noblejas,70,28037,,Comunidad de Madrid,,-3.6323355,40.4292596,357,101,101
POINT (-3.6497415 40.477176),Centro Público de Educación de Personas Adultas Dulce Chacón,,school,,,,,Calle de Abertura,,28033,,Comunidad de Madrid,,-3.6497415,40.477176,199,102,102
POINT (-3.6951889 40.4421204),Centro Docente Extranjero En España Scuola Materna Italiana de Madrid (italiano),,school,,,,,Calle de Agustín de Betancourt,1,28003,,,,-3.6951889,40.4421204,774,90,90
POINT (-3.688835 40.3496042),Centro Privado de Educación Infantil y Primaria Liceo Rosales,,school,,,,,Calle de Ignacio Santos Viñuelas,9,28021,,,,-3.688835,40.3496042,-1,-1,-1
POINT (-3.6333084 40.3983828),Escuela Oficial de Idiomas de Madrid-Moratalaz,,school,,,,,Calle de Valdebernardo,3,28030,,Comunidad de Madrid,,-3.6333084,40.3983828,298,103,103
POINT (-3.6934633 40.4720527),Oscus-Ventilla,,school,,,,,Calle de Geranios,30,28029,,,,-3.6934633,40.4720527,673,823,823
POINT (-3.692058 40.3716401),Escuela Municipal de Educación de Personas Adultas Escuela Municipal de Adultos Usera,,school,,,,,Calle de la Estafeta,33,28041,,,,-3.692058,40.3716401,116,671,671
POINT (-3.5853696 40.4716708),Escuela Municipal de Educación de Personas Adultas Escuela de Adultos de Barajas,,school,,,,,Calle Plus Ultra,3,28042,,,,-3.5853696,40.4716708,45,646,646
POINT (-3.7404659 40.3836216),Centro Público de Educación de Personas Adultas Vista Alegre,,school,,,,,Calle del General Ricardos,179,28025,,Comunidad de Madrid,,-3.7404659,40.3836216,550,793,793
POINT (-3.7739609 40.386527),Centro Privado de Educación Especial El Despertar,,school,,,,,Calle de Adonis,1,28024,,,,-3.7739609,40.386527,-1,-1,-1
POINT (-3.6720933 40.4370892),Apartahotel Avenida de America,,,hotel,,,,Calle de Béjar,29,28028,,,,-3.6720933,40.4370892,-1,-1,-1
POINT (-3.6852236 40.4284363),Escuela Superior de Secretarias,,school,,,,,Calle de Lagasca,65,28001,,,,-3.6852236,40.4284363,-1,-1,-1
POINT (-3.6334342 40.4521719),Centro Docente Extranjero En España Escuela Iraquí En Madrid (iraquí),,school,,,,,Ronda de la Abubilla,18,28043,,,,-3.6334342,40.4521719,-1,-1,-1
POINT (-3.6974754 40.4354795),Centro Privado de Formación Profesional Específica Centro de Estudios Financieros,,school,,,,,Calle de Viriato,52,28010,,,,-3.6974754,40.4354795,-1,-1,-1
POINT (-3.6668078 40.4545521),ICE Pablo VI,,school,,,,,Avenida de Alfonso XIII,74,28016,,,,-3.6668078,40.4545521,-1,-1,-1
POINT (-3.698625 40.4259239),Torval'l Formación,,school,,,,,Calle de San Mateo,15,28004,,,,-3.698625,40.4259239,1076,6,6
POINT (-3.6757512 40.4739798),Centro Docente Extranjero En España Centro de Formación Empresarial (alemán),,school,,,,,Avenida de Burgos,12,28036,,,,-3.6757512,40.4739798,215,104,104
POINT (-3.7288 40.4133561),Centro Privado de Formación Profesional Específica Centro Europeo de Estudios Profesionales,,school,,,,,Paseo de Extremadura,33,28011,,,,-3.7288,40.4133561,441,763,763
POINT (-3.6987654 40.4018515),Conf.Past.Helad.Repost.Pl.Coci.Comun.Ma.,,school,,,,,Paseo de Santa María de la Cabeza,58,28012,,,,-3.6987654,40.4018515,893,105,105
POINT (-3.7146664 40.424745),Centro Público de Educación de Personas Adultas Moncloa,,school,,,,,Calle de Juan Álvarez Mendizábal,20,28008,,Comunidad de Madrid,,-3.7146664,40.424745,-1,-1,-1
POINT (-3.6960556 40.4006138),Centro Público de Educación de Personas Adultas Arganzuela,,school,,,,,Calle de la Batalla del Salado,29,28045,,Comunidad de Madrid,,-3.6960556,40.4006138,893,105,105
POINT (-3.6828081 40.5258095),Instituto de Educación Secundaria Hotel Escuela de la Comunidad de Madrid,,school,,,,,,,28049,,Comunidad de Madrid,,-3.6828081,40.5258095,15,77,77
POINT (-3.7235098 40.3946793),Escuela Infantil-casa de Niños Lope de Vega,,school,,,,,Calle de Inglaterra,8,28019,,Comunidad de Madrid,,-3.7235098,40.3946793,-1,-1,-1
POINT (-3.6621188 40.457647),Centro Privado de Formación Profesional Específica Instituto de Formación Empresarial de la Cámara Oficial de Comercio E Industria de Madrid,,college,,,,,Calle Pedro Salinas,11,28043,,,,-3.6621188,40.457647,-1,-1,-1
POINT (-3.7656951 40.3942394),Centro de Estudios Superiores Giner,,school,,,,,Calle de Maqueda,8,28024,,,,-3.7656951,40.3942394,278,93,93
POINT (-3.7286299 40.4776141),Centro Privado de Formación Profesional Específica C.recursos Com.sorda Juan Luis Marroquín,,school,,,,,Calle de las Islas Aleutianas,28,28035,,,,-3.7286299,40.4776141,-1,-1,-1
POINT (-3.7384439 40.3786949),Unidad de Formación e Inserción Laboral Puerta Bonita,,school,,,,,Calle del Padre Amigó,5,28025,,Comunidad de Madrid,,-3.7384439,40.3786949,-1,-1,-1
POINT (-3.7701073 40.382116),Unidad de Formación e Inserción Laboral Cid Campeador,,school,,,,,Calle de Anselmo Lorenzo,12,28044,,Comunidad de Madrid,,-3.7701073,40.382116,-1,-1,-1
POINT (-3.7088484 40.3442835),Academia Triunfo IV,,school,,,,,Calle de Gregorio Ortiz,19,28021,,,,-3.7088484,40.3442835,131,676,676
POINT (-3.6974005 40.3803439),"Zona Casas de Niños Capital-1, Nuestra Señora de la Fuencisla",,school,,,,,Calle de Tomelloso,39,28026,,Comunidad de Madrid,,-3.6974005,40.3803439,194,693,693
POINT (-3.7268943 40.3898138),Centro Privado de Educación Especial Peripatos,,school,,,,,Calle de las Clarisas,16,28019,,,,-3.7268943,40.3898138,-1,-1,-1
POINT (-3.6978304 40.3799781),Escuela Infantil-casa de Niños Nuestra Señora de la Fuencisla,,school,,,,,Calle de Tomelloso,39,28026,,Comunidad de Madrid,,-3.6978304,40.3799781,-1,-1,-1
POINT (-3.720462 40.4832131),Escuela Infantil-casa de Niños Bravo Murillo,,school,,,,,Calle Pico Balaitus,24,28035,,Comunidad de Madrid,,-3.720462,40.4832131,-1,-1,-1
POINT (-3.6245263 40.3984878),,,pharmacy,,pharmacy,,,Bulevar de José Prat,5,28032,,,,-3.6245263,40.3984878,283,725,725
POINT (-3.7081487 40.4033042),Go! Sushing,,restaurant,,,,,Paseo de las Acacias,29,28005,,,sushi,-3.7081487,40.4033042,-1,-1,-1
POINT (-3.7187131 40.4533223),Centro Privado de Formación Profesional Específica Ceu-instituto Superior de Estudios Profesionales,,school,,,,,Calle de los Pirineos,55,28040,,,,-3.7187131,40.4533223,-1,-1,-1
POINT (-3.6735361 40.403064),Centro Privado de Formación Profesional Específica Escuela Superior de Formación,,school,,,,,Calle del Doctor Esquerdo,160,28007,,,,-3.6735361,40.403064,650,106,106
POINT (-3.6741631 40.4604702),Centro Docente Extranjero En España Saint Anne's School (britanico),,school,,,,,Avenida de Alfonso XIII,162,28016,,,,-3.6741631,40.4604702,-1,-1,-1
POINT (-3.7154613 40.4373652),Centro Privado de Formación Profesional Específica Cev Centro de Estudios del Vídeo,,school,,,,,Calle de Gaztambide,65,28015,,,,-3.7154613,40.4373652,1019,898,898
POINT (-3.7080096 40.4193473),Kebab Grill & Pizza,,fast_food,,,,,Costanilla de los Ángeles,16,28013,,,kebab,-3.7080096,40.4193473,1272,930,930
POINT (-3.6980419 40.3659466),Centro Privado de Formación Profesional Específica Fundación Tomillo,,school,,,,,Calle de Albuñuelas,13,28041,,,,-3.6980419,40.3659466,-1,-1,-1
POINT (-3.7455367 40.3879747),Ceu II-Instituto Superior de Estudios Profesionales,,school,,,,,Camino de los Ingenieros,1,28047,,,,-3.7455367,40.3879747,-1,-1,-1
POINT (-3.7141346 40.4222168),Centro de Estudios Turísticos Ábaco,,school,,,,,Plaza de España,11,28008,,,,-3.7141346,40.4222168,685,825,825
POINT (-3.698531 40.4277342),Centro de estudios Acua,,school,,,,,Calle de Serrano Anguita,14,28004,,,,-3.698531,40.4277342,1014,1,1
POINT (-3.6579215 40.4274365),Centro de Estudios Avanzados Alta Dirección,,school,,,,,Calle de Ricardo Ortiz,29,28017,,,,-3.6579215,40.4274365,315,89,89
POINT (-3.6817504 40.452279),Centro Privado de Educación Especial Hospital Infantil San Rafael,,school,,,,,Avenida de Concha Espina,199,28016,,,,-3.6817504,40.452279,608,107,107
POINT (-3.6237972 40.421243),Centro Público de Educación de Personas Adultas Las Rosas,,school,,,,,Calle de Arcos de Jalón,9,28037,,Comunidad de Madrid,,-3.6237972,40.421243,166,686,686
POINT (-3.6946719 40.4872706),Aula Hospitalaria Ramón y Cajal,,school,,,,,,,28034,,Comunidad de Madrid,,-3.6946719,40.4872706,366,19,19
POINT (-3.6183793 40.4269241),Centro Privado de Educación Especial Pauta,,school,,,,,Calle Pobladura del Valle,13,28037,,,,-3.6183793,40.4269241,169,687,687
POINT (-3.7276224 40.3961695),Aula Hospitalaria Pradera de San Isidro,,school,,,,,Calle del Gorrión,2,28019,,,,-3.7276224,40.3961695,-1,-1,-1
POINT (-3.6969245 40.3764036),Aula Hospitalaria Doce de Octubre,,school,,,,,Avenida de Andalucía,5,28041,,Comunidad de Madrid,,-3.6969245,40.3764036,120,108,108
POINT (-3.7009655 40.4277773),VíaFormación,,school,,,,,Calle de Churruca,14,28004,,,,-3.7009655,40.4277773,1286,109,109
POINT (-3.7186888 40.4303866),Vicente Aleixandre,,school,,,,,Calle de Martín de los Heros,68,28008,,,,-3.7186888,40.4303866,-1,-1,-1
POINT (-3.7201053 40.4907501),Centro Privado de Educación de Personas Adultas Centro Bobath de Educación de Adultos,,school,,,,,Calle del Mirador de la Reina,115,28035,,,,-3.7201053,40.4907501,-1,-1,-1
POINT (-3.6741176 40.4606143),Centro Privado de Educación Secundaria Santa Ana,,school,,,,,Avenida de Alfonso XIII,162,28016,,,,-3.6741176,40.4606143,-1,-1,-1
POINT (-3.6578179 40.4273387),"Centro Privado de Educación Infantil, Primaria y Secundaria La Purísima",,school,,,,,Calle de Ricardo Ortiz,29,28017,,,,-3.6578179,40.4273387,315,89,89
POINT (-3.642912 40.4505522),Antiguo Centro de E.E. Aleph,,school,,,,,Avenida de Carondelet,23,28043,,,,-3.642912,40.4505522,-1,-1,-1
POINT (-3.7091222 40.4219683),Centro Privado de Formación Profesional Específica Instituto Vox,,school,,,,,Gran Vía,59,28013,,,,-3.7091222,40.4219683,1258,47,47
POINT (-3.6937054 40.4055933),Centro de Estudios Delicias,,school,,,,,Paseo de las Delicias,22,28045,,,,-3.6937054,40.4055933,966,110,110
POINT (-3.7199685 40.4907898),Centro Privado de Educación Especial Centro Bobath España,,school,,,,,Calle del Mirador de la Reina,115,28035,,,,-3.7199685,40.4907898,-1,-1,-1
POINT (-3.6887802 40.4004619),,,school,,,,,Calle de Bustamante,,28045,,,,-3.6887802,40.4004619,-1,-1,-1
POINT (-3.6724917 40.4443713),Centro Privado de Formación Profesional Específica Cesur-madrid,,school,,,,,Calle de Luis Cabrera,63,28002,,,,-3.6724917,40.4443713,-1,-1,-1
POINT (-3.6974625 40.427113),Radio Ecca,,school,,,,,Calle de los Hermanos Álvarez Quintero,2,28004,,,,-3.6974625,40.427113,-1,-1,-1
POINT (-3.6760244 40.4420363),Centro Privado de Educación de Personas Adultas Escuela Popular de Prosperidad,,school,,,,,Calle de Luis Cabrera,19,28002,,,,-3.6760244,40.4420363,-1,-1,-1
POINT (-3.7125901 40.3437863),Asociación Semilla,,school,,,,,Calle de Alberto Palacios,13,28021,,,,-3.7125901,40.3437863,132,111,111
POINT (-3.6736978 40.4324967),Centro Privado de Formación Profesional Específica Escuela Europea Ayudantes de Dirección,,school,,,,,Calle de Juan Bravo,69,28006,,,,-3.6736978,40.4324967,799,857,857
POINT (-3.6825417 40.4407041),"Escuela Superior de Informática, Márketing y Negocios I&M",,school,,,,,Calle de Velázquez,140,28006,,,,-3.6825417,40.4407041,-1,-1,-1
POINT (-3.6575662 40.4319569),Antigua E.S.I.,,school,,,,,Calle de Alcalá,261,28027,,,,-3.6575662,40.4319569,438,762,762
POINT (-3.6579278 40.4272719),Centro Privado de Educación Especial Aucavi,,school,,,,,Calle de Ricardo Ortiz,29,28017,,,,-3.6579278,40.4272719,315,89,89
POINT (-3.6104407 40.4244025),"Centro Privado de Educación Infantil, Primaria y Secundaria Timón",,school,,,,,Calle de Rusia,11,28022,,,,-3.6104407,40.4244025,-1,-1,-1
POINT (-3.6691398 40.4649618),Centro Docente Extranjero En España King's Infant School (britanico),,school,,,,,Calle de Prieto Ureña,9,28016,,,,-3.6691398,40.4649618,491,775,775
POINT (-3.6739855 40.4387272),Centro de Enseñanzas Superiores de Diseño de Interiores de Madrid,,school,,,,,Avenida de América,24,28028,,,,-3.6739855,40.4387272,843,112,112
POINT (-3.6153715 40.4228015),Murialdo,,school,,,,,Calle Argenta,8,28037,,,,-3.6153715,40.4228015,238,113,113
POINT (-3.6852449 40.4333387),Centro de Formación Comercial de Repsol YPF,,school,,,,,Calle de Juan Bravo,3,28006,,,,-3.6852449,40.4333387,781,853,853
POINT (-3.6723617 40.4303726),Centro Privado de Formación Profesional Específica San Roman Escuela de Estudios Superiores,,school,,,,,Calle de Montesa,39,28006,,,,-3.6723617,40.4303726,887,114,114
POINT (-3.749899 40.3722982),CEU III-Instituto Superior de Estudios Profesionales,,school,,,,,Calle de la Duquesa de Tamames,8,28044,,,,-3.749899,40.3722982,-1,-1,-1
POINT (-3.7128855 40.4080842),Redpiso,estate_agent,,,,estate_agent,,,,,,,,-3.7128855,40.4080842,991,896,896
POINT (-3.6788698 40.4672114),Centro Privado de Educación Primaria y Secundaria Antonio Vicente Mosquete,,school,,,,,Paseo de La Habana,208,,,,,-3.6788698,40.4672114,216,703,703
POINT (-3.6655256 40.3733631),Escuela Oficial de Idiomas de Vallecas,,language_school,,,,,Ronda Sur,229,28053,,Comunidad de Madrid,,-3.6655256,40.3733631,-1,-1,-1
POINT (-3.6728483 40.4475668),Centro CEPAL 2,,school,,,,,Calle de Sánchez Pacheco,49,28002,,,,-3.6728483,40.4475668,701,115,115
POINT (-3.5892617 40.4607021),Escuela Oficial de Idiomas de Barajas,,language_school,,,,,Calle de Antonio Sancha,,28042,,Comunidad de Madrid,,-3.5892617,40.4607021,49,92,92
POINT (-3.755932 40.3605286),"Centro Privado de Educación Infantil, Primaria y Secundaria Colegio Ártica",,school,,,,,Calle de los Morales,25,28054,,,,-3.755932,40.3605286,-1,-1,-1
POINT (-3.7145374 40.3905206),Centro Privado de Educación de Personas Adultas Cica,,school,,,,,Calle de Eduardo Rivas,10,28019,,,,-3.7145374,40.3905206,537,116,116
POINT (-3.6983624 40.4869888),"Centro Privado de Educación de Personas Adultas Centro Politecnico A Distancia y Editorial Cpd, S.l.",,school,,,,,Calle de Sangenjo,34,28034,,,,-3.6983624,40.4869888,-1,-1,-1
POINT (-3.7059396 40.5042712),Barra de Pintxos,,pub,,,,,,,,,,,-3.7059396,40.5042712,-1,-1,-1
POINT (-3.7882566 40.4456908),Carrefour Express,convenience,,,,,,Avenida de Europa,36,,Carrefour Express,Carrefour,,-3.7882566,40.4456908,29,57,57
POINT (-3.7396951 40.3795348),Centro Regional de Enseñanzas Integradas Sagrado Corazón de Jesús,,school,,,,,Calle del Padre Amigó,5,28025,,Comunidad de Madrid,,-3.7396951,40.3795348,-1,-1,-1
POINT (-3.7614528 40.3660096),,vacant,,,,,,Calle del Jacobeo,46,28054,,,,-3.7614528,40.3660096,-1,-1,-1
POINT (-3.7392194 40.3972323),Asociación MASI (Monitores de Apoyo Social a la Infancia),,kindergarten,,,ngo,,Calle de Gallur,251,28047,,,,-3.7392194,40.3972323,-1,-1,-1
POINT (-3.6753648 40.4587817),ESERP Madrid Business School,,school,,,,,Calle de Costa Rica,9,28016,,,,-3.6753648,40.4587817,-1,-1,-1
POINT (-3.6939918 40.5081229),Centro Médico Sanitas Montecarmelo,,,,clinic,,,Avenida del Monasterio de Silos,75,28049,,Sanitas,,-3.6939918,40.5081229,91,664,664
POINT (-3.6837403 40.5245875),Escuela Madrileña Alta Montaña. Centro de Formación,,school,,,,,,12,28049,,,,-3.6837403,40.5245875,15,77,77
POINT (-3.6843834 40.4257837),Antigua academia Ntm Madrid,,school,,,,,Calle de Velázquez,37,28001,,,,-3.6843834,40.4257837,-1,-1,-1
POINT (-3.7198382 40.4908145),Centro Privado de Formación Profesional Específica Centro Bobath de Formación Profesional,,school,,,,,Calle del Mirador de la Reina,115,28035,,,,-3.7198382,40.4908145,-1,-1,-1
POINT (-3.6865216 40.3596196),Equipo de Orientación Educativa y Psicopedagógica Atención Temprana Villaverde,,school,,,,,Calle del Consenso,10,28041,,Comunidad de Madrid,,-3.6865216,40.3596196,-1,-1,-1
POINT (-3.6419703 40.4011544),Equipo de Orientación Educativa y Psicopedagógica Atención Temprana Moratalaz-Villa de Vallecas,,school,,,,,Calle del Pico de los Artilleros,123,28030,,Comunidad de Madrid,,-3.6419703,40.4011544,-1,-1,-1
POINT (-3.6908463 40.4709935),Equipo de Orientación Educativa y Psicopedagógica Atención Temprana Tetuán,,school,,,,,Calle de las Magnolias,82,28029,,Comunidad de Madrid,,-3.6908463,40.4709935,673,823,823
POINT (-3.6126516 40.4239468),Equipo de Orientación Educativa y Psicopedagógica Atención Temprana San Blas,,school,,,,,Avenida de Canillejas a Vicálvaro,82,28022,,Comunidad de Madrid,,-3.6126516,40.4239468,239,117,117
POINT (-3.6383162 40.392878),Equipo de Orientación Educativa y Psicopedagógica Atención Temprana Puente de Vallecas,,school,,,,,Luis Marín,1,28038,,Comunidad de Madrid,,-3.6383162,40.392878,-1,-1,-1
POINT (-3.7367969 40.3769192),Equipo de Orientación Educativa y Psicopedagógica Atención Temprana Latina-Carabanchel-Centro,,school,,,,,Plaza Anocibar,3,28025,,Comunidad de Madrid,,-3.7367969,40.3769192,213,701,701
POINT (-3.6130074 40.4246789),Equipo de Orientación Educativa y Psicopedagógica Específico Deficiencias Motoricas,,school,,,,,Avenida de Canillejas a Vicálvaro,82,28022,,Comunidad de Madrid,,-3.6130074,40.4246789,239,117,117
POINT (-3.612134 40.4245574),Equipo de Orientación Educativa y Psicopedagógica Específico Deficiencias Auditivas,,school,,,,,Avenida de Canillejas a Vicálvaro,82,28022,,Comunidad de Madrid,,-3.612134,40.4245574,239,117,117
POINT (-3.6854296 40.5237887),Centro de Formación Ambiental Ciudad Escolar,,school,,,,,,,28049,,Comunidad de Madrid,,-3.6854296,40.5237887,15,77,77
POINT (-3.5939348 40.4733241),Centro Privado de Educación Especial Gaudem,,school,,,,,Calle de Playa de Barlovento,14,28042,,,,-3.5939348,40.4733241,43,118,118
POINT (-3.6323355 40.4291543),C.A.P. de Ciudad Lineal,,school,,,,,Calle de los Hermanos García Noblejas,70,28017,,,,-3.6323355,40.4291543,357,101,101
POINT (-3.6957165 40.4628333),Centro de Apoyo al Profesorado Madrid-Norte,,,,,government,,Calle del Limonero,28,28020,,,,-3.6957165,40.4628333,-1,-1,-1
POINT (-3.7147403 40.4280353),Centro de Apoyo al Profesorado de Madrid-Centro,,school,,,,,Calle de la Princesa,31,28008,,,,-3.7147403,40.4280353,-1,-1,-1
POINT (-3.6942669 40.4944309),Equipo de Orientación Educativa y Psicopedagógica General Tetuán-Fuencarral,,school,,,,,Calle de Hospitalet de Llobregat,4,28034,,Comunidad de Madrid,,-3.6942669,40.4944309,346,119,119
POINT (-3.7510856 40.3913501),Equipo de Orientación Educativa y Psicopedagógica General Latina,,school,,,,,Calle de los Yébenes,241,28047,,Comunidad de Madrid,,-3.7510856,40.3913501,-1,-1,-1
POINT (-3.6898898 40.4337612),Equipo de Orientación Educativa y Psicopedagógica General Centro-Arganzuela,,school,,,,,Calle de Fortuny,24,28004,,Comunidad de Madrid,,-3.6898898,40.4337612,-1,-1,-1
POINT (-3.7027923 40.3674674),Equipo de Orientación Educativa y Psicopedagógica General Villaverde-Usera,,school,,,,,Calle de Fernando Ortiz,,28041,,Comunidad de Madrid,,-3.7027923,40.3674674,114,669,669
POINT (-3.7407247 40.3807758),Equipo de Orientación Educativa y Psicopedagógica General Carabanchel,,school,,,,,Calle de Arnedo,22,28025,,Comunidad de Madrid,,-3.7407247,40.3807758,480,772,772
POINT (-3.6627403 40.3935675),Equipo de Orientación Educativa y Psicopedagógica General Puente Vallecas,,school,,,,,Plaza de Sierra Ministra,3,28053,,Comunidad de Madrid,,-3.6627403,40.3935675,-1,-1,-1
POINT (-3.6347644 40.4730484),Equipo de Orientación Educativa y Psicopedagógica General Hortaleza-Barajas,,school,,,,,Calle Zipaquira,15,28043,,Comunidad de Madrid,,-3.6347644,40.4730484,191,690,690
POINT (-3.6671722 40.4529012),Embajada de Vietnam,,,,,diplomatic,,Avenida de Alfonso XIII,54,28016,,,,-3.6671722,40.4529012,532,120,120
POINT (-3.6873502 40.3572805),Escuela Oficial de Idiomas de El Espinillo,,language_school,,,,,Calle de la Alianza,,28041,,Comunidad de Madrid,,-3.6873502,40.3572805,-1,-1,-1
POINT (-3.5937478 40.4732644),"Centro Privado de Educación Infantil, Primaria y Secundaria Colegio Gaudem",,school,,,,,Calle de Playa de Barlovento,14,28042,,,,-3.5937478,40.4732644,43,118,118
POINT (-3.701625 40.4286944),Master-D,,school,,,,,Calle de Sagasta,4,,,,,-3.701625,40.4286944,1321,1,1
POINT (-3.6980352 40.4231999),D'Mystic,,pub,,,,,Calle de Gravina,5,28004,,,,-3.6980352,40.4231999,1282,121,121
POINT (-3.6982486 40.4231951),El Buo,,bar,,,,,,,,,,,-3.6982486,40.4231951,1282,121,121
POINT (-3.7076389 40.4127776),San Bruno,,pub,,,,,,,,,,,-3.7076389,40.4127776,-1,-1,-1
POINT (-3.6890563 40.4189239),La Gamella,,restaurant,,,,,,,,,,,-3.6890563,40.4189239,-1,-1,-1
POINT (-3.7032672 40.428686),Teatro Maravillas,,theatre,,,,,,,,,,,-3.7032672,40.428686,-1,-1,-1
POINT (-3.6903692 40.5105475),Farmacia Montecarmelo,,pharmacy,,pharmacy,,,Calle Monasterio de Arlanza,20,28049,,,,-3.6903692,40.5105475,89,663,663
POINT (-3.7847372 40.4584689),Oficina Postal Aravaca,,post_office,,,,,Calle Caroli,10,28023,Correos,Correos,,-3.7847372,40.4584689,36,644,644
POINT (-3.5834706 40.4428257),Caixabank,,bank,,,,,Calle de Campezo,16,28022,Caixabank,,,-3.5834706,40.4428257,56,122,122
POINT (-3.6783821 40.5084976),McDonald's,,fast_food,,,,,,,,McDonald's,,burger,-3.6783821,40.5084976,146,680,680
POINT (-3.6554348 40.4936118),Cantina,,restaurant,,,,,Calle del Príncipe Carlos,,28050,,,,-3.6554348,40.4936118,127,123,123
POINT (-3.658128 40.4952954),Banco Santander,,bank,,,,,Calle del Principe Carlos,,28050,Banco Santander,Santander,,-3.658128,40.4952954,125,674,674
POINT (-3.655087 40.4925904),BBVA,,bank,,,,,,,28050,BBVA,BBVA,,-3.655087,40.4925904,127,123,123
POINT (-3.6506748 40.4888193),,convenience,,,,,,Calle del Príncipe Carlos,26,28050,,,,-3.6506748,40.4888193,126,123,123
POINT (-3.6758292 40.5065419),Ahorramás,supermarket,,,,,,,,,Ahorramás,,,-3.6758292,40.5065419,-1,-1,-1
POINT (-3.6972543 40.442361),,,pharmacy,,pharmacy,,,,,,,,,-3.6972543,40.442361,-1,-1,-1
POINT (-3.7578375 40.4610513),Repsol,convenience,fuel,,,,,,,,Repsol,Repsol,,-3.7578375,40.4610513,-1,-1,-1
POINT (-3.7007985 40.4383553),Libere,,,hotel,,,,Calle de José Abascal,8,28003,,,,-3.7007985,40.4383553,1063,124,124
POINT (-3.6792318 40.5116026),,,pharmacy,,pharmacy,,,Calle de María Tubau,19,28050,,,,-3.6792318,40.5116026,146,680,680
POINT (-3.6755645 40.4958129),El Rincón de las Tablas,,restaurant,,,,,,,,,,,-3.6755645,40.4958129,-1,-1,-1
POINT (-3.6783171 40.5034299),Zurita e Hidalgo,butcher,,,,,,Calle de Burguete,14,,,,,-3.6783171,40.5034299,-1,-1,-1
POINT (-3.6831629 40.4673844),,,post_box,,,,,,,,Correos,Correos,,-3.6831629,40.4673844,590,125,125
POINT (-3.6869808 40.4666366),Farmacia Lda. A. Abeger,,pharmacy,,pharmacy,,,Calle de Mateo Inurria,9,28036,,,,-3.6869808,40.4666366,677,125,125
POINT (-3.6806773 40.4601506),,,post_box,,,,,Avenida de Alfonso XIII,,,Correos,Correos,,-3.6806773,40.4601506,-1,-1,-1
POINT (-3.6763207 40.4583925),,,post_box,,,,,,,,Correos,Correos,,-3.6763207,40.4583925,646,126,126
POINT (-3.6599699 40.4585482),,,post_box,,,,,,,,Correos,Correos,,-3.6599699,40.4585482,307,730,730
POINT (-3.5813898 40.4512504),Bar-Restaurante La Parada,,restaurant,,,,,,,,,,,-3.5813898,40.4512504,51,127,127
POINT (-3.5815503 40.4512553),Bar los Arcos,,restaurant,,,,,,,,,,,-3.5815503,40.4512553,51,127,127
POINT (-3.685306 40.4519724),,,post_box,,,,,,,,Correos,Correos,,-3.685306,40.4519724,607,808,808
POINT (-3.6853594 40.4520557),,,pharmacy,,pharmacy,,,Glorieta de los Sagrados Corazones,4,28036,,,,-3.6853594,40.4520557,607,808,808
POINT (-3.6941868 40.4673712),,,pharmacy,,pharmacy,,,Calle del Cañaveral,24,28029,,,,-3.6941868,40.4673712,-1,-1,-1
POINT (-3.6892113 40.4685702),,,pharmacy,,pharmacy,,,Paseo de la Castellana,199,28046,,,,-3.6892113,40.4685702,675,128,128
POINT (-3.6894353 40.4701742),Mª Isabel Benito de Sanz,,pharmacy,,pharmacy,,,Calle de los Mártires de la Ventilla,111,,,,,-3.6894353,40.4701742,-1,-1,-1
POINT (-3.677824 40.4517752),,,post_box,,,,,,,,Correos,Correos,,-3.677824,40.4517752,695,126,126
POINT (-3.6705814 40.4463845),,,post_box,,,,,,,,Correos,Correos,,-3.6705814,40.4463845,719,834,834
POINT (-3.6662628 40.4441642),,,pharmacy,,pharmacy,,,Calle de Santa Hortensia,33,28002,,,,-3.6662628,40.4441642,-1,-1,-1
POINT (-3.6674508 40.5102499),,,bank,,,,,,,,,Bankia,,-3.6674508,40.5102499,142,61,61
POINT (-3.6685636 40.5093221),Caixabank,,bank,,,,,,,,Caixabank,,,-3.6685636,40.5093221,142,61,61
POINT (-3.6940691 40.4829998),El Rosario,,restaurant,,,,,,,,,,,-3.6940691,40.4829998,243,129,129
POINT (-3.6941024 40.482921),Caixabank,,bank,,,,,,,,Caixabank,,,-3.6941024,40.482921,243,129,129
POINT (-3.6936843 40.4819696),Licenciada Edurne Hijazo Ugarte,,pharmacy,,pharmacy,,,,,,,,,-3.6936843,40.4819696,243,129,129
POINT (-3.6936288 40.4821281),Caixabank,,bank,,,,,,,,Caixabank,Caixabank,,-3.6936288,40.4821281,243,129,129
POINT (-3.6936461 40.483583),Quiosco de prensa,kiosk,,,,,,,,,,,,-3.6936461,40.483583,243,129,129
POINT (-3.6953857 40.4835699),Estanco,tobacco,,,,,,,,,,,,-3.6953857,40.4835699,243,129,129
POINT (-3.6958009 40.4833027),El Escondite Jamonal,,restaurant,,,,,,,,,,,-3.6958009,40.4833027,243,129,129
POINT (-3.6949842 40.4842487),Jao Chan,convenience,,,,,,,,,,,,-3.6949842,40.4842487,243,129,129
POINT (-3.6950594 40.484161),,butcher,,,,,,,,,,,,-3.6950594,40.484161,243,129,129
POINT (-3.6948923 40.4840473),,,pharmacy,,pharmacy,,,,,,,,,-3.6948923,40.4840473,243,129,129
POINT (-3.6930029 40.438666),NH Zurbano,,,hotel,,,,,,,,,,-3.6930029,40.438666,762,130,130
POINT (-3.6572587 40.5059739),El Oso,,restaurant,,,,,,,,,,,-3.6572587,40.5059739,-1,-1,-1
POINT (-3.6507341 40.4891568),Banco Santander,,bank,,,,,,,,Banco Santander,Santander,,-3.6507341,40.4891568,126,123,123
POINT (-3.6748903 40.5045383),Ôven,,restaurant,,,,,,,,,,,-3.6748903,40.5045383,-1,-1,-1
POINT (-3.6746957 40.5059631),La Lola,,restaurant,,,,,,,,,,,-3.6746957,40.5059631,154,684,684
POINT (-3.6906699 40.510059),Burger King,,fast_food,,,,,,,,Burger King,,burger,-3.6906699,40.510059,89,663,663
POINT (-3.6889964 40.4286343),Embajada de Bélgica - Ambassade van België - Ambassade de Belgique - Botschaft von Belgien,,,,,diplomatic,,Paseo de la Castellana,18,28046,,,,-3.6889964,40.4286343,-1,-1,-1
