geometry,name,shop,amenity,tourism,healthcare,office,leisure,addr:street,addr:housenumber,addr:postcode,brand,operator,cuisine,lon,lat,lon_rnd,lat_rnd,name_norm,Zaragoza_hdbscan_5_5
POINT (-0.8992936 41.6490424),Tien21,electronics,,,,,,,,,,,,-0.8992936,41.6490424,-100109,4636371,tien21,-1
POINT (-0.917682 41.6442586),Pérez-Ezquerra,,pharmacy,,pharmacy,,,Plaza Azteca,,50012.0,,,,-0.917682,41.6442586,-102156,4635839,pérez-ezquerra,-1
POINT (-0.8966738 41.638636),Ibercaja,,bank,,,,,,,,Ibercaja,IberCaja,,-0.8966738,41.638636,-99818,4635213,ibercaja,235
POINT (-0.9069655 41.6609331),Mercadona,supermarket,,,,,,Avenida de la Autonomía,,50003.0,Mercadona,,,-0.9069655,41.6609331,-100963,4637695,mercadona,-1
POINT (-0.8909493 41.6679743),"Sanz Peruga, María Pilar",,pharmacy,,pharmacy,,,Calle Clara Campoamor,7,50018.0,,,,-0.8909493,41.6679743,-99180,4638479,"sanz peruga, maría pilar",-1
POINT (-0.8737866 41.652125),Taberna Urbana,,pub,,,,,,,,,,,-0.8737866,41.652125,-97270,4636715,taberna urbana,-1
POINT (-0.9015141 41.66247),Ríos Mitchell Bermejo De Torres Solanot,,pharmacy,,pharmacy,,,Calle de Bonn,10,50003.0,,,,-0.9015141,41.66247,-100357,4637866,ríos mitchell bermejo de torres solanot,107
POINT (-0.8996528 41.6613584),Alcampo,supermarket,,,,,,,,,Alcampo,,,-0.8996528,41.6613584,-100149,4637742,alcampo,107
POINT (-0.8942389 41.6318444),,,,viewpoint,,,,,,,,,,-0.8942389,41.6318444,-99547,4634457,,84
POINT (-0.9056599 41.6396189),BonÀrea,supermarket,,,,,,Calle de los Condes de Aragón,12,50009.0,BonÀrea,,,-0.9056599,41.6396189,-100818,4635322,bonàrea,-1
POINT (-0.9068976 41.6388654),Eroski,supermarket,,,,,,,,,Eroski,,,-0.9068976,41.6388654,-100956,4635238,eroski,-1
POINT (-0.9064232 41.6382058),Banco Sabadell,,bank,,,,,,,,Banco Sabadell,Sabadell,,-0.9064232,41.6382058,-100903,4635165,banco sabadell,127
POINT (-0.9078461 41.6391895),Ibercaja,,bank,,,,,,,,Ibercaja,IberCaja,,-0.9078461,41.6391895,-101061,4635275,ibercaja,-1
POINT (-0.9080181 41.6393821),"Hernández Vitoria, Luis",,pharmacy,,pharmacy,,,Avenida de Juan Carlos I,41-43,50009.0,,,,-0.9080181,41.6393821,-101081,4635296,"hernández vitoria, luis",130
POINT (-0.9060872 41.6426228),40/15,,cafe,,,,,,,,,,,-0.9060872,41.6426228,-100866,4635657,40/15,-1
POINT (-0.8881719 41.6427539),Bonaparte,,restaurant,,,,,Avenida Francisco de Goya,17,,,,,-0.8881719,41.6427539,-98871,4635671,bonaparte,294
POINT (-0.8891362 41.6458892),Alafa,hairdresser,,,,,,,,,,,,-0.8891362,41.6458892,-98979,4636020,alafa,274
POINT (-0.8969864 41.6407392),El Tuno,,restaurant,,,,,,,,,,,-0.8969864,41.6407392,-99853,4635447,el tuno,-1
POINT (-0.871244 41.6360964),Colegio Publico Calixto Ariño,,school,,,,,Calle de José Galiay,2,,,,,-0.871244,41.6360964,-96987,4634930,colegio publico calixto ariño,102
POINT (-0.8704525 41.6367448),La Salle Montemolín,,school,,,,,,,,,La Salle,,-0.8704525,41.6367448,-96899,4635002,la salle montemolín,102
POINT (-0.8887719 41.656743),San Blas 97,,cafe,,,,,,,,,,,-0.8887719,41.656743,-98938,4637229,san blas 97,-1
POINT (-0.8905462 41.6579474),,,taxi,,,,,,,,,,,-0.8905462,41.6579474,-99136,4637363,,-1
POINT (-0.891647 41.6579696),Alcampo,supermarket,,,,,,,,,Alcampo,,,-0.891647,41.6579696,-99258,4637365,alcampo,-1
POINT (-0.8903953 41.65808),Bar Mateo,,cafe,,,,,,,,,,,-0.8903953,41.65808,-99119,4637377,bar mateo,-1
POINT (-0.907944 41.6555026),,,taxi,,,,,,,,,,,-0.907944,41.6555026,-101072,4637091,,-1
POINT (-0.9191085 41.6504352),McDonald's,,fast_food,,,,,Vía Hispanidad,87-89,50017.0,McDonald's,,burger,-0.9191085,41.6504352,-102315,4636526,mcdonald's,-1
POINT (-0.9019593 41.6397303),J85,,pub,,,,,,,,,,,-0.9019593,41.6397303,-100406,4635335,j85,112
POINT (-0.9018827 41.6399035),Basic-Fit,,,,,,fitness_centre,,,,Basic-Fit,,,-0.9018827,41.6399035,-100398,4635354,basic-fit,112
POINT (-0.902852 41.6392027),Centro de Salud la Romareda,,clinic,,,,,,,,,,,-0.902852,41.6392027,-100505,4635276,centro de salud la romareda,-1
POINT (-0.8972605 41.6387598),BBVA,,bank,,,,,,,,BBVA,BBVA,,-0.8972605,41.6387598,-99883,4635227,bbva,-1
POINT (-0.8983307 41.6495529),Mercadona,supermarket,,,,,,,,,Mercadona,,,-0.8983307,41.6495529,-100002,4636428,mercadona,232
POINT (-0.8991039 41.649696),,,bank,,,,,,,,,CAI,,-0.8991039,41.649696,-100088,4636444,,231
POINT (-0.8994625 41.6493221),Ibercaja,,bank,,,,,,,,Ibercaja,IberCaja,,-0.8994625,41.6493221,-100128,4636403,ibercaja,-1
POINT (-0.8984491 41.6490696),Laboral kutxa,,bank,,,,,,,,,Caja Laboral,,-0.8984491,41.6490696,-100015,4636374,laboral kutxa,-1
POINT (-0.8711056 41.6597125),Estación Norte,,,hostel,,,,,,,,,,-0.8711056,41.6597125,-96971,4637559,estación norte,90
POINT (-0.8713128 41.6591837),Cumbre,,,hostel,,,,,,,,,,-0.8713128,41.6591837,-96995,4637500,cumbre,90
POINT (-0.8740899 41.6589599),Mercadona,supermarket,,,,,,,,,Mercadona,,,-0.8740899,41.6589599,-97304,4637475,mercadona,93
POINT (-0.8999949 41.6375949),Simply Market,supermarket,,,,,,,,,Simply Market,,,-0.8999949,41.6375949,-100187,4635097,simply market,121
POINT (-0.8875618 41.6498736),Puerta del Carmen,,,attraction,,,,,,,,,,-0.8875618,41.6498736,-98803,4636464,puerta del carmen,-1
POINT (-0.8743043 41.6374519),Alcampo,supermarket,,,,,,,,,Alcampo,,,-0.8743043,41.6374519,-97328,4635081,alcampo,-1
POINT (-0.8939812 41.6406116),Telepizza,,fast_food,,,,,Plaza de San Francisco,5,,Telepizza,,pizza,-0.8939812,41.6406116,-99518,4635433,telepizza,-1
POINT (-0.8957269 41.6417627),C. Cardenal Xavierre,,,guest_house,,,,Plaza de San Francisco,15,50006.0,,,,-0.8957269,41.6417627,-99712,4635561,c. cardenal xavierre,-1
POINT (-0.8941793 41.6413498),Ibercaja,,bank,,,,,,,,Ibercaja,IberCaja,,-0.8941793,41.6413498,-99540,4635515,ibercaja,-1
POINT (-0.8867816 41.6400595),Ibercaja,,bank,,,,,,,,Ibercaja,,,-0.8867816,41.6400595,-98717,4635371,ibercaja,-1
POINT (-0.8806731 41.6392182),Casamayor Lalana Ruiz Álvarez,,pharmacy,,pharmacy,,,Avenida del Tenor Fleta,50,50007.0,,,,-0.8806731,41.6392182,-98037,4635278,casamayor lalana ruiz álvarez,204
POINT (-0.8752161 41.6386997),Ibercaja,,bank,,,,,,,,Ibercaja,,,-0.8752161,41.6386997,-97429,4635220,ibercaja,200
POINT (-0.8935525 41.6783342),Bar Xirgu,,cafe,,,,,,,,,,,-0.8935525,41.6783342,-99470,4639632,bar xirgu,-1
POINT (-0.8736559 41.6455145),PCBox,computer,,,,,,,,50008.0,,,,-0.8736559,41.6455145,-97255,4635979,pcbox,185
POINT (-0.8743308 41.6373334),"González Vadillo, María Concepción",,pharmacy,,pharmacy,,,Camino del Puente Virrey,45,50008.0,,,,-0.8743308,41.6373334,-97331,4635068,"gonzález vadillo, maría concepción",-1
POINT (-0.8751935 41.6349309),Ibercaja,,bank,,,,,,,,Ibercaja,IberCaja,,-0.8751935,41.6349309,-97427,4634801,ibercaja,-1
POINT (-0.8754351 41.6385336),"Torrijo Rodríguez, Mercedes",,pharmacy,,pharmacy,,,Avenida de San José,117-119,50013.0,,,,-0.8754351,41.6385336,-97453,4635202,"torrijo rodríguez, mercedes",200
POINT (-0.8778317 41.6366593),Primaprix,supermarket,,,,,,,,,Primaprix,,,-0.8778317,41.6366593,-97720,4634993,primaprix,-1
POINT (-0.877931 41.6362526),Plaza,,cafe,,,,,,,,,,,-0.877931,41.6362526,-97731,4634948,plaza,-1
POINT (-0.8774764 41.6349759),Dia,supermarket,,,,,,,,,Dia,,,-0.8774764,41.6349759,-97681,4634806,dia,-1
POINT (-0.8782101 41.6342723),Ibercaja,,bank,,,,,,,,Ibercaja,Ibercaja,,-0.8782101,41.6342723,-97762,4634727,ibercaja,-1
POINT (-0.8803652 41.6331261),"Senante Lop, María Isabel",,pharmacy,,pharmacy,,,Plaza Canal Imperial,1,50007.0,,,,-0.8803652,41.6331261,-98002,4634600,"senante lop, maría isabel",120
POINT (-0.881182 41.6343979),Clínica Veterinaria San Fernando,,veterinary,,,,,,,,,,,-0.881182,41.6343979,-98093,4634741,clínica veterinaria san fernando,-1
POINT (-0.8795775 41.6352789),Ibercaja,,bank,,,,,,,,Ibercaja,IberCaja,,-0.8795775,41.6352789,-97915,4634839,ibercaja,207
POINT (-0.8788715 41.6348354),BBVA,,bank,,,,,,,,BBVA,BBVA,,-0.8788715,41.6348354,-97836,4634790,bbva,206
POINT (-0.8836463 41.6644662),,,post_box,,,,,,,,Correos,Correos,,-0.8836463,41.6644662,-98368,4638088,,53
POINT (-0.8793133 41.6606945),Cafetería Macanaz,,cafe,,,,,,,,,,,-0.8793133,41.6606945,-97885,4637669,cafetería macanaz,-1
POINT (-0.8780315 41.6610583),La Plaza de DIA,supermarket,,,,,,,,,La Plaza de DIA,,,-0.8780315,41.6610583,-97742,4637709,la plaza de dia,-1
POINT (-0.8966548 41.6450495),El Emir,,cafe,,,,,,,,,,,-0.8966548,41.6450495,-99816,4635927,el emir,267
POINT (-0.8812922 41.6399523),Aulazenter,,school,,,,,Avenida de Tenor Fleta,51,50008.0,,,,-0.8812922,41.6399523,-98105,4635359,aulazenter,-1
POINT (-0.8917083 41.6410021),,,post_box,,,,,,,,Correos,Correos,,-0.8917083,41.6410021,-99265,4635476,,309
POINT (-0.8998548 41.6448734),"Alfonso Alfonso, Marciano",,pharmacy,,,,,Calle de Corona de Aragon,53,50009.0,,,,-0.8998548,41.6448734,-100172,4635907,"alfonso alfonso, marciano",-1
POINT (-0.9001695 41.645128),Café Bar Montesol,,cafe,,,,,,,,,,,-0.9001695,41.645128,-100207,4635936,café bar montesol,-1
POINT (-0.8907511 41.641049),"Clavería Muniesa, Manuel",,pharmacy,,pharmacy,,,Calle San Juan de la Cruz,23,50006.0,,,,-0.8907511,41.641049,-99158,4635482,"clavería muniesa, manuel",245
POINT (-0.881433 41.6570086),La Imperial,,cafe,,,,,,,,,,,-0.881433,41.6570086,-98121,4637258,la imperial,-1
POINT (-0.8949492 41.6466733),Fitness Park,,,,,,fitness_centre,,,,,,,-0.8949492,41.6466733,-99626,4636108,fitness park,241
POINT (-0.8730132 41.642124),"Díez Villarroel, María Luisa",,pharmacy,,pharmacy,,,Avenida de San José,61,50013.0,,,,-0.8730132,41.642124,-97184,4635601,"díez villarroel, maría luisa",191
POINT (-0.8717478 41.6436042),Mercadona,supermarket,,,,,,,,,Mercadona,,,-0.8717478,41.6436042,-97043,4635766,mercadona,178
POINT (-0.8713224 41.6430381),"Bujanda Díaz De Cerio, María Ángeles",,pharmacy,,pharmacy,,,Calle Santuario de Cabañas,5,50013.0,,,,-0.8713224,41.6430381,-96996,4635703,"bujanda díaz de cerio, maría ángeles",-1
POINT (-0.8703791 41.6415524),Francisco,hairdresser,,,,,,,,,,,,-0.8703791,41.6415524,-96891,4635538,francisco,178
POINT (-0.8649725 41.63788),"Izuzquiza Montaner, Ana Rosa",,pharmacy,,pharmacy,,,Calle Principado de Morea,4,50013.0,,,,-0.8649725,41.63788,-96289,4635129,"izuzquiza montaner, ana rosa",-1
POINT (-0.8639556 41.6385325),Colegio Bajo Aragón,,school,,,,,,,,,,,-0.8639556,41.6385325,-96176,4635201,colegio bajo aragón,-1
POINT (-0.867373 41.6409578),McDonald's,,fast_food,,,,,Plaza de Utrillas,6,,McDonald's,,burger,-0.867373,41.6409578,-96556,4635471,mcdonald's,178
POINT (-0.8724829 41.644676),"Gallego Richard, María Carmen",,pharmacy,,pharmacy,,,Avenida de San José,21,50013.0,,,,-0.8724829,41.644676,-97125,4635885,"gallego richard, maría carmen",-1
POINT (-0.8737622 41.6454832),"Checa Poves, María Asunción",,pharmacy,,pharmacy,,,Calle Reina Fabiola,17,50008.0,,,,-0.8737622,41.6454832,-97267,4635975,"checa poves, maría asunción",185
POINT (-0.8796447 41.6552598),Burguer Paco,,fast_food,,,,,,,,,,burger,-0.8796447,41.6552598,-97922,4637064,burguer paco,-1
POINT (-0.8743648 41.6526014),El Fuelle,,restaurant,,,,,Calle Mayor,59,,,,,-0.8743648,41.6526014,-97334,4636768,el fuelle,283
POINT (-0.8785162 41.6537341),Taberna D'aragón,,cafe,,,,,Plaza Ariño,1,,,,,-0.8785162,41.6537341,-97796,4636894,taberna d'aragón,303
POINT (-0.8949199 41.6419671),Loch Ness,,bar,,,,,,,,,,,-0.8949199,41.6419671,-99622,4635584,loch ness,227
POINT (-0.8903267 41.6705747),Cinesa,,cinema,,,,,,,,Cinesa,,,-0.8903267,41.6705747,-99111,4638768,cinesa,-1
POINT (-0.8827113 41.6509574),Palafox,,cinema,,,,,Paseo de la Independencia,12,,,Zarafilms S.A.,,-0.8827113,41.6509574,-98263,4636585,palafox,249
POINT (-0.8853346 41.6503607),Sala Cervantes,,cinema,,,,,,,,,,,-0.8853346,41.6503607,-98555,4636518,sala cervantes,249
POINT (-0.8900469 41.6722999),Hipercor,supermarket,,,,,,Calle de María Zambrano,35,50015.0,Hipercor,,,-0.8900469,41.6722999,-99080,4638960,hipercor,-1
POINT (-0.8943048 41.6567455),Teatro de la Estación,,theatre,,,,,,,,,,,-0.8943048,41.6567455,-99554,4637229,teatro de la estación,154
POINT (-0.9100631 41.6676183),Nuevo Teatro Arbolé,,theatre,,,,,,,,,,,-0.9100631,41.6676183,-101308,4638439,nuevo teatro arbolé,-1
POINT (-0.8779671 41.6538909),Dekasa,houseware,,,,,,,,,,,,-0.8779671,41.6538909,-97735,4636911,dekasa,303
POINT (-0.8781081 41.6530468),Dia,supermarket,,,,,,,,,Dia,,,-0.8781081,41.6530468,-97751,4636817,dia,303
POINT (-0.8779822 41.652869),Ibercaja,,bank,,,,,,,,Ibercaja,IberCaja,,-0.8779822,41.652869,-97737,4636797,ibercaja,-1
POINT (-0.8788064 41.652238),Il Principale,,restaurant,,,,,Calle Verónica,1,50001.0,,,italian,-0.8788064,41.652238,-97829,4636727,il principale,-1
POINT (-0.8864228 41.627404),Casa de la Memoria Histórica Democrática de Zaragoza,,community_centre,,,,,,,,,,,-0.8864228,41.627404,-98677,4633963,casa de la memoria histórica democrática de zaragoza,-1
POINT (-0.8762789 41.6468021),Dfabula,,cafe,,,,,,,,,,,-0.8762789,41.6468021,-97547,4636122,dfabula,-1
POINT (-0.8758895 41.6457827),Tesorería General de la Seguridad Social (Dirección Provincial),,,,,government,,,,,,,,-0.8758895,41.6457827,-97504,4636009,tesorería general de la seguridad social (dirección provincial),179
POINT (-0.8766533 41.6454729),Hotel Boston,,,hotel,,,,Camino de las Torres,28,,,,,-0.8766533,41.6454729,-97589,4635974,hotel boston,-1
POINT (-0.8772657 41.6491198),Dia,supermarket,,,,,,,,,Dia,,,-0.8772657,41.6491198,-97657,4636380,dia,-1
POINT (-0.8709502 41.6510618),Biblioteca Pública María Moliner,,library,,,,,,,,,,,-0.8709502,41.6510618,-96954,4636596,biblioteca pública maría moliner,111
POINT (-0.9204841 41.6490961),AC Hotel Los Enlaces by Marriot,,,hotel,,,,Calle Pilar Miró,1,,,,,-0.9204841,41.6490961,-102468,4636377,ac hotel los enlaces by marriot,99
POINT (-0.8784594 41.6324966),"Prieto Alvarez, Fernando",,pharmacy,,pharmacy,,,Calle de Santa Gema,53,50007.0,,,,-0.8784594,41.6324966,-97790,4634530,"prieto alvarez, fernando",120
POINT (-0.8760041 41.6325937),Martín Martín,convenience,,,,,,,,,Martín Martín,,,-0.8760041,41.6325937,-97517,4634540,martín martín,141
POINT (-0.8839496 41.6376003),"Gil Marchite, Ignacio",,pharmacy,,pharmacy,,,Calle de Don Luis Sallenave,13,50007.0,,,,-0.8839496,41.6376003,-98401,4635098,"gil marchite, ignacio",-1
POINT (-0.9209573 41.6488432),"García Solans, José Ramón",,pharmacy,,pharmacy,,,Calle de Mosén Jose Bosqued,4,50011.0,,,,-0.9209573,41.6488432,-102521,4636349,"garcía solans, josé ramón",99
POINT (-0.9071173 41.6296671),"Velasco Montes, Susana",,pharmacy,,pharmacy,,,Vía Ibérica,12,50009.0,,,,-0.9071173,41.6296671,-100980,4634215,"velasco montes, susana",45
POINT (-0.909122 41.630344),"Mayo Orofino, Silvia",,pharmacy,,pharmacy,,,Calle del Embarcadero,32,50009.0,,,,-0.909122,41.630344,-101203,4634290,"mayo orofino, silvia",45
POINT (-0.9114576 41.6323172),"Domínguez Quiroga, Joaquín",,pharmacy,,pharmacy,,,Calle del Viñedo Viejo,2,50009.0,,,,-0.9114576,41.6323172,-101463,4634510,"domínguez quiroga, joaquín",-1
POINT (-0.9040566 41.6348244),"Muñagorri Arregui, María Isabel",,pharmacy,,pharmacy,,,Calle de Juan II de Aragón,5,50009.0,,,,-0.9040566,41.6348244,-100640,4634789,"muñagorri arregui, maría isabel",-1
POINT (-0.9015117 41.6486652),Colegio Mayor Josefa Segovia,,,guest_house,,,,Calle de Duquesa Villahermosa,,,,,,-0.9015117,41.6486652,-100356,4636329,colegio mayor josefa segovia,139
POINT (-0.8984813 41.6463752),,,post_box,,,,,,,,Correos,Correos,,-0.8984813,41.6463752,-100019,4636074,,-1
POINT (-0.8988717 41.6489046),Los Navarros,,pub,,,,,,,,,,,-0.8988717,41.6489046,-100062,4636356,los navarros,-1
POINT (-0.8989822 41.6485578),Café Berlanga,,cafe,,,,,,,,,,,-0.8989822,41.6485578,-100075,4636317,café berlanga,-1
POINT (-0.9010684 41.6469765),Bar Mana,,pub,,,,,,,,,,,-0.9010684,41.6469765,-100307,4636141,bar mana,-1
POINT (-0.8998345 41.6481744),BBVA,,bank,,,,,,,,BBVA,BBVA,,-0.8998345,41.6481744,-100170,4636275,bbva,188
POINT (-0.9165323 41.6508024),Domino's,,fast_food,,,,,Pilar Miró,1,,Domino's,,pizza,-0.9165323,41.6508024,-102028,4636567,domino's,-1
POINT (-0.9317052 41.6286356),Eroski,supermarket,,,,,,,,,Eroski,,,-0.9317052,41.6286356,-103717,4634100,eroski,37
POINT (-0.9149715 41.6136289),La Junquera,,restaurant,,,,,Camino de la Fuente de la Junquera,120,,,,,-0.9149715,41.6136289,-101855,4632429,la junquera,-1
POINT (-0.9139853 41.6151155),Neguri,,restaurant,,,,,,,,,,,-0.9139853,41.6151155,-101745,4632595,neguri,-1
POINT (-0.9000104 41.6506244),"Villacampa Cubelos, Angel Jose",,pharmacy,,pharmacy,,,Camino de La Mosquetera,56,50010.0,,,,-0.9000104,41.6506244,-100189,4636548,"villacampa cubelos, angel jose",113
POINT (-0.8997284 41.653689),Nick Havanna,,pub,,,,,,,,,,,-0.8997284,41.653689,-100158,4636889,nick havanna,-1
POINT (-0.9022746 41.6538593),BBVA,,bank,,,,,,,,BBVA,BBVA,,-0.9022746,41.6538593,-100441,4636908,bbva,143
POINT (-0.9027529 41.6537437),Banco Santander,,bank,,,,,,,,Banco Santander,Santander,,-0.9027529,41.6537437,-100494,4636895,banco santander,143
POINT (-0.8758515 41.6528577),El Plato Reverde,,restaurant,,,,,,,,,,,-0.8758515,41.6528577,-97500,4636796,el plato reverde,-1
POINT (-0.8832827 41.651996),El Calamar Bravo,,fast_food,,,,,,,,,,squid,-0.8832827,41.651996,-98327,4636700,el calamar bravo,248
POINT (-0.9224605 41.6595205),Carrefour,supermarket,,,,,,,,,Carrefour,,,-0.9224605,41.6595205,-102688,4637538,carrefour,66
POINT (-0.9081194 41.6318373),"Sancho Garralaga, Hortensia",,pharmacy,,pharmacy,,,Calle de La Via,32-34,50009.0,,,,-0.9081194,41.6318373,-101092,4634456,"sancho garralaga, hortensia",45
POINT (-0.8930605 41.6504657),La Ferroviaria,,,guest_house,,,,,,,,,,-0.8930605,41.6504657,-99415,4636530,la ferroviaria,106
POINT (-0.8872801 41.6487555),One 4 One,,,,,coworking,,,,,,,,-0.8872801,41.6487555,-98772,4636339,one 4 one,216
POINT (-0.8918932 41.645937),Marina Hernando Lleyda,,pharmacy,,pharmacy,,,Calle Cortes de Aragon,19,50005.0,,,,-0.8918932,41.645937,-99286,4636026,marina hernando lleyda,259
POINT (-0.8834579 41.650956),Laurel Café,,cafe,,,,,,,,,,,-0.8834579,41.650956,-98347,4636584,laurel café,249
POINT (-0.9454243 41.6344378),Mercadona,supermarket,,,,,,,,,Mercadona,,,-0.9454243,41.6344378,-105245,4634746,mercadona,17
POINT (-0.8969212 41.6501297),Avellan Sarrais Sancho Avellan,,pharmacy,,pharmacy,,,Urbanizacion Parque de Roma,,50010.0,,,,-0.8969212,41.6501297,-99845,4636492,avellan sarrais sancho avellan,-1
POINT (-0.8948076 41.650016),Nuevo Hotel Orús,,,hotel,,,,Escoriaza y Fabro,45,50010.0,,,,-0.8948076,41.650016,-99610,4636480,nuevo hotel orús,-1
POINT (-0.8990074 41.6499689),"Rovira Burgues, Joaquín",,pharmacy,,,,,Calle de Vicente Berdusán,44,50010.0,,,,-0.8990074,41.6499689,-100078,4636475,"rovira burgues, joaquín",231
POINT (-0.8975728 41.6524676),Fundación Atención Temprana,,,,psychotherapist,,,,,,,,,-0.8975728,41.6524676,-99918,4636753,fundación atención temprana,-1
POINT (-0.8977124 41.6522212),,,bank,,,,,,,,,Banco de Valencia,,-0.8977124,41.6522212,-99933,4636725,,-1
POINT (-0.9036739 41.6506369),Farmacia Morte,,pharmacy,,,,,Calle Antonio Sangenis,,50010.0,,,,-0.9036739,41.6506369,-100597,4636549,farmacia morte,-1
POINT (-0.9049129 41.6517505),"Beamonte Rico, Luis",,pharmacy,,pharmacy,,,Calle de Don Pedro de Luna,26,50010.0,,,,-0.9049129,41.6517505,-100735,4636673,"beamonte rico, luis",-1
POINT (-0.9054375 41.6514292),Simply Market,supermarket,,,,,,,,,Simply Market,,,-0.9054375,41.6514292,-100793,4636637,simply market,-1
POINT (-0.9052745 41.6511453),"Rovira Blanes, Ramón",,pharmacy,,pharmacy,,,Calle de las Delicias,30,50010.0,,,,-0.9052745,41.6511453,-100775,4636605,"rovira blanes, ramón",-1
POINT (-0.9044011 41.6493758),,,post_box,,,,,,,,Correos,Correos,,-0.9044011,41.6493758,-100678,4636409,,-1
POINT (-0.9047507 41.6500837),Banco Santander,,bank,,,,,,,,Banco Santander,Santander,,-0.9047507,41.6500837,-100717,4636487,banco santander,-1
POINT (-0.8936002 41.6337903),,,,viewpoint,,,,,,,,,,-0.8936002,41.6337903,-99476,4634674,,-1
POINT (-0.8938249 41.634861),Roto,,restaurant,,,,,,,,,,,-0.8938249,41.634861,-99501,4634793,roto,-1
POINT (-0.9075179 41.6428559),Ibercaja,,bank,,,,,,,,Ibercaja,Ibercaja,,-0.9075179,41.6428559,-101025,4635683,ibercaja,118
POINT (-0.9857912 41.6335911),,,taxi,,,,,,,,,,,-0.9857912,41.6335911,-109738,4634651,,11
POINT (-0.895063 41.641708),Beerland,,restaurant,,,,,Plaza de San Francisco,17,50006.0,,,,-0.895063,41.641708,-99638,4635555,beerland,227
POINT (-0.8975786 41.6297676),Asador Las Ocas,,restaurant,,,,,Parque Jose Antonio Labordeta,,,,,regional,-0.8975786,41.6297676,-99918,4634226,asador las ocas,-1
POINT (-0.890421 41.6454623),Hotel Gran Vía,,,hotel,,,,Gran Vía de Santiago Ramón y Cajal,38,,,,,-0.890421,41.6454623,-99122,4635973,hotel gran vía,269
POINT (-0.8742332 41.6586331),B&B Hotel Zaragoza Centro,,,hotel,,,,,,,Ibis,,,-0.8742332,41.6586331,-97320,4637439,b&b hotel zaragoza centro,93
POINT (-0.8825809 41.6533889),Hotel Oriente,,,hotel,,,,Calle del Coso,11-13,,,,,-0.8825809,41.6533889,-98249,4636855,hotel oriente,-1
POINT (-0.8826047 41.6515875),Hotel Goya,,,hotel,,,,Calle Cinco de Marzo,5,50004.0,,,,-0.8826047,41.6515875,-98252,4636655,hotel goya,-1
POINT (-0.8854799 41.6506314),Hotel Palafox,,,hotel,,,,Calle Marqués de Casa Jiménez,,,,,,-0.8854799,41.6506314,-98572,4636548,hotel palafox,249
POINT (-0.9085528 41.638985),Hotel Reina Petronila,,,hotel,,,,Avenida Ramón Sáinz de Varanda,2,50009.0,,,,-0.9085528,41.638985,-101140,4635252,hotel reina petronila,130
POINT (-0.8788394 41.6513466),Reino de Aragón,,,hotel,,,,Calle del Coso,80,50001.0,Silken Hotels,,,-0.8788394,41.6513466,-97832,4636628,reino de aragón,-1
POINT (-0.8947225 41.6310336),,,,viewpoint,,,,,,,,,,-0.8947225,41.6310336,-99601,4634367,,-1
POINT (-0.8918538 41.642137),Vinos Rubio,,bar,,,,,,,50006.0,,,,-0.8918538,41.642137,-99281,4635603,vinos rubio,310
POINT (-0.8940193 41.6322719),,,,viewpoint,,,,,,,,,,-0.8940193,41.6322719,-99522,4634505,,84
POINT (-0.8943806 41.6456312),Guardería Monigotes,,school,,,,,,,,,,,-0.8943806,41.6456312,-99562,4635992,guardería monigotes,-1
POINT (-0.8891322 41.6430199),Machín Almarcegui - Marsal Machín,,pharmacy,,pharmacy,,,Avenida de Goya,23,50006.0,,,,-0.8891322,41.6430199,-98978,4635701,machín almarcegui - marsal machín,295
POINT (-0.8882661 41.6438015),Mercadona,supermarket,,,,,,Calle del Arzobispo Domenech,,,Mercadona,Mercadona,,-0.8882661,41.6438015,-98882,4635788,mercadona,294
POINT (-0.9011641 41.6401679),Centro de Salud Fernando el Católico,,clinic,,clinic,,,,,,,,,-0.9011641,41.6401679,-100318,4635383,centro de salud fernando el católico,112
POINT (-0.8707247 41.6530304),Centro de Salud,,clinic,,,,,,,,,,,-0.8707247,41.6530304,-96929,4636815,centro de salud,-1
POINT (-0.8629682 41.6904222),Centro de Salud San Gregorio,,clinic,,,,,,,,,,,-0.8629682,41.6904222,-96066,4640978,centro de salud san gregorio,23
POINT (-0.8718896 41.6678384),Centro de Salud Picarral,,clinic,,clinic,,,,,,,,,-0.8718896,41.6678384,-97059,4638464,centro de salud picarral,61
POINT (-0.8948964 41.6442005),Ibercaja,,bank,,,,,,,,Ibercaja,Ibercaja,,-0.8948964,41.6442005,-99620,4635832,ibercaja,-1
POINT (-0.8918768 41.6445697),Ibercaja,,bank,,,,,,,,Ibercaja,,,-0.8918768,41.6445697,-99284,4635873,ibercaja,262
POINT (-0.894436 41.6433409),Taberna la piedra,,restaurant,,,,,Calle Cortes de Aragón,64,,,,,-0.894436,41.6433409,-99569,4635737,taberna la piedra,-1
POINT (-0.8954939 41.6445241),Domino's,,fast_food,,,,,Calle de San Antonio María Claret,40-42,,Domino's,,pizza,-0.8954939,41.6445241,-99686,4635868,domino's,267
POINT (-0.8945215 41.6417025),Café Universal,,cafe,,,,,Paseo de Fernando El Católico,32,,,,,-0.8945215,41.6417025,-99578,4635554,café universal,227
POINT (-0.895268 41.6444244),La PaPa Arrugá,,restaurant,,,,,,,,,,,-0.895268,41.6444244,-99661,4635857,la papa arrugá,267
POINT (-0.9129055 41.6459401),Farmacia Parque Delicias,,pharmacy,,pharmacy,,,Calle de Ramón Salanova,2,50017.0,,,,-0.9129055,41.6459401,-101625,4636026,farmacia parque delicias,136
POINT (-0.921629 41.651834),Kebab Oliver,,fast_food,,,,,,,,,,,-0.921629,41.651834,-102596,4636682,kebab oliver,108
POINT (-0.9104156 41.6403869),Supercor Exprés,convenience,,,,,,Avenida Juan Pablo II,34,,Supercor,,,-0.9104156,41.6403869,-101347,4635408,supercor exprés,-1
POINT (-0.910655 41.6441897),Eroski,supermarket,,,,,,,,,Eroski,,,-0.910655,41.6441897,-101374,4635831,eroski,134
POINT (-0.9166891 41.6504499),Mercadona,supermarket,,,,,,,,,Mercadona,,,-0.9166891,41.6504499,-102046,4636528,mercadona,-1
POINT (-0.9083553 41.6307211),Alcampo,supermarket,,,,,,,,,Alcampo,,,-0.9083553,41.6307211,-101118,4634332,alcampo,45
POINT (-0.908458 41.630165),,,veterinary,,,,,,,,,,,-0.908458,41.630165,-101130,4634270,,45
POINT (-0.880441 41.649867),Opencor,convenience,,,,,,,,,,,,-0.880441,41.649867,-98011,4636463,opencor,317
POINT (-0.8835845 41.6534349),Palomeque,,restaurant,,,,,,,,,,,-0.8835845,41.6534349,-98361,4636860,palomeque,-1
POINT (-0.8858442 41.6490111),Tolosana,pastry,,,,,,Calle Canfranc,8,50004.0,,Panadería Pastelería TOLOSANA,,-0.8858442,41.6490111,-98612,4636368,tolosana,265
POINT (-0.880513 41.65322),Casa Pascualillo,,restaurant,,,,,Libertad,5,,,,,-0.880513,41.65322,-98019,4636836,casa pascualillo,312
POINT (-0.8888118 41.647705),Eroski,supermarket,,,,,,,,,Eroski,,,-0.8888118,41.647705,-98943,4636223,eroski,-1
POINT (-0.8814732 41.649009),NH Collection Gran Hotel,,,hotel,,,,Calle de Joaquín Costa,5,50001.0,,,,-0.8814732,41.649009,-98126,4636368,nh collection gran hotel,-1
POINT (-0.88374 41.648454),Hotel Zenit don yo,,,hotel,,,,Calle de Juan Bruil,4-6,,,,,-0.88374,41.648454,-98378,4636306,hotel zenit don yo,237
POINT (-0.8858055 41.6517322),INNSiDE by Meliá Zaragoza,,,hotel,,,,Avenida de César Augusto,13,50004.0,INNSiDE by Meliá,,,-0.8858055,41.6517322,-98608,4636671,innside by meliá zaragoza,-1
POINT (-0.8957836 41.6434897),Sala Utopía,,bar,,,,,,,,,,,-0.8957836,41.6434897,-99719,4635753,sala utopía,-1
POINT (-0.9105121 41.6409014),La Tagliatella,,restaurant,,,,,Avenida Juan Pablo II,22,50009.0,,,italian,-0.9105121,41.6409014,-101358,4635465,la tagliatella,-1
POINT (-0.9099098 41.6415892),La Antilla - Aragonia,,restaurant,,,,,Avenida del Alcalde Gómez Laguna,25,50009.0,,,sandwich,-0.9099098,41.6415892,-101291,4635542,la antilla - aragonia,135
POINT (-0.8854295 41.6485213),Caixabank,,bank,,,,,,,,Caixabank,La Caixa,,-0.8854295,41.6485213,-98566,4636313,caixabank,-1
POINT (-0.8827663 41.650736),Ibercaja,,bank,,,,,,,,Ibercaja,IberCaja,,-0.8827663,41.650736,-98270,4636560,ibercaja,249
POINT (-0.8822178 41.6512831),C&A,clothes,,,,,,,,,C&A,,,-0.8822178,41.6512831,-98208,4636621,c&a,247
POINT (-0.8817863 41.6517745),Bershka,clothes,,,,,,,,,Bershka,,,-0.8817863,41.6517745,-98160,4636676,bershka,-1
POINT (-0.880606 41.6516624),Maza,,,hotel,,,,Plaza de España,7,,,,,-0.880606,41.6516624,-98029,4636663,maza,314
POINT (-0.8804555 41.6523016),Ibercaja,,bank,,,,,,,,Ibercaja,IberCaja,,-0.8804555,41.6523016,-98012,4636734,ibercaja,-1
POINT (-0.8800958 41.6521009),Caixabank,,bank,,,,,,,,Caixabank,Caixabank,,-0.8800958,41.6521009,-97972,4636712,caixabank,-1
POINT (-0.8803373 41.6518855),Banco de España,,bank,,,,,,,,,Banco de España,,-0.8803373,41.6518855,-97999,4636688,banco de españa,-1
POINT (-0.8829096 41.6498131),Heraldo de Aragón,,,,,newspaper,,,,,,,,-0.8829096,41.6498131,-98285,4636457,heraldo de aragón,-1
POINT (-0.8835106 41.6491848),Oficina de Correos Independencia,,post_office,,,,,,,,Correos,Correos,,-0.8835106,41.6491848,-98352,4636387,oficina de correos independencia,-1
POINT (-0.8849527 41.6477078),Kutxabank,,bank,,,,,,,,Kutxabank,Kutxabank,,-0.8849527,41.6477078,-98513,4636223,kutxabank,219
POINT (-0.8847818 41.6477003),Unicaja Banco,,bank,,,,,Plaza Aragón,6,,Unicaja Banco,,,-0.8847818,41.6477003,-98494,4636222,unicaja banco,219
POINT (-0.884356 41.6478951),Librería General,books,,,,,,Plaza Aragón,5,50004.0,,,,-0.884356,41.6478951,-98447,4636244,librería general,-1
POINT (-0.8840461 41.6483786),Ginos,,restaurant,,,,,Plaza Aragón,2,,Ginos,,italian,-0.8840461,41.6483786,-98412,4636298,ginos,237
POINT (-0.8840719 41.6483079),Vips,,restaurant,,,,,,,,Vips,,international,-0.8840719,41.6483079,-98415,4636290,vips,237
POINT (-0.8840375 41.6485394),La Tagliatella,,restaurant,,,,,Plaza Aragón,1,50001.0,,,italian,-0.8840375,41.6485394,-98411,4636315,la tagliatella,237
POINT (-0.8873841 41.677846),Restaurante Ocandía,,restaurant,,,,,,,,,,,-0.8873841,41.677846,-98784,4639578,restaurante ocandía,57
POINT (-0.886987 41.6784208),Nivola Café,,cafe,,,,,,,,,,,-0.886987,41.6784208,-98739,4639642,nivola café,57
POINT (-0.8851737 41.6683689),"Novella García, José",,pharmacy,,pharmacy,,,Calle del Poeta Jorge Manrique,18,50018.0,,,,-0.8851737,41.6683689,-98538,4638523,"novella garcía, josé",80
POINT (-0.8790669 41.6527481),"Gaspar Bernad, Félix",,pharmacy,,pharmacy,,,Calle Estebanes,31,50003.0,,,,-0.8790669,41.6527481,-97858,4636784,"gaspar bernad, félix",303
POINT (-0.8775956 41.6524797),Café del Museo Teatro Caesaraugusta,,cafe,,,,,,,,,,,-0.8775956,41.6524797,-97694,4636754,café del museo teatro caesaraugusta,263
POINT (-0.8776743 41.6539316),La Flor de Lis,,pub,,,,,Calle Don Jaime I,34,,,,,-0.8776743,41.6539316,-97703,4636916,la flor de lis,-1
POINT (-0.9314835 41.6297196),Jena,,restaurant,,,,,,,,,,,-0.9314835,41.6297196,-103693,4634220,jena,37
POINT (-0.9325751 41.645344),Hyundai,car_repair,,,,,,,,,,,,-0.9325751,41.645344,-103814,4635960,hyundai,40
POINT (-0.8910098 41.6634462),Luna Morena,,bar,,,,,,,,,,,-0.8910098,41.6634462,-99187,4637975,luna morena,-1
POINT (-0.8997784 41.67622),Noria de la Paz,,,attraction,,,,,,,,,,-0.8997784,41.67622,-100163,4639397,noria de la paz,-1
POINT (-0.9096249 41.6706227),EmBARcadero,,cafe,,,,,,,,,,,-0.9096249,41.6706227,-101259,4638774,embarcadero,-1
POINT (-0.9001781 41.6762167),Reloj de Sol,,,attraction,,,,,,,,,,-0.9001781,41.6762167,-100208,4639396,reloj de sol,-1
POINT (-0.8706266 41.6776789),Mercadona,supermarket,,,,,,,,,Mercadona,,,-0.8706266,41.6776789,-96918,4639559,mercadona,68
POINT (-0.8883559 41.64309),The Boss,,cafe,,,,,Avenida Francisco de Goya,16,,,,sandwich,-0.8883559,41.64309,-98892,4635709,the boss,-1
POINT (-0.8883183 41.6431782),Chocolatería Porta,,cafe,,,,,,,,,,,-0.8883183,41.6431782,-98888,4635719,chocolatería porta,-1
POINT (-0.8895154 41.6431314),Vídeo Zaragoza,video,,,,,,,,,,,,-0.8895154,41.6431314,-99021,4635713,vídeo zaragoza,-1
POINT (-0.895571 41.6405644),Nevada,,fast_food,,,,,Paseo de Fernando El Católico,36,,,,,-0.895571,41.6405644,-99695,4635428,nevada,-1
POINT (-0.8969282 41.6404842),Harvard,,bar,,,,,,,,,,,-0.8969282,41.6404842,-99846,4635419,harvard,-1
POINT (-0.8962094 41.6433947),Pollos asados Mari y Jose,,fast_food,,,,,,,,,,,-0.8962094,41.6433947,-99766,4635743,pollos asados mari y jose,221
POINT (-0.8940851 41.6412139),Laurel Spiritual,,restaurant,,,,,Plaza de San Francisco,2,,,,,-0.8940851,41.6412139,-99530,4635500,laurel spiritual,-1
POINT (-0.888505 41.6428372),Los Sueños de Goya,,cafe,,,,,,,,,,,-0.888505,41.6428372,-98908,4635681,los sueños de goya,-1
POINT (-0.8959222 41.6430851),Modo,,pub,,,,,,,,,,,-0.8959222,41.6430851,-99734,4635708,modo,221
POINT (-0.8797075 41.6495499),Monumental,,biergarten,,,,,,,,,,,-0.8797075,41.6495499,-97929,4636428,monumental,-1
POINT (-0.8804941 41.6517516),Sagardi,,restaurant,,,,,,,,,,vasque,-0.8804941,41.6517516,-98017,4636673,sagardi,314
POINT (-0.8925762 41.6442949),Panzzer Grill,,fast_food,,,,,,,,,,burger,-0.8925762,41.6442949,-99362,4635843,panzzer grill,-1
POINT (-0.8941668 41.6435964),Los Mayses,,cafe,,,,,,,,,,,-0.8941668,41.6435964,-99539,4635765,los mayses,284
POINT (-0.8970078 41.6405209),Quercus,,doctors,,doctor,,,,,,,,,-0.8970078,41.6405209,-99855,4635423,quercus,-1
POINT (-0.8937008 41.6324999),,,,viewpoint,,,,,,,,,,-0.8937008,41.6324999,-99487,4634530,,84
POINT (-0.896523 41.6433096),Recambios Corona,car_repair,,,,,,,,,,,,-0.896523,41.6433096,-99801,4635733,recambios corona,221
POINT (-0.8879292 41.6426762),Gestoria Goya OTS,,,,,accountant,,,,,,,,-0.8879292,41.6426762,-98844,4635663,gestoria goya ots,294
POINT (-0.8847642 41.6521684),,,pub,,,,,,,,,,,-0.8847642,41.6521684,-98492,4636719,,-1
POINT (-0.8935738 41.647242),Cafetería Liberty,,cafe,,,,,,,,,,,-0.8935738,41.647242,-99473,4636171,cafetería liberty,224
POINT (-0.8929999 41.6453822),La Candalaria,,cafe,,,,,,,,,,,-0.8929999,41.6453822,-99409,4635964,la candalaria,259
POINT (-0.8928288 41.6451564),La Esfera,,bar,,,,,,,,,,,-0.8928288,41.6451564,-99390,4635939,la esfera,259
POINT (-0.8940334 41.6472965),BBVA,,bank,,,,,,,,BBVA,BBVA,,-0.8940334,41.6472965,-99524,4636177,bbva,-1
POINT (-0.8938437 41.6464735),Goya Peluqueros,hairdresser,,,,,,,,,,,,-0.8938437,41.6464735,-99503,4636085,goya peluqueros,241
POINT (-0.8940997 41.647598),Ibercaja,,bank,,,,,,,,Ibercaja,IberCaja,,-0.8940997,41.647598,-99531,4636211,ibercaja,241
POINT (-0.8938266 41.6463244),Elly,,cafe,,,,,,,,,,,-0.8938266,41.6463244,-99501,4636069,elly,241
POINT (-0.8930344 41.6454284),The Banshee Howl,,pub,,,,,,,,,,,-0.8930344,41.6454284,-99413,4635969,the banshee howl,259
POINT (-0.8930117 41.644802),Viajes Halcón,travel_agency,,,,,,,,,,,,-0.8930117,41.644802,-99410,4635899,viajes halcón,279
POINT (-0.8931532 41.6456796),"Jiménez Huarte, Joaquín",,pharmacy,,pharmacy,,,Avenida de Goya,72,50005.0,,,,-0.8931532,41.6456796,-99426,4635997,"jiménez huarte, joaquín",259
POINT (-0.8922375 41.6441949),,lottery,,,,,,,,,,,,-0.8922375,41.6441949,-99324,4635832,,-1
POINT (-0.8913418 41.6442573),Farmacia Buesa,,pharmacy,,pharmacy,,,Gran Vía de Santiago Ramón y Cajal,41,50006.0,,"López Buesa, María Otilia",,-0.8913418,41.6442573,-99224,4635839,farmacia buesa,198
POINT (-0.8921116 41.6446851),La Rosaleda,florist,,,,,,,,,,,,-0.8921116,41.6446851,-99310,4635886,la rosaleda,262
POINT (-0.8918632 41.6438193),Espacio Joven Biblioteca José Sinués,,library,,,,,,,,,iberCaja,,-0.8918632,41.6438193,-99282,4635790,espacio joven biblioteca josé sinués,-1
POINT (-0.891375 41.6436684),Ibercaja,,bank,,,,,,,,Ibercaja,IberCaja,,-0.891375,41.6436684,-99228,4635773,ibercaja,-1
POINT (-0.8957902 41.6403197),Caja Rural de Aragón,,bank,,,,,Paseo de Fernando El Católico,38,,Caja Rural de Aragón,,,-0.8957902,41.6403197,-99719,4635400,caja rural de aragón,225
POINT (-0.8935228 41.6411145),Vertical,,pub,,,,,,,,,,,-0.8935228,41.6411145,-99467,4635489,vertical,305
POINT (-0.896759 41.6434459),Recambios Corona,car,,,,,,,,,,,,-0.896759,41.6434459,-99827,4635748,recambios corona,221
POINT (-0.8244239 41.666015),,,post_box,,,,,Avenida de Santa Isabel,,50016.0,Correos,Correos,,-0.8244239,41.666015,-91775,4638261,,-1
POINT (-0.8271474 41.6672774),Alcampo,supermarket,,,,,,Calle Inocencio Ruiz Lasala,,,Alcampo,DIA%,,-0.8271474,41.6672774,-92078,4638401,alcampo,30
POINT (-0.8961574 41.6465262),OSSO,outdoor,,,,,,,,,,+FiveFingers,,-0.8961574,41.6465262,-99760,4636091,osso,-1
POINT (-0.8898694 41.6486248),Cervecería Resacas,,pub,,,,,,,,,,,-0.8898694,41.6486248,-99060,4636325,cervecería resacas,-1
POINT (-0.8893819 41.6430926),Papelería Muñoz,stationery,,,,,,,,,,,,-0.8893819,41.6430926,-99006,4635709,papelería muñoz,295
POINT (-0.8897475 41.643199),La Tienda de las Ventanas,windows,,,,,,,,,,,,-0.8897475,41.643199,-99047,4635721,la tienda de las ventanas,-1
POINT (-0.8868772 41.6423491),MiAlcampo,supermarket,,,,,,,,,,,,-0.8868772,41.6423491,-98727,4635626,mialcampo,-1
POINT (-0.8865125 41.6422035),Sueños,bed,,,,,,,,,,,,-0.8865125,41.6422035,-98687,4635610,sueños,-1
POINT (-0.889449 41.6431121),Viajes Aneto,travel_agency,,,,,,,,,,,,-0.889449,41.6431121,-99013,4635711,viajes aneto,-1
POINT (-0.8882779 41.6427834),La Farola,,cafe,,,,,,,,,,,-0.8882779,41.6427834,-98883,4635675,la farola,294
POINT (-0.8867665 41.6423065),Tolosana,pastry,,,,,,Avenida Francisco de Goya,3,50006.0,,Panadería Pastelería TOLOSANA,,-0.8867665,41.6423065,-98715,4635622,tolosana,-1
POINT (-0.8889195 41.642958),Charol 2,shoes,,,,,,,,,,,,-0.8889195,41.642958,-98955,4635694,charol 2,295
POINT (-0.8896103 41.6434324),La Caixa,,bank,,,,,Avenida Francisco de Goya,30,,La Caixa,,,-0.8896103,41.6434324,-99031,4635747,la caixa,-1
POINT (-0.888156 41.6430712),Ibercaja,,bank,,,,,,,,Ibercaja,Ibercaja,,-0.888156,41.6430712,-98870,4635707,ibercaja,294
POINT (-0.888871 41.6432248),El whisky viejo,,bar,,,,,Avenida Francisco de Goya,24,,,,,-0.888871,41.6432248,-98949,4635724,el whisky viejo,295
POINT (-0.8872991 41.6427523),Ángel Peluquería,hairdresser,,,,,,,,,,,,-0.8872991,41.6427523,-98774,4635671,ángel peluquería,-1
POINT (-0.887829 41.6429194),Pastelería Los Mallorquines,bakery,,,,,,,,,,,,-0.887829,41.6429194,-98833,4635690,pastelería los mallorquines,294
POINT (-0.8886604 41.64317),El Malecón,,bar,,,,,,,,,,,-0.8886604,41.64317,-98926,4635718,el malecón,-1
POINT (-0.8874557 41.6428009),Ricasviandas,bakery,,,,,,,,,,,,-0.8874557,41.6428009,-98792,4635677,ricasviandas,-1
POINT (-0.8880254 41.6429818),Estanco 11,tobacco,,,,,,,,,,,,-0.8880254,41.6429818,-98855,4635697,estanco 11,294
POINT (-0.8877549 41.6428959),Café-bar Arco Iris,,cafe,,,,,,,,,,,-0.8877549,41.6428959,-98825,4635687,café-bar arco iris,294
POINT (-0.8865137 41.6425792),Ameè,clothes,,,,,,,,,,,,-0.8865137,41.6425792,-98687,4635652,ameè,-1
POINT (-0.8869603 41.6426485),Flores Linacero,florist,,,,,,,,,,,,-0.8869603,41.6426485,-98736,4635660,flores linacero,-1
POINT (-0.8981603 41.647196),Panadería Artesana Escosura,bakery,,,,,,,,,,,,-0.8981603,41.647196,-99983,4636166,panadería artesana escosura,193
POINT (-0.8987417 41.6481961),Cangurin Limpieza,,,,,company,,Calle de Desiderio Escosura,47-49,50005.0,,,,-0.8987417,41.6481961,-100048,4636277,cangurin limpieza,-1
POINT (-0.8982435 41.6477133),Peluquería Pily-Mari José,hairdresser,,,,,,,,,,,,-0.8982435,41.6477133,-99992,4636223,peluquería pily-mari josé,193
POINT (-0.8984059 41.6476157),Vicar,chemist,,,,,,,,,,,,-0.8984059,41.6476157,-100011,4636213,vicar,193
POINT (-0.8977557 41.6465205),BogArte 2,,bar,,,,,,,,,,,-0.8977557,41.6465205,-99938,4636091,bogarte 2,-1
POINT (-0.897867 41.6467036),Frutos Secos,convenience,,,,,,,,,,,,-0.897867,41.6467036,-99951,4636111,frutos secos,-1
POINT (-0.8980144 41.6473342),Café-bar La Sabina,,cafe,,,,,,,,,,,-0.8980144,41.6473342,-99967,4636181,café-bar la sabina,193
POINT (-0.8980894 41.6470355),Costel Construcciones,,,,,construction_company,,,,,,,,-0.8980894,41.6470355,-99975,4636148,costel construcciones,193
POINT (-0.8979392 41.6468248),Casa Rodri,,pub,,,,,,,,,,,-0.8979392,41.6468248,-99959,4636125,casa rodri,193
POINT (-0.897643 41.646729),El Tercio,,bar,,,,,,,,,,,-0.897643,41.646729,-99926,4636114,el tercio,-1
POINT (-0.8796658 41.6558539),Paraiso,,restaurant,,,,,Prudencio,27,,,,chinese,-0.8796658,41.6558539,-97924,4637130,paraiso,-1
POINT (-0.8815788 41.6570112),Irish Tabern Gallagher,,pub,,,,,Calle de las Murallas Romanas,6,,,,,-0.8815788,41.6570112,-98137,4637258,irish tabern gallagher,-1
POINT (-0.909412 41.6404915),Mercadona,supermarket,,,,,,,,,Mercadona,,,-0.909412,41.6404915,-101236,4635420,mercadona,131
POINT (-0.8886471 41.6836582),Rua Restauración,,cafe,,,,,,,,,,,-0.8886471,41.6836582,-98924,4640225,rua restauración,48
POINT (-0.8843201 41.6835948),Rua Restauración,,restaurant,,,,,,,,,,,-0.8843201,41.6835948,-98443,4640218,rua restauración,48
POINT (-0.8952355 41.6462279),Pastelería Ismael,bakery,,,,,,,,,,,,-0.8952355,41.6462279,-99658,4636058,pastelería ismael,-1
POINT (-0.8878863 41.6426361),Inside English,,school,,,,,,,,,,,-0.8878863,41.6426361,-98840,4635658,inside english,294
POINT (-0.8932165 41.6431324),El Rincón,confectionery,,,,,,,,,El Rincón,,,-0.8932165,41.6431324,-99433,4635713,el rincón,299
POINT (-0.8951212 41.6443391),Martín Martín,convenience,,,,,,,,,Martín Martín,,,-0.8951212,41.6443391,-99645,4635848,martín martín,267
POINT (-0.8939722 41.6437891),Inmobiliaria Bretón,,,,,estate_agent,,,,,,,,-0.8939722,41.6437891,-99517,4635787,inmobiliaria bretón,284
POINT (-0.8942414 41.643842),If,beauty,,,,,,,,,,,,-0.8942414,41.643842,-99547,4635792,if,-1
POINT (-1.030814 41.7200102),,,pharmacy,,,,,,,,,,,-1.030814,41.7200102,-114750,4644272,,2
POINT (-1.0264792 41.7180935),,,pharmacy,,,,,,,,,,,-1.0264792,41.7180935,-114268,4644058,,2
POINT (-0.8962518 41.6446807),,greengrocer,,,,,,,,,,,,-0.8962518,41.6446807,-99771,4635886,,267
POINT (-1.026283 41.7191494),,,post_office,,,,,,,,,,,-1.026283,41.7191494,-114246,4644176,,2
POINT (-1.0261702 41.7193381),Biblioteca Pública de Casetas,,library,,,,,Calle del Palacio,15,,,,,-1.0261702,41.7193381,-114233,4644197,biblioteca pública de casetas,2
POINT (-0.8937737 41.6436917),Ferreteria Abad,houseware,,,,,,,,,,,,-0.8937737,41.6436917,-99495,4635776,ferreteria abad,284
POINT (-0.9099472 41.6678309),Quasar Elite,,pub,,,,sports_centre,,,,,,,-0.9099472,41.6678309,-101295,4638463,quasar elite,-1
POINT (-0.8808852 41.6547877),Río Arga,,,hotel,,,,Calle de Contamina,20,,,,,-0.8808852,41.6547877,-98060,4637011,río arga,-1
POINT (-0.8792351 41.638954),Ibercaja,,bank,,,,,,,,Ibercaja,IberCaja,,-0.8792351,41.638954,-97876,4635248,ibercaja,209
POINT (-0.8788679 41.6357736),Laboral Kutxa,,bank,,,,,,,,Laboral Kutxa,,,-0.8788679,41.6357736,-97836,4634894,laboral kutxa,207
POINT (-0.8857807 41.6430965),Cajamar,,bank,,,,,,,,Cajamar,,,-0.8857807,41.6430965,-98605,4635710,cajamar,-1
POINT (-0.8890987 41.6764078),Ibercaja,,bank,,,,,,,,Ibercaja,CAI,,-0.8890987,41.6764078,-98974,4639418,ibercaja,73
POINT (-0.8890668 41.6772866),Ibercaja,,bank,,,,,,,,Ibercaja,IberCaja,,-0.8890668,41.6772866,-98971,4639516,ibercaja,-1
POINT (-0.8749212 41.6529119),A Flama,,pub,,,,,Calle Mayor,53,50001.0,,,sandwich;burger,-0.8749212,41.6529119,-97396,4636802,a flama,-1
POINT (-0.8831698 41.6557752),Pescados Olmeda,seafood,,,,,,,,,,,,-0.8831698,41.6557752,-98314,4637121,pescados olmeda,242
POINT (-0.8822722 41.6516202),La Mejillonera,,fast_food,,,,,,,,,"Abadia Carbonell, S.C.",seafood,-0.8822722,41.6516202,-98215,4636658,la mejillonera,247
POINT (-0.9052969 41.6517312),,,bank,,,,,,,,,Caja Laboral,,-0.9052969,41.6517312,-100778,4636671,,-1
POINT (-0.9044125 41.6519569),Donna Pizza,,fast_food,,,,,Calle de Graus,23,50010.0,,,italian,-0.9044125,41.6519569,-100679,4636696,donna pizza,138
POINT (-0.8785801 41.6548242),La casa magnética,,cafe,,,,,,,,,,,-0.8785801,41.6548242,-97804,4637015,la casa magnética,282
POINT (-0.8778094 41.6553227),Delegación del Gobierno,,,,,government,,,,,,,,-0.8778094,41.6553227,-97718,4637071,delegación del gobierno,-1
POINT (-0.8796444 41.6556998),Popeyes,,fast_food,,,,,,,,Popeyes,,chicken,-0.8796444,41.6556998,-97922,4637113,popeyes,266
POINT (-0.8934469 41.6555097),Carnecería Salmerón,butcher,,,,,,,,,,,,-0.8934469,41.6555097,-99459,4637091,carnecería salmerón,153
POINT (-0.8990141 41.6496633),,,taxi,,,,,,,,,,,-0.8990141,41.6496633,-100078,4636441,,231
POINT (-0.877393 41.6525403),Museo del Teatro de Caesaraugusta,,,museum,,,,Calle de San Jorge,12,,,,,-0.877393,41.6525403,-97671,4636761,museo del teatro de caesaraugusta,263
POINT (-0.8785326 41.6332835),Caixabank,,bank,,,,,,,,Caixabank,Caixa,,-0.8785326,41.6332835,-97798,4634617,caixabank,-1
POINT (-0.9051166 41.635592),Colegio Público Margarita Salas,,school,,,,,Calle de Miguel Asín y Palacios,19,,,,,-0.9051166,41.635592,-100758,4634874,colegio público margarita salas,-1
POINT (-0.8354887 41.6603598),Colegio Inglés,,school,,,,,,,,,,,-0.8354887,41.6603598,-93007,4637631,colegio inglés,-1
POINT (-0.8227965 41.6492974),La Alberca,,restaurant,,,,,,,,,,,-0.8227965,41.6492974,-91594,4636400,la alberca,14
POINT (-0.8320448 41.6670924),Burguer Harry,,fast_food,,,,,Avenida de Santa Isabel,101,,,Lazaro Asociados S.C.,burger,-0.8320448,41.6670924,-92623,4638381,burguer harry,28
POINT (-0.8796807 41.6466521),Simply Store,supermarket,,,,,,,,,,,,-0.8796807,41.6466521,-97926,4636105,simply store,285
POINT (-0.8306161 41.6693517),La Esquinica,,restaurant,,,,,,,,,,,-0.8306161,41.6693517,-92464,4638632,la esquinica,-1
POINT (-0.8313732 41.6679846),Cafetería El Rescate,,cafe,,,,,Calle Tomás Ostáriz Forcén,1,,,,,-0.8313732,41.6679846,-92548,4638480,cafetería el rescate,28
POINT (-0.8752589 41.6588507),Mercadillo del Arrabal,convenience,,,,,,,,,,,,-0.8752589,41.6588507,-97434,4637463,mercadillo del arrabal,93
POINT (-0.8697544 41.6445417),Biblioteca Ricardo Magdalena,,library,,,,,,,,,Ayuntamiento de Zaragoza,,-0.8697544,41.6445417,-96821,4635870,biblioteca ricardo magdalena,-1
POINT (-0.8720173 41.6441716),La Gloria,,pub,,,,,,,,,,,-0.8720173,41.6441716,-97073,4635829,la gloria,178
POINT (-0.875334 41.6587022),Flores Torres,garden_centre,,,,,,,,,,,,-0.875334,41.6587022,-97442,4637447,flores torres,93
POINT (-0.9080557 41.6179702),Liceo Europa,,school,,,,,Cº Fuente de La Junquera,21,,,,,-0.9080557,41.6179702,-101085,4632912,liceo europa,-1
POINT (-0.8910394 41.647452),Simply Market,supermarket,,,,,,,,,Simply Market,,,-0.8910394,41.647452,-99191,4636194,simply market,-1
POINT (-0.8838457 41.6504889),Centro Comercial Independencia El Caracol,mall,,,,,,Paseo de la Independencia,24-26,50004.0,,,,-0.8838457,41.6504889,-98390,4636532,centro comercial independencia el caracol,249
POINT (-0.8981876 41.6523426),"Echarri Eraso, Milagros",,pharmacy,,pharmacy,,,Calle de Doña Blanca de Navarra,46-48,50010.0,,,,-0.8981876,41.6523426,-99986,4636739,"echarri eraso, milagros",176
POINT (-0.8960256 41.6488396),"Sancho Avellan, María Pilar",,pharmacy,,pharmacy,,,Calle de Salamanca,15,50005.0,,,,-0.8960256,41.6488396,-99746,4636349,"sancho avellan, maría pilar",232
POINT (-0.8980645 41.6484754),"Poyo Manso, Pilar",,pharmacy,,pharmacy,,,Calle de Tarragona,35,50005.0,,,,-0.8980645,41.6484754,-99973,4636308,"poyo manso, pilar",-1
POINT (-0.9001377 41.6417472),,,cafe,,,,,,,,,,,-0.9001377,41.6417472,-100203,4635559,,-1
POINT (-0.9018874 41.6411373),Cafetería CMU Pedro Cerbuna,,cafe,,,,,,,,,,,-0.9018874,41.6411373,-100398,4635491,cafetería cmu pedro cerbuna,-1
POINT (-0.8947599 41.6421507),Louisiana,,bar,,,,,,,,,,,-0.8947599,41.6421507,-99605,4635604,louisiana,227
POINT (-0.8954949 41.6428451),PCBox,computer,,,,,,,,,,,,-0.8954949,41.6428451,-99686,4635682,pcbox,-1
POINT (-0.8931808 41.6433097),Potter,kiosk,,,,,,,,,,,,-0.8931808,41.6433097,-99429,4635733,potter,299
POINT (-0.8927247 41.6443579),Ibarrola,,cafe,,,,,Calle Baltasar Gracián,1,,,,,-0.8927247,41.6443579,-99378,4635850,ibarrola,297
POINT (-0.8901261 41.676043),McDonald's,,fast_food,,,,,,,,McDonald's,,burger,-0.8901261,41.676043,-99089,4639377,mcdonald's,-1
POINT (-0.8900281 41.6756992),Carrefour,supermarket,,,,,,,,,Carrefour,,,-0.8900281,41.6756992,-99078,4639339,carrefour,-1
POINT (-0.9110601 41.6356237),,,cafe,,,,,,,,,,,-0.9110601,41.6356237,-101419,4634878,,-1
POINT (-0.8906721 41.6105355),Leroy Merlin,doityourself,,,,,,,,,Leroy Merlin,,,-0.8906721,41.6105355,-99150,4632085,leroy merlin,-1
POINT (-0.8760467 41.6240377),"Ferrandez Martínez, Moisés",,pharmacy,,pharmacy,,,Calle Zafiro,1,50007.0,,,,-0.8760467,41.6240377,-97522,4633588,"ferrandez martínez, moisés",101
POINT (-0.8773472 41.6255763),"Hornero Corisco, José",optician,pharmacy,,pharmacy,,,Calle Oviedo,179,50007.0,,,,-0.8773472,41.6255763,-97666,4633759,"hornero corisco, josé",101
POINT (-0.8784452 41.6254873),Ibercaja,,bank,,,,,Calle San Eugenio,31,,Ibercaja,CAI,,-0.8784452,41.6254873,-97789,4633749,ibercaja,101
POINT (-0.8766646 41.6249125),El Rincón,confectionery,,,,,,Cuarta Avenida,21,,El Rincón,,,-0.8766646,41.6249125,-97590,4633685,el rincón,101
POINT (-0.8782991 41.6255469),,,post_box,,,,,,,,Correos,Correos,,-0.8782991,41.6255469,-97772,4633756,,101
POINT (-0.8772589 41.6255516),Panadería Pastelería Martín,bakery,,,,,,,,,,,,-0.8772589,41.6255516,-97656,4633756,panadería pastelería martín,101
POINT (-0.8764784 41.6245391),Dia,supermarket,,,,,,Cuarta Avenida,70,,Dia,,,-0.8764784,41.6245391,-97570,4633644,dia,101
POINT (-0.8758646 41.624684),BBVA,,bank,,,,,Cuarta Avenida,72,,BBVA,BBVA,,-0.8758646,41.624684,-97501,4633660,bbva,101
POINT (-0.8770283 41.6255897),,bakery,,,,,,,,,,,,-0.8770283,41.6255897,-97631,4633761,,101
POINT (-0.991371 41.6310914),McDonald's,,fast_food,,,,,,,,McDonald's,McDonald's,burger,-0.991371,41.6310914,-110359,4634373,mcdonald's,11
POINT (-0.9186602 41.6599483),FeuVert,car_repair,,,,,,,,,,,,-0.9186602,41.6599483,-102265,4637585,feuvert,66
POINT (-0.8750623 41.6879844),Felix,,cafe,,,,,,,,,,spanish,-0.8750623,41.6879844,-97412,4640706,felix,50
POINT (-0.8752329 41.6873936),El Jardín,,restaurant,,,,,Paseo Rafael Esteve Vilella,12,50018.0,,,,-0.8752329,41.6873936,-97431,4640641,el jardín,50
POINT (-0.8759782 41.628206),Bar Meka,,pub,,,,,,,,,,,-0.8759782,41.628206,-97514,4634052,bar meka,-1
POINT (-0.9075949 41.6489648),Cat Dog,,veterinary,,,,,C/ Berenguer de Bardají,60,50017.0,,,,-0.9075949,41.6489648,-101033,4636363,cat dog,-1
POINT (-0.8977682 41.6443448),El patio de Fran,,fast_food,,,,,Calle Juan José Lorente,56,,,,sandwich,-0.8977682,41.6443448,-99940,4635848,el patio de fran,-1
POINT (-0.9000572 41.6481254),Bar Brindis,,bar,,,,,,,,,,,-0.9000572,41.6481254,-100194,4636269,bar brindis,188
POINT (-0.896301 41.6456742),Bar Artigas,,bar,,,,,,,,,,,-0.896301,41.6456742,-99776,4635996,bar artigas,213
POINT (-0.9032897 41.6326483),"Martínez Laguia, María Antonia",,pharmacy,,pharmacy,,,Calle de Vázquez de Mella,4,50009.0,,,,-0.9032897,41.6326483,-100554,4634546,"martínez laguia, maría antonia",-1
POINT (-0.9041246 41.6367694),Restaurante Rogelios,,restaurant,,,,,Eduardo Ibarra,10,,,,,-0.9041246,41.6367694,-100647,4635005,restaurante rogelios,115
POINT (-0.9031697 41.6378118),Restaurante el foro,,restaurant,,,,,Plaza Eduardo Ibarra,4,,,,,-0.9031697,41.6378118,-100541,4635121,restaurante el foro,-1
POINT (-0.8783459 41.6569547),Museo Pilarista,,,museum,,,,,,,,,,-0.8783459,41.6569547,-97777,4637252,museo pilarista,-1
POINT (-0.8751822 41.6544735),Museo de Tapices de La Seo,,,museum,,,,,,,,,,-0.8751822,41.6544735,-97425,4636976,museo de tapices de la seo,-1
POINT (-0.8819913 41.6548519),Torreón Fortea,,,museum,,,,,,,,,,-0.8819913,41.6548519,-98183,4637018,torreón fortea,-1
POINT (-0.8784199 41.6546903),Museo Goya,,,museum,,,,,,,,,,-0.8784199,41.6546903,-97786,4637000,museo goya,282
POINT (-0.8748477 41.6552346),Museo del Puerto Fluvial de Caesaraugusta,,,museum,,,,Plaza de San Bruno,8,,,,,-0.8748477,41.6552346,-97388,4637061,museo del puerto fluvial de caesaraugusta,-1
POINT (-0.8761112 41.6538814),Casa de la Mujer. Sala Juana Francés,,,museum,,,,,,,,,,-0.8761112,41.6538814,-97529,4636910,casa de la mujer. sala juana francés,-1
POINT (-0.8890573 41.677669),Restaurante Navoa,,restaurant,,,,,Pablo Iglesias,1,,,,,-0.8890573,41.677669,-98970,4639558,restaurante navoa,73
POINT (-0.88906 41.6775017),Restaurante Orange,,restaurant,,,,,Pablo Iglesias,1,,,,,-0.88906,41.6775017,-98970,4639539,restaurante orange,73
POINT (-0.8875636 41.6494261),,newsagent,,,,,,,,,,,,-0.8875636,41.6494261,-98804,4636414,,216
POINT (-0.9002386 41.6480859),,hairdresser,,,,,,,,,,,,-0.9002386,41.6480859,-100215,4636265,,188
POINT (-0.904543 41.6525551),Buscavidas,,pub,,,,,,,,,,,-0.904543,41.6525551,-100694,4636762,buscavidas,138
POINT (-0.895405 41.6442463),Paymar,hifi,,,,,,,,,,,,-0.895405,41.6442463,-99676,4635837,paymar,267
POINT (-0.8933504 41.6439296),Losmar,hairdresser,,,,,,,,,,,,-0.8933504,41.6439296,-99448,4635802,losmar,-1
POINT (-0.8950724 41.641837),Vidal Hermanos,books,,,,,,,,,,,,-0.8950724,41.641837,-99639,4635569,vidal hermanos,227
POINT (-0.8949061 41.6416726),Cervecería Universitaria,,bar,,,,,Plaza de San Francisco,18,50006.0,,,,-0.8949061,41.6416726,-99621,4635551,cervecería universitaria,227
POINT (-0.8707668 41.6497489),Recicleta,bicycle,,,,,,Calle Asalto,69,50002.0,,,,-0.8707668,41.6497489,-96934,4636450,recicleta,-1
POINT (-0.8772718 41.6708202),"Casafranca Martínez, Maria Pilar",,pharmacy,,pharmacy,,,Avenida Salvador Allende,35-37,50015.0,,,,-0.8772718,41.6708202,-97658,4638796,"casafranca martínez, maria pilar",71
POINT (-0.8911277 41.6707768),Telepizza,,fast_food,,,,,Calle de Gertrudis Gómez de Avellaneda,53,,Telepizza,,pizza,-0.8911277,41.6707768,-99200,4638791,telepizza,75
POINT (-0.9205779 41.6204286),Ibercaja,,bank,,,,,,,,Ibercaja,Cai,,-0.9205779,41.6204286,-102479,4633186,ibercaja,38
POINT (-0.9209684 41.6200556),Ibercaja,,bank,,,,,Paseo de los Olvidados,33,50019.0,Ibercaja,Ibercaja,,-0.9209684,41.6200556,-102522,4633145,ibercaja,38
POINT (-0.9240597 41.617044),Hyper-Vecino,variety_store,,,,,,,,,,,,-0.9240597,41.617044,-102866,4632809,hyper-vecino,34
POINT (-0.9316474 41.6201579),Dalai,,pub,,,,,Avenida de Casablanca,30,50019.0,,,,-0.9316474,41.6201579,-103711,4633156,dalai,33
POINT (-0.9251518 41.616585),Cafetería el Tranvía,,cafe,,,,,Calle de La Caza,15,50019.0,,,,-0.9251518,41.616585,-102988,4632758,cafetería el tranvía,34
POINT (-0.9254001 41.6161712),Bar Siglo XXI,,bar,,,,,Calle de La Caza,19,,,,,-0.9254001,41.6161712,-103016,4632712,bar siglo xxi,34
POINT (-0.9253542 41.6162639),Royal Plaza,,,hotel,,,,,,,,,,-0.9253542,41.6162639,-103010,4632722,royal plaza,34
POINT (-0.9852557 41.6368474),Yantalia,,restaurant,,,,,,,,,,,-0.9852557,41.6368474,-109679,4635014,yantalia,11
POINT (-0.8904944 41.6457246),Fisioterapia Lepol,,,,physiotherapist,,,,,,,,,-0.8904944,41.6457246,-99130,4636002,fisioterapia lepol,269
POINT (-0.8721845 41.6269671),Imperial,,cafe,,,,,,,,,,,-0.8721845,41.6269671,-97092,4633914,imperial,-1
POINT (-0.8785256 41.6697092),Fundación San Valero,,school,,,,,Violeta Parra,9,,,,,-0.8785256,41.6697092,-97797,4638672,fundación san valero,70
POINT (-0.8797806 41.6527214),Malabares,,pub,,,,,Calle de Cinegio,2-4,50003.0,,,,-0.8797806,41.6527214,-97937,4636781,malabares,-1
POINT (-0.9119551 41.6439567),Panishop,bakery,,,,,,,,,Panishop,,,-0.9119551,41.6439567,-101519,4635805,panishop,134
POINT (-0.8896722 41.6077633),CASA,interior_decoration,,,,,,,,,CASA,,,-0.8896722,41.6077633,-99038,4631776,casa,21
POINT (-0.8909077 41.6097376),Conforama,furniture,,,,,,,,,Conforama,,,-0.8909077,41.6097376,-99176,4631996,conforama,-1
POINT (-0.8892107 41.6082126),Gerencia de Puerto Venecia,,,,,government,,,,,,,,-0.8892107,41.6082126,-98987,4631826,gerencia de puerto venecia,21
POINT (-0.8892015 41.6098817),Kiabi,clothes,,,,,,,,,Kiabi,,,-0.8892015,41.6098817,-98986,4632012,kiabi,-1
POINT (-0.8911997 41.608972),Maisons du Monde,furniture,,,,,,,,,Maisons du Monde,,,-0.8911997,41.608972,-99208,4631911,maisons du monde,18
POINT (-0.8910846 41.6092493),MediaMarkt,electronics,,,,,,,,,MediaMarkt,,,-0.8910846,41.6092493,-99196,4631942,mediamarkt,18
POINT (-0.8891435 41.6100384),Pepco,clothes,,,,,,,,,Pepco,,,-0.8891435,41.6100384,-98979,4632029,pepco,-1
POINT (-0.8896351 41.6069733),Porcelanosa,furniture,,,,,,,,,,,,-0.8896351,41.6069733,-99034,4631688,porcelanosa,-1
POINT (-0.8896882 41.6081028),Restaurante La Torreta,,restaurant,,,,,,,,,,,-0.8896882,41.6081028,-99040,4631814,restaurante la torreta,21
POINT (-0.891241 41.6085435),Tuco,furniture,,,,,,,,,,,,-0.891241,41.6085435,-99213,4631863,tuco,18
POINT (-0.8896797 41.6079227),Visionlab Store,optician,,,,,,,,,,Visionlab,,-0.8896797,41.6079227,-99039,4631794,visionlab store,21
POINT (-0.892099 41.641232),Balmoral,,pub,,,,,Calle San Juan de la Cruz,13,50006.0,,,,-0.892099,41.641232,-99308,4635502,balmoral,309
POINT (-0.8854431 41.6319755),Arturo Lozano,,dentist,,dentist,,,,,,,,,-0.8854431,41.6319755,-98568,4634472,arturo lozano,152
POINT (-0.8852798 41.6327723),Eroski,supermarket,,,,,,,,,Eroski,,,-0.8852798,41.6327723,-98549,4634560,eroski,152
POINT (-0.8870151 41.6329168),Dia,supermarket,,,,,,,,,Dia,,,-0.8870151,41.6329168,-98743,4634576,dia,149
POINT (-0.8874756 41.6313223),La Plaza de DIA,supermarket,,,,,,Calle Cuarte,1,50007.0,La Plaza de DIA,Dia,,-0.8874756,41.6313223,-98794,4634399,la plaza de dia,-1
POINT (-0.8853129 41.63256),Ibercaja,,bank,,,,,,,,Ibercaja,,,-0.8853129,41.63256,-98553,4634537,ibercaja,152
POINT (-0.8886696 41.6324427),Antonio Jordán,butcher,,,,,,Calle de Adoración Ruiz Tapiador,13-15,50007.0,,,,-0.8886696,41.6324427,-98927,4634524,antonio jordán,-1
POINT (-0.8885755 41.6835706),Museo de Informática Histórica,,,museum,,,,,,,,,,-0.8885755,41.6835706,-98916,4640215,museo de informática histórica,48
POINT (-0.8858647 41.683938),,copyshop,,,,,,,,,,,,-0.8858647,41.683938,-98614,4640256,,48
POINT (-0.8902326 41.6686741),,,atm,,,,,,,,Ibercaja,Ibercaja,,-0.8902326,41.6686741,-99101,4638557,,76
POINT (-0.9073737 41.6453212),Rosán,,cafe,,,,,,,,,,,-0.9073737,41.6453212,-101009,4635957,rosán,117
POINT (-0.9057644 41.6459293),Nirvana,,cafe,,,,,,,,,,,-0.9057644,41.6459293,-100830,4636025,nirvana,-1
POINT (-0.9076471 41.6457597),La trobada,,cafe,,,,,,,,,,,-0.9076471,41.6457597,-101039,4636006,la trobada,117
POINT (-0.906671 41.6449552),Sakura,,restaurant,,,,,,,,,,japanese,-0.906671,41.6449552,-100931,4635916,sakura,117
POINT (-0.9071277 41.6447518),Overpani,bakery,cafe,,,,,,,,,,,-0.9071277,41.6447518,-100981,4635894,overpani,117
POINT (-0.9083274 41.6482094),Gandalf,,cafe,,,,,,,,,,,-0.9083274,41.6482094,-101115,4636279,gandalf,122
POINT (-0.9063116 41.6427559),Utópico,,restaurant,,,,,Avenida del Alcalde Gómez Laguna,1-3-5,,,,,-0.9063116,41.6427559,-100891,4635672,utópico,117
POINT (-0.8777269 41.6258762),Cafe Bar Los Cuñadicos,,pub,,,,,,,,,,,-0.8777269,41.6258762,-97709,4633793,cafe bar los cuñadicos,101
POINT (-0.877172 41.6255174),Cafetería Los Ángeles,,cafe,,,,,,,,,,,-0.877172,41.6255174,-97647,4633753,cafetería los ángeles,101
POINT (-0.8776253 41.625845),Café-Bar Peña Oroel,,pub,,,,,,,,,,,-0.8776253,41.625845,-97697,4633789,café-bar peña oroel,101
POINT (-0.8770753 41.6254738),Cerveceria Gala,,pub,,,,,,,,,,,-0.8770753,41.6254738,-97636,4633748,cerveceria gala,101
POINT (-0.8769231 41.6253728),Charcuteria M. Moya,butcher,,,,,,,,,,,,-0.8769231,41.6253728,-97619,4633737,charcuteria m. moya,101
POINT (-0.8767271 41.6251303),Frutas J.Romero,greengrocer,,,,,,,,,,,,-0.8767271,41.6251303,-97597,4633710,frutas j.romero,101
POINT (-0.8766211 41.6246311),Papelería Kikos,stationery,,,,,,,,,,,,-0.8766211,41.6246311,-97585,4633654,papelería kikos,101
POINT (-0.876707 41.6250804),Coaliment,supermarket,,,,,,,,,Coaliment,,,-0.876707,41.6250804,-97595,4633704,coaliment,101
POINT (-0.8768737 41.6253268),Pescados y Mariscos Susana y Alberto,seafood,,,,,,,,,,,,-0.8768737,41.6253268,-97614,4633731,pescados y mariscos susana y alberto,101
POINT (-0.8786409 41.6259665),,dry_cleaning,,,,,,,,,,,,-0.8786409,41.6259665,-97810,4633803,,101
POINT (-0.8770262 41.6254399),Estilistas Rivero,hairdresser,,,,,,,,,,,,-0.8770262,41.6254399,-97631,4633744,estilistas rivero,101
POINT (-0.8766907 41.6250253),Herboristeria Hierbabuena,herbalist,,,,,,,,,,,,-0.8766907,41.6250253,-97593,4633698,herboristeria hierbabuena,101
POINT (-0.8900878 41.6580194),Mercadona,supermarket,,,,,,,,,Mercadona,,,-0.8900878,41.6580194,-99085,4637371,mercadona,-1
POINT (-0.8895288 41.6578513),Ibercaja,,bank,,,,,,,,Ibercaja,IberCaja,,-0.8895288,41.6578513,-99022,4637352,ibercaja,-1
POINT (-0.8841635 41.6686703),APP Informática,computer,,,,,,,,,,,,-0.8841635,41.6686703,-98425,4638556,app informática,80
POINT (-0.8838591 41.6691381),Osca Gas,gas,,,,,,,,,,,,-0.8838591,41.6691381,-98391,4638608,osca gas,80
POINT (-0.8831927 41.6697324),Papiros,stationery,,,,,,,,,,,,-0.8831927,41.6697324,-98317,4638675,papiros,79
POINT (-0.8847729 41.6682001),Rasgos,stationery,,,,,,,,,,,,-0.8847729,41.6682001,-98493,4638504,rasgos,80
POINT (-0.8827441 41.6681573),,greengrocer,,,,,,,,,,,,-0.8827441,41.6681573,-98267,4638499,,-1
POINT (-0.8848356 41.6681998),La Mar,seafood,,,,,,,,,,,,-0.8848356,41.6681998,-98500,4638504,la mar,80
POINT (-0.8845454 41.668366),Chollo Aragón,department_store,,,,,,,,,,,,-0.8845454,41.668366,-98468,4638523,chollo aragón,80
POINT (-0.884831 41.668375),Frutas del _,greengrocer,,,,,,,,,,,,-0.884831,41.668375,-98499,4638524,frutas del _,80
POINT (-0.8841015 41.6684351),,gift,,,,,,,,,,,,-0.8841015,41.6684351,-98418,4638530,,80
POINT (-0.8831078 41.6686923),Pirineos,bakery,,,,,,,,,,,,-0.8831078,41.6686923,-98308,4638559,pirineos,-1
POINT (-0.8830583 41.6686952),,,bar,,,,,,,,,,,-0.8830583,41.6686952,-98302,4638559,,-1
POINT (-0.883679 41.6691433),,car_repair,,,,,,,,,,,,-0.883679,41.6691433,-98371,4638609,,80
POINT (-0.8889702 41.6706937),100 Montaditos,,restaurant,,,,,,,,100 Montaditos,,sandwich,-0.8889702,41.6706937,-98960,4638782,100 montaditos,-1
POINT (-0.8848087 41.6743066),Los Manchegos 2,butcher,,,,,,,,,,,,-0.8848087,41.6743066,-98497,4639184,los manchegos 2,72
POINT (-0.8891231 41.6747283),Brujas y flandes,,cafe,,,,,Calle Poetisa María Zambrano,48,,,,spanish,-0.8891231,41.6747283,-98977,4639231,brujas y flandes,73
POINT (-0.8862315 41.6750816),Marugán,greengrocer,,,,,,,,,,,,-0.8862315,41.6750816,-98655,4639270,marugán,-1
POINT (-0.8891023 41.6742335),Dia,supermarket,,,,,,,,,Dia,,,-0.8891023,41.6742335,-98975,4639176,dia,73
POINT (-0.8864823 41.6736257),Manuel Segura,bakery,,,,,,,,,,,,-0.8864823,41.6736257,-98683,4639108,manuel segura,72
POINT (-0.8869463 41.6758776),,greengrocer,,,,,,,,,,,,-0.8869463,41.6758776,-98735,4639359,,-1
POINT (-0.8864689 41.6758815),Talía,,cafe,,,,,,,,,,,-0.8864689,41.6758815,-98682,4639359,talía,-1
POINT (-0.8850983 41.6745313),Bar Benito,,cafe,,,,,Julio García Condoy,32,,,,,-0.8850983,41.6745313,-98529,4639209,bar benito,72
POINT (-0.886644 41.6748924),BBVA,,bank,,,,,,,,BBVA,BBVA,,-0.886644,41.6748924,-98701,4639249,bbva,-1
POINT (-0.8869732 41.674916),Caixabank,,bank,,,,,,,,Caixabank,,,-0.8869732,41.674916,-98738,4639252,caixabank,-1
POINT (-0.8844653 41.6741707),Chipi-Chipi,,cafe,,,,,,,,,,,-0.8844653,41.6741707,-98459,4639169,chipi-chipi,72
POINT (-0.8847575 41.674377),,seafood,,,,,,,,,,,,-0.8847575,41.674377,-98491,4639192,,72
POINT (-0.8850292 41.6743222),,butcher,,,,,,,,,,,,-0.8850292,41.6743222,-98521,4639186,,72
POINT (-0.8847986 41.6744424),,greengrocer,,,,,,,,,,,,-0.8847986,41.6744424,-98496,4639199,,72
POINT (-0.8864215 41.6741893),La Despensica,convenience,,,,,,,,,,,,-0.8864215,41.6741893,-98676,4639171,la despensica,-1
POINT (-0.8871627 41.6736226),La Paz,,restaurant,,,,,Avda. Pablo Ruiz Picaso,26,,,,chinese,-0.8871627,41.6736226,-98759,4639108,la paz,74
POINT (-0.8805323 41.646419),Pizzería Trastevere,,restaurant,,,,,Calle Francisco de Vitoria,16,,,,italian,-0.8805323,41.646419,-98021,4636079,pizzería trastevere,325
POINT (-0.8861044 41.6839568),Ibercaja,,bank,,,,,,,,Ibercaja,IberCaja,,-0.8861044,41.6839568,-98641,4640258,ibercaja,48
POINT (-0.896602 41.6411708),Capone,,pub,,,,,Calle de Pedro Cerbuna,3,50009.0,,,,-0.896602,41.6411708,-99810,4635495,capone,-1
POINT (-0.8831645 41.6693537),Almacenes Dambo,shoes,,,,,,,,,,,,-0.8831645,41.6693537,-98314,4638632,almacenes dambo,79
POINT (-0.8909776 41.6702424),Aluminio,furniture,,,,,,,,,,,,-0.8909776,41.6702424,-99184,4638731,aluminio,75
POINT (-0.8865739 41.6702674),Asador San Miguel,butcher,,,,,,,,,,,,-0.8865739,41.6702674,-98693,4638734,asador san miguel,-1
POINT (-0.8831876 41.6698008),Azul,hairdresser,,,,,,,,,,,,-0.8831876,41.6698008,-98316,4638682,azul,79
POINT (-0.8857769 41.6703868),Ibercaja,,bank,,,,,,,,Ibercaja,,,-0.8857769,41.6703868,-98605,4638747,ibercaja,-1
POINT (-0.8844329 41.6686967),Café Bar Los Poetas,,pub,,,,,,,,,,,-0.8844329,41.6686967,-98455,4638559,café bar los poetas,80
POINT (-0.8843069 41.6686933),Canicas,shoes,,,,,,,,,,,,-0.8843069,41.6686933,-98441,4638559,canicas,80
POINT (-0.8838575 41.6686912),Cañizo,paint,,,,,,,,,,,,-0.8838575,41.6686912,-98391,4638559,cañizo,80
POINT (-0.8834493 41.6686848),Centro Médico Rey Fernando,,doctors,,,,,Poeta Rafael Alberti,15,50018.0,,,,-0.8834493,41.6686848,-98346,4638558,centro médico rey fernando,80
POINT (-0.8840862 41.6699741),Cervecería Neruda,,pub,,,,,,,,,,,-0.8840862,41.6699741,-98416,4638702,cervecería neruda,79
POINT (-0.8831611 41.6692036),Clinica Dental,,dentist,,,,,,,,,,,-0.8831611,41.6692036,-98313,4638616,clinica dental,79
POINT (-0.8843505 41.669134),Deco-3,fabric,,,,,,,,,,,,-0.8843505,41.669134,-98446,4638608,deco-3,80
POINT (-0.8876803 41.6691654),Exposición,furniture,,,,,,,,,,,,-0.8876803,41.6691654,-98817,4638611,exposición,77
POINT (-0.8878909 41.6695064),Folder,stationery,,,,,,,,,Folder,,,-0.8878909,41.6695064,-98840,4638649,folder,77
POINT (-0.8835639 41.6698345),Gimnasio Seul,,,,,,fitness_centre,,,,,,,-0.8835639,41.6698345,-98358,4638686,gimnasio seul,79
POINT (-0.8890431 41.6725867),El Dulce Bocado,,pub,,,,,,,,,,,-0.8890431,41.6725867,-98968,4638992,el dulce bocado,-1
POINT (-0.8868381 41.6699226),Imor,furniture,,,,,,,,,,,,-0.8868381,41.6699226,-98723,4638696,imor,-1
POINT (-0.8891323 41.6718378),Imprenta,stationery,,,,,,,,,,,,-0.8891323,41.6718378,-98978,4638909,imprenta,83
POINT (-0.8886566 41.6696071),Island Fitness Center,,,,,,fitness_centre,,,,,,,-0.8886566,41.6696071,-98925,4638661,island fitness center,77
POINT (-0.8834379 41.6702463),La Huerta de Zaragoza,greengrocer,,,,,,,,,,,,-0.8834379,41.6702463,-98344,4638732,la huerta de zaragoza,79
POINT (-0.8842324 41.6686936),Passaró,hairdresser,,,,,,,,,Passaró,,,-0.8842324,41.6686936,-98433,4638559,passaró,80
POINT (-0.8831861 41.6696649),Servicio Técnico Actur,electronics,,,,,,,,,,JVC,,-0.8831861,41.6696649,-98316,4638667,servicio técnico actur,79
POINT (-0.8839175 41.6684302),Bar my Cafetería,,pub,,,,,,,,,,,-0.8839175,41.6684302,-98398,4638530,bar my cafetería,80
POINT (-0.8848441 41.6685101),Estilo y Belleza,hairdresser,,,,,,,,,,,,-0.8848441,41.6685101,-98501,4638539,estilo y belleza,80
POINT (-0.8848107 41.668658),Dia,supermarket,,,,,,,,,Dia,Día,,-0.8848107,41.668658,-98497,4638555,dia,80
POINT (-0.885407 41.6686728),Eroski,supermarket,,,,,,,,,Eroski,Eroski,,-0.885407,41.6686728,-98564,4638557,eroski,-1
POINT (-0.8837127 41.6686804),Decoraciones LEA,interior_decoration,,,,,,,,,,,,-0.8837127,41.6686804,-98375,4638558,decoraciones lea,80
POINT (-0.8843601 41.6686941),,beauty,,,,,,,,,,,,-0.8843601,41.6686941,-98447,4638559,,80
POINT (-0.8878376 41.6689923),Martín Martín,convenience,,,,,,Pablo Neruda,2,50018.0,Martín Martín,Martín Martín,,-0.8878376,41.6689923,-98834,4638592,martín martín,77
POINT (-0.890724 41.669338),Domino's,,fast_food,,,,,Calle de Gertrudis Gómez de Avellaneda,41,50018.0,Domino's,Domino's Pizza,pizza,-0.890724,41.669338,-99155,4638631,domino's,-1
POINT (-0.8881908 41.6691988),Kutxabank,,bank,,,,,,,,Kutxabank,,,-0.8881908,41.6691988,-98873,4638615,kutxabank,77
POINT (-0.8873278 41.6693649),,florist,,,,,,,,,,,,-0.8873278,41.6693649,-98777,4638634,,77
POINT (-0.88842 41.6695307),La Mafia se sienta a la mesa,,restaurant,,,,,Pablo Casals,2,,,La Mafia,,-0.88842,41.6695307,-98899,4638652,la mafia se sienta a la mesa,77
POINT (-0.8876889 41.6695152),Ocaso,,,,,insurance,,,,,Ocaso,,,-0.8876889,41.6695152,-98818,4638650,ocaso,77
POINT (-0.8872739 41.6697211),,paint,,,,,,,,,,,,-0.8872739,41.6697211,-98771,4638673,,77
POINT (-0.8871008 41.6698838),Agustín Andrés Lorca Codina,,pharmacy,,pharmacy,,,Poeta Pablo Neruda,11,50018.0,,,,-0.8871008,41.6698838,-98752,4638691,agustín andrés lorca codina,77
POINT (-0.886659 41.6700271),,hairdresser,,,,,,,,,,,,-0.886659,41.6700271,-98703,4638707,,-1
POINT (-0.8841408 41.6702421),,department_store,,,,,,,,,,,,-0.8841408,41.6702421,-98423,4638731,,79
POINT (-0.8835466 41.6702506),,stationery,,,,,,,,,,,,-0.8835466,41.6702506,-98356,4638732,,79
POINT (-0.8909823 41.6703242),Fermín Moreno Ayguadé,,,,,notary,,,,,,,,-0.8909823,41.6703242,-99184,4638740,fermín moreno ayguadé,75
POINT (-0.8852679 41.6703704),,computer,,,,,,,,,,Toshiba,,-0.8852679,41.6703704,-98548,4638746,,-1
POINT (-0.8854291 41.6703749),Mapfre,,,,,insurance,,,,,Mapfre,,,-0.8854291,41.6703749,-98566,4638746,mapfre,-1
POINT (-0.8856903 41.6703808),,tobacco,,,,,,,,,,,,-0.8856903,41.6703808,-98595,4638747,,-1
POINT (-0.8891126 41.6707737),Pannus,bakery,cafe,,,,,,,,,,,-0.8891126,41.6707737,-98976,4638791,pannus,-1
POINT (-0.8891141 41.6712304),Banco Santander,,bank,,,,,Calle Poetisa María Zambrano,32,,Banco Santander,Santander,,-0.8891141,41.6712304,-98976,4638841,banco santander,-1
POINT (-0.8940453 41.672893),,,post_box,,,,,,,,Correos,Correos,,-0.8940453,41.672893,-99525,4639026,,-1
POINT (-0.886522 41.6270057),El Pinar,,pub,,,,,,,,,,,-0.886522,41.6270057,-98688,4633918,el pinar,-1
POINT (-0.8804121 41.6263359),Xana,hairdresser,,,,,,,,,,,,-0.8804121,41.6263359,-98007,4633844,xana,96
POINT (-0.8803409 41.626338),,greengrocer,,,,,,,,,,,,-0.8803409,41.626338,-98000,4633844,,-1
POINT (-0.8853195 41.6680024),Bar Venus,,pub,,,,,,,,,,,-0.8853195,41.6680024,-98554,4638482,bar venus,80
POINT (-0.8866504 41.6678568),Buckinham's,,,,,educational_institution,,,,,,,,-0.8866504,41.6678568,-98702,4638466,buckinham's,80
POINT (-0.8847234 41.6682004),Carnicería J. Chirón,butcher,,,,,,,,,,,,-0.8847234,41.6682004,-98487,4638504,carnicería j. chirón,80
POINT (-0.8863028 41.667856),El Abuelo,,pub,,,,,,,,,,,-0.8863028,41.667856,-98663,4638466,el abuelo,80
POINT (-0.8872644 41.6676276),El Allar,,restaurant,,,,,Calle Poetisa María Zambrano,21,,,,mediterranean,-0.8872644,41.6676276,-98770,4638440,el allar,-1
POINT (-0.8844103 41.6692569),Esfera Digital,signs,,,,,,,14,,,,,-0.8844103,41.6692569,-98453,4638622,esfera digital,-1
POINT (-0.8858707 41.6679969),Esmedagro,,,,,accountant,,,,,,,,-0.8858707,41.6679969,-98615,4638481,esmedagro,80
POINT (-0.884666 41.6682011),Estilo y Belleza Shop,beauty,,,,,,,,,,,,-0.884666,41.6682011,-98481,4638504,estilo y belleza shop,80
POINT (-0.8859483 41.668189),Gabinete de Estética María Jesús,beauty,,,,,,,,,,,,-0.8859483,41.668189,-98624,4638503,gabinete de estética maría jesús,80
POINT (-0.8851434 41.667992),Generali Seguros,,,,,insurance,,,,,Generali,,,-0.8851434,41.667992,-98534,4638481,generali seguros,80
POINT (-0.8853874 41.6678626),Gaman Center,,,,,,fitness_centre,,,,,,,-0.8853874,41.6678626,-98561,4638466,gaman center,80
POINT (-0.8855369 41.6678501),Lázaro Tremúl,butcher,,,,,,,,,,,,-0.8855369,41.6678501,-98578,4638465,lázaro tremúl,80
POINT (-0.8852783 41.6681847),La Perla Blanca,hairdresser,,,,,,Calle Jorge Guillén,,,,,,-0.8852783,41.6681847,-98549,4638502,la perla blanca,80
POINT (-0.8851387 41.6681665),Moreno fotografos,photo,,,,,,Calle Flora Tristán,8,50018.0,,,,-0.8851387,41.6681665,-98534,4638500,moreno fotografos,80
POINT (-0.886249 41.6683523),Novalaser,beauty,,,,,,,,,,,,-0.886249,41.6683523,-98657,4638521,novalaser,80
POINT (-0.8860385 41.6681869),Peluquería Di-Arte,hairdresser,,,,,,,,,,,,-0.8860385,41.6681869,-98634,4638503,peluquería di-arte,80
POINT (-0.8864251 41.6680548),Peluquería Unisex,hairdresser,,,,,,,,,,,,-0.8864251,41.6680548,-98677,4638488,peluquería unisex,80
POINT (-0.8857024 41.6680559),Pescadería La Mar,seafood,,,,,,,,,,,,-0.8857024,41.6680559,-98596,4638488,pescadería la mar,80
POINT (-0.8854834 41.6680441),Pollería Charcutería,butcher,,,,,,,,,,,,-0.8854834,41.6680441,-98572,4638487,pollería charcutería,80
POINT (-0.8851376 41.6680773),Raquel,bakery,,,,,,,,,,,,-0.8851376,41.6680773,-98534,4638490,raquel,80
POINT (-0.8857807 41.6678515),Rótulos Corporeas Aragón,signs,,,,,,,,,,,,-0.8857807,41.6678515,-98605,4638465,rótulos corporeas aragón,80
POINT (-0.8865275 41.6678495),Gastrobar 93,,restaurant,,,,,Calle Poeta León Felipe,1,50018.0,,,,-0.8865275,41.6678495,-98688,4638465,gastrobar 93,80
POINT (-0.8856754 41.6678515),Sandra Griñón estilistas,hairdresser,,,,,,,,,,,,-0.8856754,41.6678515,-98593,4638465,sandra griñón estilistas,80
POINT (-0.8839692 41.6691402),Saneamientos M. Per,builder,,,,,,,,,,,,-0.8839692,41.6691402,-98403,4638609,saneamientos m. per,80
POINT (-0.8837856 41.6685208),Saqqara estilista,hairdresser,,,,,,,,,,,,-0.8837856,41.6685208,-98383,4638540,saqqara estilista,80
POINT (-0.88415 41.6691378),Sercal 2000 SL,gas,,,,,,,,,,,,-0.88415,41.6691378,-98424,4638608,sercal 2000 sl,80
POINT (-0.8860396 41.6679955),Ternal,butcher,,,,,,,,,,,,-0.8860396,41.6679955,-98634,4638481,ternal,80
POINT (-0.8837942 41.6684306),Zapatería,shoe_repair,,,,,,,,,,,,-0.8837942,41.6684306,-98384,4638530,zapatería,80
POINT (-0.886756 41.6679574),Ibercaja,,bank,,,,,Calle de León Felipe,1,50018.0,Ibercaja,IberCaja,,-0.886756,41.6679574,-98714,4638477,ibercaja,80
POINT (-0.8840022 41.6684275),,department_store,,,,,,,,,,,,-0.8840022,41.6684275,-98407,4638529,,80
POINT (-0.8825807 41.6425356),Juguettos,toys,,,,,,,,,Juguettos,,,-0.8825807,41.6425356,-98249,4635647,juguettos,217
POINT (-0.9089543 41.6395259),Cines Aragonia,,cinema,,,,,Avenida Juan Pablo II,41,50009.0,,,,-0.9089543,41.6395259,-101185,4635312,cines aragonia,131
POINT (-0.8879913 41.6665147),Vizio,bicycle,,,,,,,,,,,,-0.8879913,41.6665147,-98851,4638316,vizio,-1
POINT (-0.8774018 41.657042),Club Náutico Zaragoza,,,,,,sports_centre,Paseo de Echegaray y Caballero,101,50003.0,,,,-0.8774018,41.657042,-97672,4637262,club náutico zaragoza,-1
POINT (-0.8938088 41.6623198),El Bosque de Bruba,,restaurant,,,,,Calle de la Sierra de Vícor,,50003.0,,,spanish,-0.8938088,41.6623198,-99499,4637849,el bosque de bruba,-1
POINT (-0.8938703 41.657997),Delegación Institucional del Consejo Superior de Investigaciones Científicas en Aragón,,,,,government,,Plaza de Emilio Alfaro Gracia,2-3,50003.0,,,,-0.8938703,41.657997,-99506,4637368,delegación institucional del consejo superior de investigaciones científicas en aragón,-1
POINT (-0.8859345 41.6576127),Albergue de Zaragoza,,,hostel,,,,,,,,,,-0.8859345,41.6576127,-98622,4637325,albergue de zaragoza,-1
POINT (-0.8741237 41.6512926),Apartamentos Zaragoza,,,hotel,,,,,,,,,,-0.8741237,41.6512926,-97307,4636622,apartamentos zaragoza,258
POINT (-0.872324 41.6513281),Apartamentos Palacio de los Sitios,,,hotel,,,,,,,,,,-0.872324,41.6513281,-97107,4636626,apartamentos palacio de los sitios,-1
POINT (-0.8725762 41.6512762),Apartamentos Casona de los Sitios,,,hotel,,,,,,,,,,-0.8725762,41.6512762,-97135,4636620,apartamentos casona de los sitios,-1
POINT (-0.882744 41.6421144),El Europeo,,restaurant,,,,,Camino de las Torres,78,,,,spanish,-0.882744,41.6421144,-98267,4635600,el europeo,217
POINT (-0.9496025 41.577292),Restaurante Las Murallas,,restaurant,,,,,,,,,,,-0.9496025,41.577292,-105710,4628384,restaurante las murallas,0
POINT (-0.8791545 41.6537731),tubodaenimagenes.com,photo,,,,,,Calle de Santa Cruz,8,50003.0,,,,-0.8791545,41.6537731,-97867,4636898,tubodaenimagenes.com,-1
POINT (-0.8792774 41.6540655),Talia modista,clothes,,,,,,Jussepe Martinez,23,50003.0,,,,-0.8792774,41.6540655,-97881,4636931,talia modista,-1
POINT (-0.8825476 41.6368621),Talleres ServiMóvil SC,car_repair,,,,,,Calle Simón Sáinz de Varanda,18,50007.0,,,,-0.8825476,41.6368621,-98245,4635015,talleres servimóvil sc,-1
POINT (-0.9185552 41.6231013),Overpani,bakery,,,,,,,,,,,,-0.9185552,41.6231013,-102254,4633484,overpani,42
POINT (-0.9205529 41.6225787),Otro Concepto,hairdresser,,,,,,,,,,,,-0.9205529,41.6225787,-102476,4633425,otro concepto,41
POINT (-0.9200481 41.6223462),MerK2,convenience,,,,,,,,,,,,-0.9200481,41.6223462,-102420,4633400,merk2,41
POINT (-0.9033032 41.6697098),,,restaurant,,,,,,,,,,,-0.9033032,41.6697098,-100556,4638672,,52
POINT (-0.9206843 41.6203209),Donner Kebab Valdespartera,,fast_food,,,,,,,,,,,-0.9206843,41.6203209,-102491,4633174,donner kebab valdespartera,38
POINT (-0.9199607 41.6210143),Autoescuela Universitas,,school,,,,,,,,,,,-0.9199607,41.6210143,-102410,4633251,autoescuela universitas,-1
POINT (-0.9200648 41.6209145),Cafe Bar La Principal,,bar,,,,,,,,,,,-0.9200648,41.6209145,-102422,4633240,cafe bar la principal,-1
POINT (-0.8577562 41.6570668),Leumax,,bar,,,,,,,,,,,-0.8577562,41.6570668,-95485,4637265,leumax,85
POINT (-0.8581906 41.6553551),Bar Betore,,bar,,,,,,,,,,,-0.8581906,41.6553551,-95534,4637074,bar betore,-1
POINT (-0.8573161 41.6538254),Coaliment,supermarket,,,,,,,,,Coaliment,,,-0.8573161,41.6538254,-95436,4636904,coaliment,-1
POINT (-0.8575654 41.6570617),Panishop,bakery,,,,,,,,,Panishop,,,-0.8575654,41.6570617,-95464,4637264,panishop,85
POINT (-0.8911737 41.6457976),Morrison,,pub,,,,,Calle Ricla,8,,,,,-0.8911737,41.6457976,-99205,4636010,morrison,-1
POINT (-0.8797795 41.6456712),Amoena,,bar,,,,,,,,,,,-0.8797795,41.6456712,-97937,4635996,amoena,330
POINT (-0.8846514 41.6532926),Suites Apartamentos Los Girasoles,,,hotel,,,,,,,,,,-0.8846514,41.6532926,-98479,4636845,suites apartamentos los girasoles,-1
POINT (-0.880676 41.65466),Gran Café Zaragoza,,cafe,,,,,Calle de Alfonso I,25,,,,,-0.880676,41.65466,-98037,4636997,gran café zaragoza,276
POINT (-0.8775854 41.6543236),"Feliu Valiente, Manuel",,pharmacy,,pharmacy,,,Calle Don Jaime I,37,50003.0,,,,-0.8775854,41.6543236,-97693,4636959,"feliu valiente, manuel",300
POINT (-0.8812741 41.6514083),Las Vegas,,cafe,,,,,,,,,,,-0.8812741,41.6514083,-98103,4636635,las vegas,316
POINT (-0.881735 41.650916),,newspaper,,,,,,,,,,,,-0.881735,41.650916,-98155,4636580,,-1
POINT (-0.882575 41.650124),Calzedonia,clothes,,,,,,,,,Calzedonia,,,-0.882575,41.650124,-98248,4636492,calzedonia,318
POINT (-0.887906 41.650032),,,post_box,,,,,,,,Correos,Correos,,-0.887906,41.650032,-98842,4636482,,-1
POINT (-0.888077 41.6496806),Bogar,shoes,,,,,,Paseo de María Agustín,1,,,,,-0.888077,41.6496806,-98861,4636442,bogar,216
POINT (-0.8912307 41.6742687),Talia,,restaurant,,,,,Calle de Gertrudis Gómez de Avellaneda,73,,,,sandwich,-0.8912307,41.6742687,-99212,4639180,talia,-1
POINT (-0.8894434 41.6696501),Bodega Jorge y Quevedo,,restaurant,,,,,Calle Poetisa María Zambrano,35,,,,,-0.8894434,41.6696501,-99013,4638665,bodega jorge y quevedo,78
POINT (-0.889943 41.6698672),Lizarrán,,restaurant,,,,,Calle Poetisa María Zambrano,"35 - CC Grancasa, local 2. 13",,Lizarrán,,spanish,-0.889943,41.6698672,-99068,4638690,lizarrán,78
POINT (-0.889551 41.669101),McDonald's,,fast_food,,,,,Calle Poetisa María Zambrano,71. C.C. Grancasa,,McDonald's,,burger,-0.889551,41.669101,-99025,4638604,mcdonald's,78
POINT (-0.8891749 41.6692415),Turkuaz,,fast_food,,,,,Calle Poetisa María Zambrano,"35. Grancasa, local 242-C",,,,,-0.8891749,41.6692415,-98983,4638620,turkuaz,77
POINT (-0.8902901 41.6687722),El Greco,,restaurant,,,,,Calle de Gertrudis Gómez de Avellaneda,33,,,,,-0.8902901,41.6687722,-99107,4638568,el greco,-1
POINT (-0.8928602 41.66768),Asador La Garnacha,,restaurant,,,,,Calle Clara Campoamor,26,50018.0,,,,-0.8928602,41.66768,-99393,4638446,asador la garnacha,62
POINT (-0.8884222 41.6696229),Bokita,,restaurant,,,,,Calle Pablo Casals,2-4,,,,,-0.8884222,41.6696229,-98899,4638662,bokita,77
POINT (-0.8884217 41.669745),La Viña de Tito,,fast_food,,,,,Calle Pablo Casals,2,,,Manuel Cabezón Portillo,sandwich,-0.8884217,41.669745,-98899,4638676,la viña de tito,77
POINT (-0.8926823 41.667286),La Tagliatella,,restaurant,,,,,Calle Clara Campoamor,17-19,50018.0,,,,-0.8926823,41.667286,-99373,4638402,la tagliatella,62
POINT (-0.8841462 41.6713198),Sentinel,,restaurant,,,,,Ildefonso Manuel Gil,36,,,,,-0.8841462,41.6713198,-98423,4638851,sentinel,79
POINT (-0.8836449 41.6742602),Casa de Andalucía,,restaurant,,,,,Calle Julio García Condoy,44,,,,,-0.8836449,41.6742602,-98367,4639179,casa de andalucía,-1
POINT (-0.88732 41.6748719),La Casucha,,restaurant,,,,,Calle Julio García Condoy,"15, local 7",,,,,-0.88732,41.6748719,-98776,4639247,la casucha,-1
POINT (-0.8873022 41.6733736),Manolete,,restaurant,,,,,Calle de Pablo Ruiz Picasso,25,,,,,-0.8873022,41.6733736,-98774,4639080,manolete,74
POINT (-0.8899785 41.6700311),Burger King,,fast_food,,,,,Calle de Gertrudis Gómez de Avellaneda,35,50018.0,Burger King,,burger,-0.8899785,41.6700311,-99072,4638708,burger king,78
POINT (-0.8832636 41.6639277),Casa alberto,,restaurant,,,,,Calle Poetisa María Zambrano,"71, CC carrefour, local 12",,,,,-0.8832636,41.6639277,-98325,4638028,casa alberto,53
POINT (-0.8889368 41.6654329),Girasol,,restaurant,,,,,Calle de Mariana Pineda,16,,,,,-0.8889368,41.6654329,-98956,4638196,girasol,-1
POINT (-0.8876673 41.6659112),Gaviota Actur,,restaurant,,,,,Calle de Mariana Pineda,4,,,,,-0.8876673,41.6659112,-98815,4638249,gaviota actur,-1
POINT (-0.8890591 41.6676995),Sorrento,,restaurant,,,,,Calle de Gertrudis Gómez de Avellaneda,25,,,,pizza,-0.8890591,41.6676995,-98970,4638448,sorrento,-1
POINT (-0.8956517 41.6763352),El Extremaño,,restaurant,,,,,Calle Luis Legaz Lacambra,36,,,,,-0.8956517,41.6763352,-99704,4639410,el extremaño,-1
POINT (-0.8912406 41.6714694),La Trufa,,restaurant,,,,,Calle de Gertrudis Gómez de Avellaneda,55,,,,,-0.8912406,41.6714694,-99213,4638868,la trufa,-1
POINT (-0.9098578 41.6679569),Bocados balambambú,,restaurant,,,,,Parque del Agua. Pso. Botánico,3,,,,,-0.9098578,41.6679569,-101285,4638477,bocados balambambú,-1
POINT (-0.886997 41.6788618),Rincón del Tato,,restaurant,,,,,Calle Miguel de Unamuno,16,,,,,-0.886997,41.6788618,-98741,4639691,rincón del tato,-1
POINT (-1.0070163 41.6628221),Aeropuerto de Zaragoza,,restaurant,,,,,Ctra. Aeropuerto,,,,,,-1.0070163,41.6628221,-112101,4637905,aeropuerto de zaragoza,7
POINT (-0.9688923 41.6786677),Agudo,,restaurant,,,,,El Tomillar,,,,,regional,-0.9688923,41.6786677,-107857,4639669,agudo,15
POINT (-0.8648281 41.6932679),Artigas,,restaurant,,,,,Calle de Jesús y María,81,,,,,-0.8648281,41.6932679,-96273,4641295,artigas,23
POINT (-0.8172621 41.6956576),Asador san roque,,restaurant,,,,,Avenida de Montañana,590,,,,,-0.8172621,41.6956576,-90978,4641561,asador san roque,-1
POINT (-0.825274 41.6051926),Blasco's,,restaurant,,,,,Calle Autonomía de Aragón,,,,,,-0.825274,41.6051926,-91870,4631490,blasco's,3
POINT (-1.0287934 41.7187901),Bocapizza fratello's,,restaurant,,,,,Dorotea Aranal,3,,,,,-1.0287934,41.7187901,-114525,4644136,bocapizza fratello's,2
POINT (-0.8416647 41.7173952),Casa de la abuela,,restaurant,,,,,Calle Francisco Moreno,5,,,,,-0.8416647,41.7173952,-93694,4643980,casa de la abuela,13
POINT (-0.8674985 41.684209),Don Angel,,restaurant,,,,,Calle Bernardo Ramazzini,,,,,,-0.8674985,41.684209,-96570,4640286,don angel,-1
POINT (-0.8254268 41.6910562),El Churrero,,restaurant,,,,,Avenida de Montañana,413,,,,,-0.8254268,41.6910562,-91887,4641048,el churrero,12
POINT (-0.7879285 41.6599054),El Poligono,,restaurant,,,,,Polígono de Malpica,F-58,,,,,-0.7879285,41.6599054,-87712,4637581,el poligono,8
POINT (-0.8386241 41.7199452),El garito,,restaurant,,,,,,,,,,,-0.8386241,41.7199452,-93356,4644264,el garito,13
POINT (-0.9729323 41.7030493),Finca la Quinta,,restaurant,,,,,Camino de la Estación,,,,,,-0.9729323,41.7030493,-108307,4642383,finca la quinta,9
POINT (-0.8711861 41.6835325),Félix,,restaurant,,,,,El Globo,1,,,,,-0.8711861,41.6835325,-96980,4640211,félix,-1
POINT (-0.8508509 41.7208513),Hotel spa real ciudad de Zaragoza,,,hotel,,,,Carretera de Huesca,Km 7,,,,,-0.8508509,41.7208513,-94717,4644365,hotel spa real ciudad de zaragoza,13
POINT (-0.862411 41.6925007),El Jotero,,restaurant,,,,,Avenida de San Gregorio,55,,,,,-0.862411,41.6925007,-96004,4641209,el jotero,23
POINT (-0.8544861 41.683976),La Lonja,,restaurant,,,,,Carretera de Cogullada,,,,,,-0.8544861,41.683976,-95121,4640260,la lonja,-1
POINT (-0.8235182 41.6043186),Los Cartujos,,restaurant,,,,,Paseo de Los Plátanos,65,,,,,-0.8235182,41.6043186,-91674,4631393,los cartujos,3
POINT (-0.8258894 41.690367),Mesón los Arcos,,restaurant,,,,,Avenida de Montañana,368,,,,,-0.8258894,41.690367,-91938,4640972,mesón los arcos,12
POINT (-0.7900698 41.6551677),Meson del Tejar,,restaurant,,,,,Polígono de Malpica,"D, 165",,,,,-0.7900698,41.6551677,-87951,4637053,meson del tejar,8
POINT (-0.8272781 41.6846291),Mesón Montañana,,restaurant,,,,,Calle de Nuestra Señora del Rosario,29,,,,,-0.8272781,41.6846291,-92093,4640333,mesón montañana,12
POINT (-0.8493046 41.7220403),Nehosomport,,restaurant,,,,,Carretera de Huesca,"km. 5, locales 63-64",,,,,-0.8493046,41.7220403,-94545,4644498,nehosomport,13
POINT (-0.841592 41.7173619),El Paso,,restaurant,,,,,Calle Francisco Moreno,3,,,,,-0.841592,41.7173619,-93686,4643977,el paso,13
POINT (-0.8633233 41.6909664),San Gregorio,,restaurant,,,,,Avenida de San Gregorio,19,,,,,-0.8633233,41.6909664,-96105,4641038,san gregorio,23
POINT (-0.8959498 41.6905222),Tinajo,,restaurant,,,,,Zaragoza,88,,,,,-0.8959498,41.6905222,-99737,4640989,tinajo,-1
POINT (-0.8259055 41.69035),Tres Coronas,,restaurant,,,,,Avenida de Montañana,368,,,,,-0.8259055,41.69035,-91940,4640970,tres coronas,12
POINT (-0.9830684 41.6639173),Restaurante Gayarre,,restaurant,,,,,Ctra. Aeropuerto,370,,,,,-0.9830684,41.6639173,-109435,4638027,restaurante gayarre,-1
POINT (-0.9209119 41.6594287),Bocatta,,restaurant,,,,,Avenida de Navarra,180,,,,,-0.9209119,41.6594287,-102516,4637528,bocatta,66
POINT (-0.9190329 41.6595836),Buffalo Grill,,restaurant,,,,,Avenida de Navarra,180,,Buffalo Grill,,steak_house,-0.9190329,41.6595836,-102307,4637545,buffalo grill,66
POINT (-0.9484663 41.6745813),El Jabato,,restaurant,,,,,Autovía de Logroño,Km. 6.3,,,,,-0.9484663,41.6745813,-105583,4639214,el jabato,15
POINT (-0.9337155 41.6598342),De la cocina a la mesa,,restaurant,,,,,Plaza Lagos Azules,2,,,,,-0.9337155,41.6598342,-103941,4637573,de la cocina a la mesa,43
POINT (-0.9286292 41.6515375),Donaire,,restaurant,,,,,Calle de Antonio Leyva,83,,,,,-0.9286292,41.6515375,-103375,4636649,donaire,-1
POINT (-0.9486521 41.674735),El Sauce,,restaurant,,,,,Carretera de Logroño,10,,,,,-0.9486521,41.674735,-105604,4639232,el sauce,15
POINT (-0.9211515 41.6595647),La Espiga,,restaurant,,,,,Avenida de Navarra,180,,,,,-0.9211515,41.6595647,-102543,4637543,la espiga,66
POINT (-0.9211528 41.6594167),Las Brasas,,restaurant,,,,,Avenida de Navarra,180,,,,,-0.9211528,41.6594167,-102543,4637526,las brasas,66
POINT (-0.9209116 41.6595453),McDonald's,,fast_food,,,,,Avenida de Navarra,180,,McDonald's,,burger,-0.9209116,41.6595453,-102516,4637541,mcdonald's,66
POINT (-0.9249691 41.6587399),Media luna,,restaurant,,,,,Camino del Pilón,6,,,,,-0.9249691,41.6587399,-102968,4637451,media luna,47
POINT (-0.9412252 41.6595558),Morata,,restaurant,,,,,Camino de Vistabella,13,,,,,-0.9412252,41.6595558,-104777,4637542,morata,43
POINT (-0.9417765 41.6588882),Nazaret,,restaurant,,,,,Calle Mayor,1,,,,,-0.9417765,41.6588882,-104839,4637467,nazaret,43
POINT (-0.9422905 41.668187),Restaurante el cachirulo,,restaurant,,,,,Ctra. de Logroño Km.,500,,,,,-0.9422905,41.668187,-104896,4638503,restaurante el cachirulo,-1
POINT (-0.9303278 41.6580155),Salvador,,restaurant,,,,,Calle José María Castro Calvo,9,,,,,-0.9303278,41.6580155,-103564,4637370,salvador,44
POINT (-0.933452 41.6524666),Tabernalia la Corona,,restaurant,,,,,Calle Lagos de Coronas,35,,,,,-0.933452,41.6524666,-103912,4636753,tabernalia la corona,44
POINT (-0.9346029 41.650767),Telepizza,,fast_food,,,,,Ronda Ibón de Plan,22,,Telepizza,,pizza,-0.9346029,41.650767,-104040,4636563,telepizza,-1
POINT (-0.9290062 41.6239391),Hechizo,,restaurant,,,,,Calle de Desayuno con Diamantes,7,,,,,-0.9290062,41.6239391,-103417,4633577,hechizo,33
POINT (-0.9318433 41.6308226),Bar - restaurante Jena,,restaurant,,,,,Avenida de la Ilustración,14,,,,,-0.9318433,41.6308226,-103733,4634343,bar - restaurante jena,37
POINT (-0.9300441 41.6222645),Diamantes del sur,,restaurant,,,,,Calle de Desayuno con Diamantes,23,,,,,-0.9300441,41.6222645,-103533,4633390,diamantes del sur,33
POINT (-0.9266303 41.6277309),Don Vito,,restaurant,,,,,Avenida de la Ilustración,5,,,,,-0.9266303,41.6277309,-103152,4633999,don vito,32
POINT (-0.9292025 41.6236184),Manhattan,,restaurant,,,,,Calle de Desayuno con Diamantes,"11, local 3",,,,,-0.9292025,41.6236184,-103439,4633541,manhattan,33
POINT (-0.9267966 41.6278602),Pato Laqueado de Pekin,,restaurant,,,,,Avenida de la Ilustración,5,,,,chinese,-0.9267966,41.6278602,-103171,4634013,pato laqueado de pekin,32
POINT (-0.9119317 41.6260385),Beluca,,restaurant,,,,,Calle Argualas,12,,,,,-0.9119317,41.6260385,-101516,4633811,beluca,45
POINT (-0.9112064 41.6257015),Nuestra Sra. de las Nieves,,restaurant,,,,,Calle Argualas,10,,,,,-0.9112064,41.6257015,-101435,4633773,nuestra sra. de las nieves,45
POINT (-0.9264121 41.644469),El pato rojo,,restaurant,,,,,Avenida de Valdefierro,1,,,,,-0.9264121,41.644469,-103128,4635862,el pato rojo,-1
POINT (-0.9337955 41.6423562),El viejo roble,,restaurant,,,,,,,,,,,-0.9337955,41.6423562,-103950,4635627,el viejo roble,40
POINT (-0.9078958 41.629874),Gloria,,restaurant,,,,,Calle de la Vía,2,,,,,-0.9078958,41.629874,-101067,4634238,gloria,45
POINT (-0.9075379 41.629672),Jauja,,restaurant,,,,,Calle Embarcadero,2,,,,,-0.9075379,41.629672,-101027,4634215,jauja,45
POINT (-0.8715037 41.6716081),La Canela,,restaurant,,,,,Avenida de San Juan de la Peña,135,,,,,-0.8715037,41.6716081,-97016,4638883,la canela,-1
POINT (-0.8528537 41.667654),Los Charros,,restaurant,,,,,Avenida Cataluña,189,,,,,-0.8528537,41.667654,-94940,4638443,los charros,-1
POINT (-0.8683526 41.6773541),Condado de Aragón,,restaurant,,,,,Camino de Los Molinos,42,,,,,-0.8683526,41.6773541,-96665,4639523,condado de aragón,-1
POINT (-0.87278 41.6726371),El Primero,,restaurant,,,,,Calle Monte Perdido,3,,,,,-0.87278,41.6726371,-97158,4638998,el primero,-1
POINT (-0.8537858 41.6283648),El Moscatelero,,restaurant,,,,,Carretera de Castellón,Km. 6,,,,,-0.8537858,41.6283648,-95043,4634070,el moscatelero,-1
POINT (-0.871514 41.6783451),La ilustre 8,,restaurant,,,,,Antonio Ubieto,8,,,,,-0.871514,41.6783451,-97017,4639633,la ilustre 8,68
POINT (-0.869155 41.6758061),Luna,,restaurant,,,,,Camino de Los Molinos,49,,,,,-0.869155,41.6758061,-96754,4639351,luna,-1
POINT (-0.8580029 41.6714541),Torrejón,,restaurant,,,,,Camino de Cogullada,28,,,,,-0.8580029,41.6714541,-95513,4638866,torrejón,-1
POINT (-0.8387471 41.6697055),Avenida,,restaurant,,,,,Avenida de Santa Isabel,19,,,,,-0.8387471,41.6697055,-93369,4638672,avenida,20
POINT (-0.8245799 41.6677131),Mesón Vilamar,,restaurant,,,,,Calle Gaspar Torrente,68,,,,,-0.8245799,41.6677131,-91792,4638450,mesón vilamar,29
POINT (-0.868938 41.6762471),Lagunas,,restaurant,,,,,Camino de Los Molinos,53,,,,,-0.868938,41.6762471,-96730,4639400,lagunas,69
POINT (-0.8584208 41.6707776),Mesón Cogullada,,restaurant,,,,,Camino de Cogullada,22,,,,,-0.8584208,41.6707776,-95559,4638791,mesón cogullada,-1
POINT (-0.8755905 41.6697652),Royos 99,,restaurant,,,,,Paseo de Alberto Casañal Shakery,3,,,,,-0.8755905,41.6697652,-97471,4638678,royos 99,-1
POINT (-0.8444647 41.668899),Nela,,restaurant,,,,,Calle Río Piedra,6,,,,,-0.8444647,41.668899,-94006,4638582,nela,19
POINT (-0.8780023 41.670204),El Pasticcio (ya no existe),,restaurant,,,,,Violeta Parra,24,,,,,-0.8780023,41.670204,-97739,4638727,el pasticcio (ya no existe),70
POINT (-0.8709664 41.6758221),Angel,,restaurant,,,,,Avenida de San Juan de la Peña,184,,,,,-0.8709664,41.6758221,-96956,4639353,angel,68
POINT (-0.8211375 41.6651977),Mamblas,,restaurant,,,,,Calle de Mamblas,22,,,,,-0.8211375,41.6651977,-91409,4638170,mamblas,-1
POINT (-0.8694703 41.6753993),La Cocina de Rafa,,restaurant,,,,,Camino de Los Molinos,45,,,,,-0.8694703,41.6753993,-96789,4639305,la cocina de rafa,-1
POINT (-0.8498684 41.6261198),La Cartuja,,restaurant,,,,,Carretera Catellón,Km. 233,,,,,-0.8498684,41.6261198,-94607,4633820,la cartuja,-1
POINT (-0.8606627 41.6708666),Restaurante Pirineos,,restaurant,,,,,Avenida Alcalde Francisco Caballero,22,,,,,-0.8606627,41.6708666,-95809,4638801,restaurante pirineos,-1
POINT (-0.8362532 41.6587743),Bistró Casa y Tinelo,,restaurant,,,,,Avenida de Movera,171,,,,,-0.8362532,41.6587743,-93092,4637455,bistró casa y tinelo,-1
POINT (-0.8767487 41.6760568),El Gorricho,,restaurant,,,,,Salvador Allende,75,,,,,-0.8767487,41.6760568,-97600,4639379,el gorricho,-1
POINT (-0.873584 41.6668118),Refugio,,restaurant,,,,,Calle del Valle de Broto,"4-6, Local 11-13",,,,,-0.873584,41.6668118,-97247,4638349,refugio,61
POINT (-0.8707619 41.6752614),Isabel,,restaurant,,,,,Calle de Maella,1,,,,,-0.8707619,41.6752614,-96933,4639290,isabel,-1
POINT (-0.8715161 41.6712617),Kiko,,restaurant,,,,,Avenida de San Juan de la Peña,131,,,,,-0.8715161,41.6712617,-97017,4638845,kiko,64
POINT (-0.869239 41.6756421),La Birolla,,restaurant,,,,,Camino de Los Molinos,47,,,,,-0.869239,41.6756421,-96764,4639332,la birolla,-1
POINT (-0.8597919 41.632931),Torreluna,,restaurant,,,,,Calle Miguel Servet,193,50013.0,,,,-0.8597919,41.632931,-95712,4634578,torreluna,46
POINT (-0.8525673 41.6813893),Casafran,,restaurant,,,,,Carretera Cogullada,22,,,,,-0.8525673,41.6813893,-94908,4639972,casafran,-1
POINT (-0.8442646 41.6689832),Begoña,,restaurant,,,,,Rio Piedra,,,,,,-0.8442646,41.6689832,-93984,4638591,begoña,19
POINT (-0.877439 41.6744564),Bambú Garden,,restaurant,,,,,Avenida Salvador Allende,65,,,,chinese,-0.877439,41.6744564,-97677,4639200,bambú garden,67
POINT (-0.8768569 41.6687595),Muxeron,,restaurant,,,,,Avenida Salvador Allende,15,,,,,-0.8768569,41.6687595,-97612,4638566,muxeron,-1
POINT (-0.8784338 41.6679524),La Isla (cerrado),,restaurant,,,,,Calle Isla La Graciosa,11,,,,,-0.8784338,41.6679524,-97787,4638476,la isla (cerrado),-1
POINT (-0.8725711 41.636439),Mesón El Mañico,,restaurant,,,,,Calle del Escultor Moreto,39,50008.0,,,,-0.8725711,41.636439,-97135,4634968,mesón el mañico,-1
POINT (-0.885653 41.6302401),King Döner Kebab,,fast_food,,,,,Avenida América,55,,,,kebab,-0.885653,41.6302401,-98591,4634278,king döner kebab,152
POINT (-0.88796 41.6284064),La Enterita,,restaurant,,,,,Calle de Fray Julián Garcés,74,,,,,-0.88796,41.6284064,-98848,4634074,la enterita,-1
POINT (-0.8908869 41.6287958),El Rincon de Bonanza,,restaurant,,,,,Calle de Èpila,8,,,,,-0.8908869,41.6287958,-99174,4634118,el rincon de bonanza,-1
POINT (-0.885252 41.629921),Pizzeria Bruno,,restaurant,,,,,,,,,,pizza,-0.885252,41.629921,-98546,4634243,pizzeria bruno,-1
POINT (-0.8873127 41.6315918),Combinado chino,,restaurant,,,,,Calle Alicante,30,,,,,-0.8873127,41.6315918,-98776,4634429,combinado chino,-1
POINT (-0.8774926 41.6369326),King Döner Kebab,,fast_food,,,,,Avenida de San José,153,,,,kebab,-0.8774926,41.6369326,-97682,4635023,king döner kebab,-1
POINT (-0.8872308 41.6302856),Peña Torrero,,restaurant,,,,,Calle de Fray Julián Garcés,30-32,,,,,-0.8872308,41.6302856,-98767,4634283,peña torrero,-1
POINT (-0.887631 41.6295506),A Mesa Puesta,,restaurant,,,,,Calle de Fray Julián Garcés,50,,,,,-0.887631,41.6295506,-98811,4634202,a mesa puesta,137
POINT (-0.8879222 41.6284967),Asador Merlot,,restaurant,,,,,Calle de Fray Julián Garcés,74,,,,,-0.8879222,41.6284967,-98843,4634084,asador merlot,137
POINT (-0.877303 41.632984),Los Tres Arcos,,restaurant,,,,,Calle de Melilla,,,,,,-0.877303,41.632984,-97661,4634584,los tres arcos,-1
POINT (-0.874694 41.6333456),La prensa,,restaurant,,,,,Calle de José Nebra,3,,,,,-0.874694,41.6333456,-97371,4634624,la prensa,141
POINT (-0.8864657 41.6316545),Los Mallos,,restaurant,,,,,Calle Alicante,16,,,,,-0.8864657,41.6316545,-98681,4634436,los mallos,151
POINT (-0.8861742 41.6330597),Telepizza,,fast_food,,,,,Vía Ramón Pignatelli,11-13,,Telepizza,,pizza,-0.8861742,41.6330597,-98649,4634592,telepizza,-1
POINT (-0.8757708 41.6328167),Bella ciudad,,restaurant,,,,,Calle Zaragoza la Vieja,35,,,,,-0.8757708,41.6328167,-97491,4634565,bella ciudad,141
POINT (-0.876664 41.6340081),Square,,restaurant,,,,,Calle del Escultor Salas,2,,,,,-0.876664,41.6340081,-97590,4634698,square,-1
POINT (-0.878076 41.637343),Al Gusto,,restaurant,,,,,Calle de José Pellicer,7,,,,pizza;barbecue,-0.878076,41.637343,-97747,4635069,al gusto,-1
POINT (-0.8851962 41.6344726),La Perla,,restaurant,,,,,Paseo Cuéllar,20,50007.0,,,,-0.8851962,41.6344726,-98540,4634749,la perla,-1
POINT (-0.86324 41.6622694),La Comidilla,,restaurant,,,,,Calle de José Oto,26,,,,,-0.86324,41.6622694,-96096,4637844,la comidilla,94
POINT (-0.8775514 41.6597021),Carbón y leña,,restaurant,,,,,Calle Mosén Domingo Agudo,3,,,,,-0.8775514,41.6597021,-97689,4637558,carbón y leña,93
POINT (-0.8571043 41.6590002),Mikar 2,,restaurant,,,,,Calle Manuel Viola,6,,,,,-0.8571043,41.6590002,-95413,4637480,mikar 2,-1
POINT (-0.8601337 41.6599963),Barrio,,restaurant,,,,,Calle Baluarte Aragonés,7-9,,,,,-0.8601337,41.6599963,-95750,4637591,barrio,87
POINT (-0.8719742 41.6627359),Duran 5,,restaurant,,,,,Calle Sierra de Gúdar,1,,,,,-0.8719742,41.6627359,-97068,4637896,duran 5,-1
POINT (-0.8692931 41.6568749),Puente de Hierro,,restaurant,,,,,Calle de Alfonso Solans Serrano,3,,,,,-0.8692931,41.6568749,-96770,4637243,puente de hierro,-1
POINT (-0.8633415 41.6623976),King döner kebab,,restaurant,,,,,Calle de Pascuala Perié,1,,,,,-0.8633415,41.6623976,-96107,4637858,king döner kebab,94
POINT (-0.873495 41.6612249),Casa bayo,,restaurant,,,,,Calle Sobrarbe,63,,,,,-0.873495,41.6612249,-97237,4637728,casa bayo,93
POINT (-0.8645099 41.6640012),El Torico,,restaurant,,,,,Calle Aurora,15,,,,,-0.8645099,41.6640012,-96237,4638037,el torico,-1
POINT (-0.8642005 41.6637969),Candela,,restaurant,,,,,Calle Aurora,7-9,,,,,-0.8642005,41.6637969,-96203,4638014,candela,-1
POINT (-0.8645784 41.664047),Monrepos,,restaurant,,,,,Calle Aurora,17,,,,,-0.8645784,41.664047,-96245,4638042,monrepos,-1
POINT (-0.875565 41.6619667),El Ferial,,restaurant,,,,,Calle de Sixto Celorrio,66,,,,,-0.875565,41.6619667,-97468,4637810,el ferial,92
POINT (-0.8754469 41.6613754),Bianco,,restaurant,,,,,Calle de Mariano Pano y Ruata,2,,,,,-0.8754469,41.6613754,-97455,4637744,bianco,92
POINT (-0.8577035 41.653432),La Barca,,restaurant,,,,,Calle Nobleza Baturra,19,,,,,-0.8577035,41.653432,-95480,4636860,la barca,-1
POINT (-0.8612174 41.6632978),Casa de Lai,,restaurant,,,,,Calle de Felisa Galé,2,,,,,-0.8612174,41.6632978,-95871,4637958,casa de lai,89
POINT (-0.8793098 41.6590353),Macanaz,,bar,,,,,Arboleda Macanaz,,,,,,-0.8793098,41.6590353,-97885,4637484,macanaz,-1
POINT (-0.8764385 41.6550698),Foro romano,,restaurant,,,,,Plaza de La Seo,2-3,,,,,-0.8764385,41.6550698,-97565,4637042,foro romano,300
POINT (-0.883841 41.6537873),Ciudad del Dragón,,restaurant,,,,,Calle del Coso,10-12,50004.0,,,chinese,-0.883841,41.6537873,-98389,4636900,ciudad del dragón,254
POINT (-0.8778822 41.6549491),Uh Mami!,,restaurant,,,,,Calle Santiago,32,,,,,-0.8778822,41.6549491,-97726,4637029,uh mami!,300
POINT (-0.8786663 41.6545337),Casa Juanico,,restaurant,,,,,Calle de Santa Cruz,21,,,,,-0.8786663,41.6545337,-97813,4636983,casa juanico,282
POINT (-0.8806728 41.6551945),Deau - gusta,,restaurant,,,,,Calle Santa Isabel,18,,,,,-0.8806728,41.6551945,-98036,4637056,deau - gusta,-1
POINT (-0.8791038 41.6559995),Restaurante el real,,restaurant,,,,,Calle de Alfonso I,40,,,,,-0.8791038,41.6559995,-97862,4637146,restaurante el real,266
POINT (-0.8811673 41.653478),Blasón del tubo,,restaurant,,,,,Calle del Blasón Aragonés,3,,,,,-0.8811673,41.653478,-98092,4636865,blasón del tubo,-1
POINT (-0.8805433 41.6531681),La Despensa,,restaurant,,,,,Calle de la Libertad,3,,,,,-0.8805433,41.6531681,-98022,4636831,la despensa,312
POINT (-0.8800896 41.654318),Carpanta,,restaurant,,,,,Calle de las Vírgenes,7,,,,,-0.8800896,41.654318,-97972,4636959,carpanta,-1
POINT (-0.8773111 41.654676),The Blackhorse Pub,,pub,,,,,Calle Don Jaime I,43,,,,,-0.8773111,41.654676,-97662,4636999,the blackhorse pub,300
POINT (-0.8767493 41.6550969),Hotel Husa VÍa Romana,,restaurant,,,,,Calle Don Jaime I,54-56,,,Husa Hoteles,,-0.8767493,41.6550969,-97600,4637045,hotel husa vía romana,300
POINT (-0.8761178 41.6533591),La Yedra,,restaurant,,,,,Calle Mayor,28,,,,,-0.8761178,41.6533591,-97529,4636852,la yedra,288
POINT (-0.8769516 41.6551246),La Estación 16,,cafe,,,,,Plaza de Nuestra Señora del Pilar,14-16,,,,,-0.8769516,41.6551246,-97622,4637048,la estación 16,300
POINT (-0.8791444 41.6538331),El Prior,,restaurant,,,,,Calle de Santa Cruz,7,,,,,-0.8791444,41.6538331,-97866,4636905,el prior,-1
POINT (-0.8811642 41.6556276),Gondola,,restaurant,,,,,Calle Santa Isabel,8,,,,,-0.8811642,41.6556276,-98091,4637104,gondola,-1
POINT (-0.8773662 41.6548798),Aloha Poké,,fast_food,,,,,Calle Santiago,27,,,,,-0.8773662,41.6548798,-97668,4637021,aloha poké,300
POINT (-0.8816054 41.6547771),Restaurante Montal,,restaurant,,,,,Calle de la Torre Nueva,29,50003.0,,,,-0.8816054,41.6547771,-98140,4637010,restaurante montal,276
POINT (-0.8809731 41.6536171),Bal d' Onsera,,restaurant,,,,,Calle del Blasón Aragonés,6,,,,,-0.8809731,41.6536171,-98070,4636881,bal d' onsera,-1
POINT (-0.8799165 41.6534637),Candolias el tubo,,restaurant,,,,,Calle Estébanes,9,,,,,-0.8799165,41.6534637,-97952,4636864,candolias el tubo,312
POINT (-0.8781024 41.6544515),Casa teo,,restaurant,,,,,Calle Espoz y Mina,24,,,,,-0.8781024,41.6544515,-97750,4636974,casa teo,-1
POINT (-0.8801384 41.6534895),Taberna Doña Casta,,restaurant,,,,,Calle de Estébanes,6,50003.0,,,spanish,-0.8801384,41.6534895,-97977,4636866,taberna doña casta,312
POINT (-0.8750597 41.6533508),La Mina,,restaurant,,,,,Calle de San Vicente de Paúl,29,,,,,-0.8750597,41.6533508,-97412,4636851,la mina,-1
